{"version": 0.6, "generator": "Overpass API 0.7.62.8 e802775f", "osm3s": {"timestamp_osm_base": "2025-11-23T07:58:40Z", "copyright": "The data included in this document is from www.openstreetmap.org. The data is made available under ODbL."}, "elements": [{"type": "node", "id": 2763419451, "lat": 40.4132626, "lon": 49.9260345, "tags": {"addr:street": "Mehdi Abbasov k\u00fc\u00e7\u0259si", "amenity": "restaurant", "name": "Romance Palace", "name:en": "Romance Palace", "name:ru": "Romance Palace"}}, {"type": "node", "id": 2763419456, "lat": 40.4130391, "lon": 49.928658, "tags": {"amenity": "restaurant", "name": "Sar\u0131 G\u0259lin"}}, {"type": "node", "id": 2763419459, "lat": 40.4116365, "lon": 49.9297906, "tags": {"amenity": "restaurant", "name": "Xar\u0131 B\u00fclb\u00fcl"}}, {"type": "node", "id": 2763421187, "lat": 40.4106153, "lon": 49.9307289, "tags": {"amenity": "restaurant", "name": "Xan Ba\u011f\u0131 \u00c7inar"}}, {"type": "node", "id": 2763421744, "lat": 40.4082163, "lon": 49.9328888, "tags": {"amenity": "restaurant", "name": "Xan Ba\u011f\u0131"}}, {"type": "node", "id": 2763421753, "lat": 40.4068314, "lon": 49.9337846, "tags": {"amenity": "restaurant", "name": "Dan Ulduzu Restoran / Koro\u011flu"}}, {"type": "node", "id": 2763425961, "lat": 40.4053561, "lon": 49.9348332, "tags": {"amenity": "restaurant", "name": "Xan Q\u0131z\u0131 \u015eadl\u0131q Saray\u0131"}}, {"type": "node", "id": 2763427010, "lat": 40.4027148, "lon": 49.9368314, "tags": {"amenity": "restaurant", "name": "C\u0259nn\u0259t \u015eadl\u0131q Saray\u0131 / \u00c7obanzad\u0259 k\u00fc\u00e7."}}, {"type": "node", "id": 2763428677, "lat": 40.4030494, "lon": 49.9331179, "tags": {"amenity": "restaurant", "name": "X\u0259ms\u0259"}}, {"type": "node", "id": 2763436833, "lat": 40.4020763, "lon": 49.9323195, "tags": {"amenity": "restaurant", "name": "Meridian Park \u015eadl\u0131q Saray\u0131 / 8-ci km."}}, {"type": "node", "id": 2763437218, "lat": 40.4037987, "lon": 49.9308204, "tags": {"amenity": "restaurant", "name": "Grand Neon \u015eadl\u0131q Saray\u0131 / 8-ci km."}}, {"type": "node", "id": 2763441912, "lat": 40.4010617, "lon": 49.9357377, "tags": {"amenity": "restaurant", "name": "Flaminqo \u015eadl\u0131q Saray\u0131 / 8-ci km."}}, {"type": "node", "id": 2763441913, "lat": 40.4010722, "lon": 49.9380625, "tags": {"amenity": "restaurant", "name": "Oskar"}}, {"type": "node", "id": 2763441914, "lat": 40.4006334, "lon": 49.9356091, "tags": {"amenity": "restaurant", "name": "Q\u0131z\u0131l Buta \u015eadl\u0131q Saray\u0131"}}, {"type": "node", "id": 2763441915, "lat": 40.4015979, "lon": 49.9318509, "tags": {"amenity": "restaurant", "name": "Grace Hall - Qreys Holl \u015eadl\u0131q Saray\u0131"}}, {"type": "node", "id": 2763449636, "lat": 40.4013958, "lon": 49.9378223, "tags": {"amenity": "restaurant", "name": "Ulduz"}}, {"type": "node", "id": 2763463759, "lat": 40.4030531, "lon": 49.9295485, "tags": {"amenity": "restaurant", "name": "Milord Restoran / 8-ci km."}}, {"type": "node", "id": 2763479164, "lat": 40.4062386, "lon": 49.9292192, "tags": {"amenity": "restaurant", "name": "Altun \u015eadl\u0131q Saray\u0131"}}, {"type": "node", "id": 2763479167, "lat": 40.4056946, "lon": 49.9299237, "tags": {"amenity": "restaurant", "name": "Ay \u0130\u015f\u0131\u011f\u0131 1 \u015eadl\u0131q Saray\u0131"}}, {"type": "node", "id": 2763479170, "lat": 40.4057331, "lon": 49.9306068, "tags": {"amenity": "restaurant", "name": "Ay \u0130\u015f\u0131\u011f\u0131 2 \u015eadl\u0131q Saray\u0131"}}, {"type": "node", "id": 2763479176, "lat": 40.4150802, "lon": 49.9242747, "tags": {"amenity": "restaurant", "name": "Emerald Baku"}}, {"type": "node", "id": 2763479179, "lat": 40.4073744, "lon": 49.927334, "tags": {"amenity": "restaurant", "name": "Neolit City \u015eadl\u0131q Saray\u0131"}}, {"type": "node", "id": 2763479182, "lat": 40.4066863, "lon": 49.9278079, "tags": {"amenity": "restaurant", "name": "Neptun \u015eadl\u0131q Saray\u0131"}}, {"type": "node", "id": 2763479187, "lat": 40.404735, "lon": 49.9352345, "tags": {"amenity": "restaurant", "name": "Raul"}}, {"type": "node", "id": 2763516978, "lat": 40.4052718, "lon": 49.9386155, "tags": {"amenity": "restaurant", "name": "Bahar"}}, {"type": "node", "id": 2763516979, "lat": 40.4058042, "lon": 49.9341292, "tags": {"amenity": "restaurant", "name": "Kometa"}}, {"type": "node", "id": 2763516981, "lat": 40.4056098, "lon": 49.9401634, "tags": {"amenity": "restaurant", "name": "Platin"}}, {"type": "node", "id": 2763516982, "lat": 40.4045097, "lon": 49.9390589, "tags": {"amenity": "restaurant", "name": "Xudaf\u0259rin"}}, {"type": "node", "id": 2763516983, "lat": 40.4096989, "lon": 49.9369873, "tags": {"amenity": "restaurant", "name": "Ras Plaza \\ Karat \u015eadl\u0131q Saray\u0131 \\ Neft\u00e7il\u04d9r"}}, {"type": "node", "id": 2763516984, "lat": 40.4049609, "lon": 49.9388711, "tags": {"amenity": "restaurant", "name": "\u00dcmid"}}, {"type": "node", "id": 2763516985, "lat": 40.4135991, "lon": 49.931333, "tags": {"amenity": "restaurant", "name": "\u0130mperator Restoran"}}, {"type": "node", "id": 2763516986, "lat": 40.4054036, "lon": 49.9412555, "tags": {"amenity": "restaurant", "name": "\u015eahs\u0259n\u0259m M\u0259kan", "name:en": "Rich palace"}}, {"type": "node", "id": 2895296659, "lat": 40.4164086, "lon": 49.9215023, "tags": {"amenity": "restaurant", "name": "Madonna", "name:en": "Madonna \u015eadl\u0131q Saray\u0131"}}, {"type": "node", "id": 2895334833, "lat": 40.4142815, "lon": 49.9424257, "tags": {"amenity": "restaurant", "name": "Komfort"}}, {"type": "node", "id": 3442328344, "lat": 40.4225651, "lon": 49.9171065, "tags": {"historic": "monument", "name": "Kristal Qala"}}, {"type": "node", "id": 3537386603, "lat": 40.427155, "lon": 49.9387844, "tags": {"name": "Ogguesto Motel \\ Bak\u0131xanov", "tourism": "motel"}}, {"type": "node", "id": 3553883402, "lat": 40.4074151, "lon": 49.9369688, "tags": {"historic": "memorial", "name": "Ramiz K\u0259rimov b\u00fcst"}}, {"type": "node", "id": 3595652230, "lat": 40.4101342, "lon": 49.94337, "tags": {"historic": "monument", "name": "Dakar dair\u0259si", "name:en": "Dakar circle"}}, {"type": "node", "id": 3610215840, "lat": 40.4075675, "lon": 49.9372585, "tags": {"historic": "monument"}}, {"type": "node", "id": 3610406553, "lat": 40.4041276, "lon": 49.9355787, "tags": {"amenity": "restaurant", "name": "Sapfir \u015eadl\u0131q Saray\u0131 / \u00c7obanzad\u0259 k\u00fc\u00e7."}}, {"type": "node", "id": 3610406555, "lat": 40.4020114, "lon": 49.936579, "tags": {"amenity": "restaurant", "name": "Halal M\u0259clis M\u0259rasim Evi"}}, {"type": "node", "id": 3610417290, "lat": 40.4084239, "lon": 49.9288107, "tags": {"amenity": "restaurant", "name": "\u015e\u0259rq Saray\u0131 \u015eadl\u0131q Evi"}}, {"type": "node", "id": 3610433488, "lat": 40.4058021, "lon": 49.9346522, "tags": {"amenity": "restaurant", "name": "\u018fmirxan Restoran\u0131"}}, {"type": "node", "id": 3622809585, "lat": 40.4212584, "lon": 49.9150877, "tags": {"historic": "memorial"}}, {"type": "node", "id": 3622809586, "lat": 40.4220484, "lon": 49.9144617, "tags": {"historic": "memorial"}}, {"type": "node", "id": 3622809587, "lat": 40.4221649, "lon": 49.9147465, "tags": {"historic": "memorial"}}, {"type": "node", "id": 3628809726, "lat": 40.4212165, "lon": 49.9382966, "tags": {"amenity": "restaurant", "name": "\u0130nci \u015eadl\u0131q Saray\u0131"}}, {"type": "node", "id": 4432796578, "lat": 40.4121052, "lon": 49.9427662, "tags": {"amenity": "restaurant", "name:en": "Shelale/\u015e\u0259lal\u0259 \u015fadl\u0131q evi"}}, {"type": "node", "id": 4575536508, "lat": 40.4425739, "lon": 49.9433235, "tags": {"amenity": "restaurant", "name": "B\u0259rg\u00fc\u015fad \u015eadl\u0131q Saray\u0131"}}, {"type": "node", "id": 4577310574, "lat": 40.4036822, "lon": 49.9360284, "tags": {"amenity": "restaurant", "name": "Saphir Restoran / \u00c7obanzad\u0259 k\u00fc\u00e7."}}, {"type": "node", "id": 4577310585, "lat": 40.4031471, "lon": 49.9365112, "tags": {"amenity": "restaurant", "name": "Manqal\u00fcst\u00fc Restoram / \u00c7obanzad\u0259 k\u00fc\u00e7."}}, {"type": "node", "id": 4577310586, "lat": 40.4030286, "lon": 49.9373567, "tags": {"amenity": "restaurant", "name": "Real \u015eadl\u0131q saray\u0131"}}, {"type": "node", "id": 4577321396, "lat": 40.4065548, "lon": 49.9339044, "tags": {"amenity": "restaurant", "name": "Hissa \u015eadl\u0131q Saray\u0131"}}, {"type": "node", "id": 4707711995, "lat": 40.4187376, "lon": 49.9454026, "tags": {"amenity": "restaurant", "name": "Balkan Palace"}}, {"type": "node", "id": 4707711996, "lat": 40.4218992, "lon": 49.9391699, "tags": {"amenity": "cafe", "name": "Terter Kafe"}}, {"type": "node", "id": 4707723689, "lat": 40.4161307, "lon": 49.9456775, "tags": {"amenity": "cafe", "name:en": "Zaza cay evi"}}, {"type": "node", "id": 4711179389, "lat": 40.4097055, "lon": 49.946642, "tags": {"amenity": "cafe", "name:en": "arazin kafesi", "name:ru": "arazin kafesi"}}, {"type": "node", "id": 4773296621, "lat": 40.4143837, "lon": 49.9037267, "tags": {"addr:street": "Heyd\u0259r \u018fliyev pr.", "name": "\u00c7inar Plaza Chinar", "tourism": "hotel"}}, {"type": "node", "id": 4815939321, "lat": 40.4161307, "lon": 49.939264, "tags": {"amenity": "restaurant", "name:en": "Praqa Restoran / Qara Qarayev k\u00fc\u00e7."}}, {"type": "node", "id": 4815939322, "lat": 40.4149456, "lon": 49.9401778, "tags": {"amenity": "restaurant", "name:en": "Yashil bag"}}, {"type": "node", "id": 4815939621, "lat": 40.4154408, "lon": 49.9397625, "tags": {"addr:street": "Qara Qarayev k\u00fc\u00e7\u0259si", "amenity": "restaurant", "internet_access": "wlan", "name:en": "\u00dcz\u00fcm restoran"}}, {"type": "node", "id": 4828661023, "lat": 40.409472, "lon": 49.9359368, "tags": {"amenity": "cafe", "name:en": "\u015eu\u015fa kafesi"}}, {"type": "node", "id": 4851832025, "lat": 40.4135156, "lon": 49.9260641, "tags": {"amenity": "restaurant", "name:en": "Romance Palace 1"}}, {"type": "node", "id": 4851834121, "lat": 40.4130237, "lon": 49.9262772, "tags": {"amenity": "restaurant", "name:en": "Romance Palace 2"}}, {"type": "node", "id": 4862589122, "lat": 40.4275801, "lon": 49.9409001, "tags": {"amenity": "restaurant", "name": "Ellada \u015eadl\u0131q Saray\u0131 \\ Bak\u0131xanov", "phone": "+994 12 425 4597"}}, {"type": "node", "id": 4862598921, "lat": 40.4270444, "lon": 49.9380427, "tags": {"amenity": "restaurant", "name": "\u00c7inarl\u0131 Restoran \\ Bak\u0131xanov"}}, {"type": "node", "id": 4931591122, "lat": 40.4175115, "lon": 49.9401009, "tags": {"addr:street": "\u018flia\u011fa K\u00fcr\u00e7ayl\u0131", "amenity": "cafe", "cuisine": "tea", "name": "Ka\u015fara \u00c7ay\u00e7\u0131", "opening_hours": "24/7"}}, {"type": "node", "id": 4947001921, "lat": 40.4054759, "lon": 49.9383185, "tags": {"amenity": "restaurant", "name:en": "Xudaf\u0259rin \u015fadl\u0131q saray\u0131"}}, {"type": "node", "id": 4966708421, "lat": 40.4288383, "lon": 49.9286151, "tags": {"amenity": "restaurant", "name": "Hunter House Restoran \\ Bak\u0131xanov"}}, {"type": "node", "id": 5005231424, "lat": 40.4406983, "lon": 49.936105, "tags": {"internet_access": "wlan", "name:en": "Yugra guest house", "tourism": "guest_house", "website": "https://www.booking.com/Share-jzvfdp"}}, {"type": "node", "id": 5043008522, "lat": 40.4134046, "lon": 49.9396542, "tags": {"name:en": "Ofis kiraye", "tourism": "hotel"}}, {"type": "node", "id": 5276823621, "lat": 40.408618, "lon": 49.9349579, "tags": {"addr:housenumber": "12", "addr:street": "\u018fzim \u018fzimzad\u0259", "tourism": "apartment"}}, {"type": "node", "id": 5320023123, "lat": 40.4236189, "lon": 49.9270104, "tags": {"amenity": "restaurant", "name": "Ayla \u015eadl\u0131q Saray\u0131"}}, {"type": "node", "id": 5331315521, "lat": 40.4114173, "lon": 49.9398369, "tags": {"addr:street": "\u018fzim \u018fzimzad\u0259", "amenity": "cafe", "name:en": "777"}}, {"type": "node", "id": 5584516721, "lat": 40.4196135, "lon": 49.9311854, "tags": {"amenity": "restaurant", "name:en": "Sevinc"}}, {"type": "node", "id": 5760621722, "lat": 40.4289244, "lon": 49.9190849, "tags": {"addr:housenumber": "323", "addr:street": "Heyd\u0259r \u018fliyev prospekti", "amenity": "cafe", "cuisine": "cake;coffee_shop;breakfast;hot_dog;ice_cream;pancake;sandwich;sausage;tea", "internet_access": "wlan", "name:en": "VOM.4 Cafe", "opening_hours": "Mo-Sa 09:00-14:00, 15:00-19:00", "website": "https://www.bos.az/"}}, {"type": "node", "id": 5950683657, "lat": 40.4388394, "lon": 49.9358711, "tags": {"name": "Sabun\u00e7u Yer\u00fcst\u00fc Ke\u00e7id", "tourism": "attraction"}}, {"type": "node", "id": 6088386286, "lat": 40.4197686, "lon": 49.9315809, "tags": {"amenity": "cafe", "name:en": "Sevinc d\u00f6ner&kebab", "name:ru": "\u0421\u0435\u0432\u0438\u043d\u0434\u0436 \u0434\u0451\u043d\u0435\u0440&\u043a\u0435\u0431\u0430\u0431"}}, {"type": "node", "id": 6107061531, "lat": 40.4008618, "lon": 49.9312499, "tags": {"amenity": "restaurant", "name": "S\u0259h\u0259r Mehi Restorani"}}, {"type": "node", "id": 6438048190, "lat": 40.4101322, "lon": 49.9427161, "tags": {"amenity": "cafe", "name:en": "Doneretto"}}, {"type": "node", "id": 6438048489, "lat": 40.4080385, "lon": 49.9370008, "tags": {"addr:street": "Mehseti Gencevi 41", "amenity": "restaurant", "name:en": "Xezri Restoran"}}, {"type": "node", "id": 6862752585, "lat": 40.4346844, "lon": 49.9333927, "tags": {"amenity": "townhall", "name": "G\u00fcn\u0259\u015f MMC \\ Bak\u0131xanov", "tourism": "apartment"}}, {"type": "node", "id": 6934787886, "lat": 40.4063372, "lon": 49.9478544, "tags": {"name:en": "Gidromashservis", "tourism": "camp_site"}}, {"type": "node", "id": 7141819085, "lat": 40.4184981, "lon": 49.909967, "tags": {"addr:street": "Heyd\u0259r \u018fliyev prospekti", "name": "Caspian Sport Hotel \\ Kaspian Sport Otel", "tourism": "hotel"}}, {"type": "node", "id": 7239348485, "lat": 40.4033503, "lon": 49.9460319, "tags": {"amenity": "cafe", "name:en": "Nar"}}, {"type": "node", "id": 7555730586, "lat": 40.444965, "lon": 49.9338289, "tags": {"addr:street": "Zabrat - Sabun\u00e7u \u015fossesi", "amenity": "cafe", "name": "Emin Kafe"}}, {"type": "node", "id": 7886120085, "lat": 40.4018935, "lon": 49.9332291, "tags": {"amenity": "restaurant", "cuisine": "barbecue;breakfast;kebab", "name": "\u015eu\u015fa Qalas\u0131 Restoran / Koro\u011flu"}}, {"type": "node", "id": 8892013526, "lat": 40.4132346, "lon": 49.9454173, "tags": {"addr:city": "Bak\u0131", "addr:housenumber": "196", "addr:street": "N\u0259simi k\u00fc\u00e7\u0259si", "amenity": "marketplace", "name": "OBA Market"}}, {"type": "node", "id": 8892013527, "lat": 40.4132054, "lon": 49.9452681, "tags": {"addr:city": "Bak\u0131", "addr:housenumber": "196", "addr:street": "N\u0259simi k\u00fc\u00e7\u0259si", "amenity": "marketplace", "name": "AL Market"}}, {"type": "node", "id": 9765228504, "lat": 40.4216327, "lon": 49.9101041, "tags": {"name": "Atillla Dair\u0259si", "tourism": "attraction"}}, {"type": "node", "id": 9855567698, "lat": 40.4083065, "lon": 49.9454444, "tags": {"amenity": "restaurant", "cuisine": "georgian", "name": "Khachapuri Picnic Restaurant", "name:en": "Xa\u00e7apuri Piknik"}}, {"type": "node", "id": 9870885690, "lat": 40.4042381, "lon": 49.9306753, "tags": {"amenity": "restaurant", "name": "Neon \u015eadl\u0131q Saray\u0131 / 8-ci km."}}, {"type": "node", "id": 9870885709, "lat": 40.4020761, "lon": 49.9302086, "tags": {"amenity": "restaurant", "name": "Xa\u00e7apuri Restoran / 8-ci km."}}, {"type": "node", "id": 9870972178, "lat": 40.401062, "lon": 49.9327728, "tags": {"amenity": "restaurant", "name": "B\u00f6y\u00fck Saray \u015eadl\u0131q Saray\u0131 / 8-ci km."}}, {"type": "node", "id": 9870972222, "lat": 40.4026062, "lon": 49.9324375, "tags": {"amenity": "restaurant", "name": "Meridian Restoran / 8-ci km."}}, {"type": "node", "id": 9871079179, "lat": 40.4053901, "lon": 49.9333549, "tags": {"amenity": "restaurant", "name": "Niyam Salami Restoran / 8-ci km."}}, {"type": "node", "id": 9871079180, "lat": 40.4052124, "lon": 49.9326172, "tags": {"addr:housenumber": "14q", "addr:street": "R\u00fcst\u0259m R\u00fcst\u0259mov k\u00fc\u00e7\u0259si", "email": "info@joyyhotel.com", "internet_access": "wlan", "name": "Joyy Hotel Spa", "name:en": "Joyy Hotel Spa", "phone": "+994503694444", "tourism": "hotel", "website": "http://www.joyyhotel.com"}}, {"type": "node", "id": 9871079200, "lat": 40.4059681, "lon": 49.9319829, "tags": {"amenity": "restaurant", "name": "Gilavar Restoran / Koro\u011flu"}}, {"type": "node", "id": 9871079201, "lat": 40.4056495, "lon": 49.9319011, "tags": {"amenity": "restaurant", "name": "Qastronomiya Restoran"}}, {"type": "node", "id": 9871157179, "lat": 40.403032, "lon": 49.9367774, "tags": {"amenity": "restaurant", "name": "Xan \u015e\u0259ki Restoran / \u00c7obanzad\u0259 k\u00fc\u00e7."}}, {"type": "node", "id": 9871176134, "lat": 40.4057373, "lon": 49.931303, "tags": {"amenity": "restaurant", "name": "Ay \u0130\u015f\u0131\u011f\u0131 3 \u015eadl\u0131q Saray\u0131"}}, {"type": "node", "id": 9871176189, "lat": 40.4060518, "lon": 49.9284625, "tags": {"amenity": "restaurant", "name": "Altun Restoran"}}, {"type": "node", "id": 9871176190, "lat": 40.4078594, "lon": 49.9284598, "tags": {"amenity": "restaurant", "name": "Neolit Hall \u015eadl\u0131q Saray\u0131"}}, {"type": "node", "id": 9883957117, "lat": 40.4114349, "lon": 49.9301198, "tags": {"amenity": "restaurant", "name": "Bax\u00e7asaray / Xar\u0131 B\u00fclb\u00fcl"}}, {"type": "node", "id": 9893877034, "lat": 40.4150849, "lon": 49.943735, "tags": {"amenity": "cafe", "name": "Qaraba\u011f Kafe"}}, {"type": "node", "id": 9893892915, "lat": 40.4188423, "lon": 49.9375015, "tags": {"amenity": "cafe", "name": "\u00c7i\u00e7\u0259k Kafe"}}, {"type": "node", "id": 9893892916, "lat": 40.4185646, "lon": 49.9369758, "tags": {"amenity": "restaurant", "name": "Zil Restoran"}}, {"type": "node", "id": 9893966209, "lat": 40.423303, "lon": 49.9307585, "tags": {"name": "Yataqxana", "tourism": "guest_house"}}, {"type": "node", "id": 9917769730, "lat": 40.4151196, "lon": 49.9240637, "tags": {"name": "Emerald Hotel", "tourism": "hotel"}}, {"type": "node", "id": 9917769731, "lat": 40.4150604, "lon": 49.9252787, "tags": {"information": "office", "name": "Kaspi Y;ld;z Holding", "tourism": "information"}}, {"type": "node", "id": 9917769739, "lat": 40.4164613, "lon": 49.9281165, "tags": {"amenity": "restaurant", "name": "Ruza Lunch"}}, {"type": "node", "id": 9917815303, "lat": 40.4122033, "lon": 49.9339409, "tags": {"amenity": "restaurant", "name": "Planet Premium \u015eadl\u0131q Saray\u0131"}}, {"type": "node", "id": 9917858425, "lat": 40.4109913, "lon": 49.9308564, "tags": {"amenity": "restaurant", "name": "Villa Astoria Restoran"}}, {"type": "node", "id": 9917858426, "lat": 40.4111424, "lon": 49.9307638, "tags": {"amenity": "restaurant", "name": "Topqap\u0131 Restoran"}}, {"type": "node", "id": 9917858476, "lat": 40.4091981, "lon": 49.933501, "tags": {"amenity": "restaurant", "name": "H\u0259k\u0259ri Restoran\u0131 / Koro\u011flu"}}, {"type": "node", "id": 9917858543, "lat": 40.4083168, "lon": 49.9339154, "tags": {"name": "X\u0259z\u0259r Universiteti Qonaq Evi", "tourism": "guest_house"}}, {"type": "node", "id": 9927789318, "lat": 40.424844, "lon": 49.9323662, "tags": {"addr:housenumber": "16A", "addr:postcode": "1002", "addr:street": "Yav\u0259r \u018fliyev k\u00fc\u00e7.", "name": "Qonaq Evi", "tourism": "guest_house"}}, {"type": "node", "id": 10087221119, "lat": 40.421467, "lon": 49.9286581, "tags": {"addr:housenumber": "21", "addr:street": "\u00d6zb\u0259kistan k\u00fc\u00e7\u0259si", "amenity": "cafe", "cuisine": "kebab;local", "internet_access": "wlan", "level": "1", "name:en": "Kafe TT", "opening_hours": "Mo-Su 10:00-00:00", "phone": "+994558499928"}}, {"type": "node", "id": 10794665506, "lat": 40.4470015, "lon": 49.9324175, "tags": {"addr:city": "Sabun\u00e7u", "addr:street": "\u018fc\u0259mi Nax\u00e7\u0131vani k\u00fc\u00e7.", "name": "Qonaq Evi", "tourism": "guest_house"}}, {"type": "node", "id": 10797411377, "lat": 40.4473859, "lon": 49.9421552, "tags": {"addr:city": "Sabun\u00e7u", "addr:street": "Stansiya k\u00fc\u00e7.", "amenity": "cafe", "name": "Aysel Kafe"}}, {"type": "node", "id": 10802785478, "lat": 40.4403935, "lon": 49.939591, "tags": {"name": "Panoramic Hotel", "tourism": "motel"}}, {"type": "node", "id": 10816747773, "lat": 40.4459356, "lon": 49.9340563, "tags": {"amenity": "cafe", "name": "G\u00fcl\u00fcstan Kafe"}}, {"type": "node", "id": 10816747774, "lat": 40.4462653, "lon": 49.9340536, "tags": {"amenity": "cafe", "name": "Bol D\u00f6n\u0259r"}}, {"type": "node", "id": 10816748464, "lat": 40.446595, "lon": 49.9337612, "tags": {"addr:city": "Sabun\u00e7u", "addr:street": "\u018fc\u0259mi Nax\u00e7\u0131vani k\u00fc\u00e7.", "amenity": "restaurant", "name": "Sabun\u00e7u M\u0259rasim Evi"}}, {"type": "node", "id": 10816748495, "lat": 40.4467746, "lon": 49.9335895, "tags": {"addr:street": "\u018fc\u0259mi Nax\u00e7\u0131vani k\u00fc\u00e7.", "amenity": "cafe", "name": "Dostlar Kafe"}}, {"type": "node", "id": 10816753816, "lat": 40.4483014, "lon": 49.9347322, "tags": {"addr:street": "Zabrat - Sabun\u00e7u \u015fossesi", "amenity": "cafe", "name": "D\u00f6rd Yol Kafe"}}, {"type": "node", "id": 10816753825, "lat": 40.4498955, "lon": 49.9358252, "tags": {"addr:street": "Zabrat - Sabun\u00e7u \u015fossesi", "amenity": "cafe", "name": "Qaqo Market", "shop": "convenience"}}, {"type": "node", "id": 10816782316, "lat": 40.4421685, "lon": 49.9334125, "tags": {"addr:street": "Zabrat - Sabun\u00e7u \u015fossesi", "amenity": "cafe", "name": "G\u00f6r\u00fc\u015f Kafe"}}, {"type": "node", "id": 10816782333, "lat": 40.4416071, "lon": 49.9333629, "tags": {"amenity": "cafe", "name": "L\u0259nk\u0259ran L\u0259v\u0259ngisi"}}, {"type": "node", "id": 10816782341, "lat": 40.442439, "lon": 49.9339449, "tags": {"amenity": "cafe", "name": "\u0130tto S\u00f6n\u0259r"}}, {"type": "node", "id": 10816852173, "lat": 40.438346, "lon": 49.9338698, "tags": {"name": "Sabun\u00e7u Dair\u0259si", "tourism": "attraction"}}, {"type": "node", "id": 10816852174, "lat": 40.4398128, "lon": 49.9270771, "tags": {"addr:city": "Sabun\u00e7u", "addr:street": "El\u015f\u0259n Mehdiyev k\u00fc\u00e7.", "amenity": "cafe", "name": "\u00c7ay Evi"}}, {"type": "node", "id": 10816870772, "lat": 40.4390401, "lon": 49.9326843, "tags": {"addr:street": "El\u015f\u0259n Mehdiyev k\u00fc\u00e7.", "amenity": "cafe", "name": "C\u0259nub M\u0259kan Market"}}, {"type": "node", "id": 10816870790, "lat": 40.4393055, "lon": 49.9326092, "tags": {"addr:street": "El\u015f\u0259n Mehdiyev k\u00fc\u00e7.", "amenity": "restaurant", "name": "Qo\u015fa \u00c7inar Restoran \\ Sabun\u00e7u"}}, {"type": "node", "id": 10816870800, "lat": 40.4396392, "lon": 49.929982, "tags": {"addr:street": "El\u015f\u0259n Mehdiyev k\u00fc\u00e7.", "amenity": "cafe", "name": "Qaraba\u011f Kafe \\ Sabun\u00e7u"}}, {"type": "node", "id": 10816913348, "lat": 40.4471216, "lon": 49.9483082, "tags": {"historic": "memorial", "name": "Rixard Zorge Evi \\ Sabun\u00e7u"}}, {"type": "node", "id": 10822540813, "lat": 40.4425768, "lon": 49.9431919, "tags": {"amenity": "restaurant", "name": "Riva Palace"}}, {"type": "node", "id": 10822540837, "lat": 40.4436515, "lon": 49.9427761, "tags": {"amenity": "restaurant", "name": "Bax\u00e7a \u015e\u0259h\u0259r Restoran \\ Sabun\u00e7u"}}, {"type": "node", "id": 10822540838, "lat": 40.4438781, "lon": 49.9429263, "tags": {"addr:street": "\u018fsildar M\u0259mm\u0259d\u0259liyev k\u00fc\u00e7.", "amenity": "cafe", "name": "Bor\u00e7al\u0131 Kafe \\ Sabun\u00e7u"}}, {"type": "node", "id": 10822540863, "lat": 40.4458305, "lon": 49.9443251, "tags": {"addr:city": "Sabun\u00e7u", "addr:street": "\u018fsildar M\u0259mm\u0259d\u0259liyev k\u00fc\u00e7.", "amenity": "restaurant", "name": "Z\u0259f\u0259ran Restoran"}}, {"type": "node", "id": 10822540866, "lat": 40.4461418, "lon": 49.9446617, "tags": {"amenity": "cafe", "name": "Keyfi \u018ft Kafe \\ \\ Stansiya Sabun\u00e7u"}}, {"type": "node", "id": 10822540880, "lat": 40.4469328, "lon": 49.9454999, "tags": {"amenity": "cafe", "name": "Ya\u011fmur Kafe \\ Sabun\u00e7u"}}, {"type": "node", "id": 10822540885, "lat": 40.4471634, "lon": 49.9453738, "tags": {"addr:street": "2 Aprel \\ Pi\u015f\u0259vari k\u00fc\u00e7.", "amenity": "restaurant", "name": "Florensiya \u015eadl\u0131q Saray\u0131 \\ Sabun\u00e7u"}}, {"type": "node", "id": 10822540888, "lat": 40.4468123, "lon": 49.9455576, "tags": {"addr:city": "Sabun\u00e7u", "addr:street": "2 Aprel \\ Pi\u015f\u0259vari k\u00fc\u00e7.", "amenity": "cafe", "name": "Nur Kafe"}}, {"type": "node", "id": 10822565530, "lat": 40.4467266, "lon": 49.9495487, "tags": {"addr:city": "Sabun\u00e7u", "addr:street": "Nat\u0259van k\u00fc\u00e7.", "amenity": "cafe", "name": "\u018fminin Kafesi"}}, {"type": "node", "id": 10822620270, "lat": 40.4420521, "lon": 49.9423107, "tags": {"amenity": "restaurant", "name": "\u0130stanbul Restoran"}}, {"type": "node", "id": 10822620283, "lat": 40.4422124, "lon": 49.9426098, "tags": {"amenity": "restaurant", "name": "M\u0259din\u0259 M\u0259rasim Evi"}}, {"type": "node", "id": 10822620284, "lat": 40.4427156, "lon": 49.9449956, "tags": {"amenity": "cafe", "name": "Park Kafe"}}, {"type": "node", "id": 10827737996, "lat": 40.4269119, "lon": 49.9368793, "tags": {"addr:housenumber": "4G", "addr:street": "B\u0259\u015fir B\u00fcnyadov k\u00fc\u00e7.", "email": "info@shekipark.az", "internet_access": "wlan", "name": "Supreme Otel \\ Bak\u0131xanov", "opening_hours": "24/7", "phone": "+994 12 310 39 35;+994 50 273 65 78", "tourism": "hotel", "website": "https://supremehotel.co/"}}, {"type": "node", "id": 10827741775, "lat": 40.4268966, "lon": 49.9373366, "tags": {"amenity": "restaurant"}}, {"type": "node", "id": 10827741850, "lat": 40.4277552, "lon": 49.9411896, "tags": {"leisure": "sauna", "name": "Yeni Bak\u0131 Hamam \\ Bak\u0131xanov", "tourism": "attraction"}}, {"type": "node", "id": 10827776170, "lat": 40.4265812, "lon": 49.9345055, "tags": {"addr:city": "Bak\u0131xanov", "addr:street": "B\u0259\u015fir B\u00fcnyadov k\u00fc\u00e7.", "amenity": "cafe", "name": "Ruzi Kafe \\ Sabun\u00e7u"}}, {"type": "node", "id": 10827776174, "lat": 40.4273131, "lon": 49.9363254, "tags": {"addr:city": "Bak\u0131xanov", "addr:street": "B\u0259\u015fir B\u00fcnyadov k\u00fc\u00e7.", "amenity": "cafe", "name": "Kabab Evi"}}, {"type": "node", "id": 10827884736, "lat": 40.4267333, "lon": 49.9350916, "tags": {"addr:city": "Bak\u0131xanov", "addr:street": "B\u0259\u015fir B\u00fcnyadov k\u00fc\u00e7.", "amenity": "cafe", "name": "Kafe"}}, {"type": "node", "id": 11013004931, "lat": 40.4044771, "lon": 49.9490082, "tags": {"amenity": "marketplace", "name": "8-ci km Bazar\u0131"}}, {"type": "node", "id": 11225511609, "lat": 40.4131182, "lon": 49.9233274, "tags": {"addr:street": "Mikay\u0131l \u018fliyev", "brand": "Wyndham Garden", "brand:wikidata": "Q112144847", "name": "Wyndham Garden Baku \\ Koro\u011flu Dair\u0259si", "phone": "+994125261515", "tourism": "hotel"}}, {"type": "node", "id": 11266478670, "lat": 40.4096608, "lon": 49.9491241, "tags": {"amenity": "restaurant", "contact:instagram": "https://www.instagram.com/zigzagrestoranbaku", "contact:phone": "+994 51 340 89 85", "name": "Zig Zag Restaurant"}}, {"type": "node", "id": 11804921869, "lat": 40.4128037, "lon": 49.9407321, "tags": {"amenity": "restaurant", "name:en": "Nirvana", "name:ru": "\u041d\u0438\u0440\u0432\u0430\u043d\u0430"}}, {"type": "node", "id": 12330576401, "lat": 40.4164745, "lon": 49.939076, "tags": {"addr:housenumber": "8", "addr:street": "Musa \u018fliyev k\u00fc\u00e7\u0259si", "amenity": "restaurant", "cuisine": "breakfast;kebab;local", "int_name": "Tebiet Restoran", "name": "Tebiet Restoran", "name:en": "Tebiet Restoran", "opening_hours": "Mo-Su 10:00-00:00"}}, {"type": "way", "id": 154665338, "nodes": [1671669206, 1671669192, 1671669268, 1671669271, 1671669195, 1671669298, 1671669251, 1671669206], "tags": {"landuse": "grass", "leisure": "park"}}, {"type": "way", "id": 154665339, "nodes": [1671669295, 1671669230, 1671669209, 1671669228, 1671669189, 1671669221, 1671669186, 1671669282, 1671669295], "tags": {"landuse": "grass", "leisure": "park"}}, {"type": "way", "id": 154669133, "nodes": [1671691479, 1671691464, 1671691507, 11013004988, 11013004986, 1671691509, 11013004983, 11013016822, 1671691466, 1671691468, 1671691499, 1671691517, 1671691481, 1671691485, 1671691495, 1671691482, 11013016821, 1671691504, 1671691491, 11013004985, 1671691511, 11013016806, 1671691488, 1671691493, 1671691497, 1671691479], "tags": {"leisure": "park", "name": "Heyd\u0259r \u018fliyev Park\u0131 \\ 8-ci km"}}, {"type": "way", "id": 248977283, "nodes": [2556832430, 2556832771, 9868918968, 2556832707, 2556832228, 9868918971, 4858387072, 4858387073, 9868918990, 4858387079, 2556832546, 4858387078, 2556832487, 2556832070, 2556832120, 2556832092, 2556832430], "tags": {"leisure": "park"}}, {"type": "way", "id": 248979108, "nodes": [2556848861, 2556849032, 9868919008, 2556849021, 2556849060, 9868919006, 2556848885, 9868919007, 2556848912, 2556848878, 2556848972, 9868919003, 2556849033, 9868919004, 2556848909, 9868919005, 2556848906, 2556848924, 2556849050, 2556849028, 2556848861], "tags": {"leisure": "park"}}, {"type": "way", "id": 271390579, "nodes": [2763442014, 2763442006, 2763441979, 3610406957, 2763441960, 2763441958, 2763441969, 2763441963, 2763441976, 2763441988, 2763442014], "tags": {"leisure": "park"}}, {"type": "way", "id": 271390581, "nodes": [2763441954, 2763441953, 2763441951, 2763441950, 2763441949, 2763441946, 9870972244, 2763441954], "tags": {"leisure": "park"}}, {"type": "way", "id": 271390582, "nodes": [2763441972, 2763441975, 2763441964, 3610406875, 2763441962, 3610406843, 3610406836, 2763441961, 2763441959, 3610406865, 2763441972], "tags": {"amenity": "restaurant"}}, {"type": "way", "id": 273320115, "nodes": [2781855560, 2781855562, 2781855564, 2781855566, 2781855569, 2781855577, 2781855579, 2781855581, 2781855583, 2781855585, 2781855542, 2781855548, 2781855550, 2781855552, 2781855554, 2781855556, 2781855558, 2781855544, 2781855546, 2781855560], "tags": {"addr:city": "Bak\u0131", "landuse": "grass", "name": "Koro\u011flu dair\u0259si", "tourism": "attraction"}}, {"type": "way", "id": 330839191, "nodes": [3378442515, 3378442517, 3378442518, 3378442516, 3378442513, 3378442511, 3378442510, 3378442512, 3378442515], "tags": {"landuse": "grass", "name": "Sabun\u00e7u D\u0259miryol Stansiyas\u0131", "tourism": "attraction"}}, {"type": "way", "id": 337131929, "nodes": [3442328389, 4021864034, 4021864035, 4021864036, 4021864037, 4021864038, 4021864039, 4021864040, 3442330001, 3442329995, 3622886067, 3442328391, 3622886055, 3442328387, 3622886040, 3442328383, 3442328381, 3622886026, 3622886021, 3622886024, 3442328374, 5672805585, 3442328382, 4021864043, 3622809518, 3622886041, 3442328389], "tags": {"leisure": "park", "name": "Alov Park\u0131"}}, {"type": "way", "id": 345752196, "nodes": [3524011649, 10797411336, 10797411333, 10797411334, 10797411335, 3524011636, 10797751346, 3524011635, 3524011648, 10797751347, 3524011649], "tags": {"leisure": "park"}}, {"type": "way", "id": 346638131, "nodes": [3531527420, 3531527425, 3531527424, 3531527421, 3531527422, 3531527417, 3531527418, 3531527420], "tags": {"leisure": "park"}}, {"type": "way", "id": 353909068, "nodes": [1671658836, 3597008465, 3597008475, 1671658833, 2326319127, 1671658837, 1671658836], "tags": {"leisure": "park"}}, {"type": "way", "id": 354841122, "nodes": [3605014207, 3605014203, 3605014193, 3605014226, 3605014265, 3605014207], "tags": {"amenity": "marketplace", "building": "yes", "building:levels": "2", "name": "8-ci km Bazar\u0131"}}, {"type": "way", "id": 355389468, "nodes": [3610142725, 3610142695, 3610139080, 3610139082, 3610142711, 3610142729, 3610142725], "tags": {"leisure": "park"}}, {"type": "way", "id": 355390020, "nodes": [3610142660, 3610142659, 3610142658, 3610142652, 3610142653, 3610142654, 3610142660], "tags": {"leisure": "park"}}, {"type": "way", "id": 355393151, "nodes": [3610163808, 3610163799, 3610163816, 3610163829, 3610163814, 3610163822, 3610155291, 3610155289, 3610155285, 3610155283, 3610155288, 3610163808], "tags": {"leisure": "park"}}, {"type": "way", "id": 355396936, "nodes": [3610208957, 3610208950, 3610208971, 3610208989, 3610208957], "tags": {"leisure": "park"}}, {"type": "way", "id": 355398307, "nodes": [3610215197, 3610215196, 3610215195, 3610215198, 3610215199, 3610215200, 3610215197], "tags": {"leisure": "park"}}, {"type": "way", "id": 355398308, "nodes": [3610215217, 3610215215, 3610215213, 3610215218, 3610215219, 3610215220, 3610215217], "tags": {"leisure": "park"}}, {"type": "way", "id": 355398309, "nodes": [3610215203, 3610215202, 3610215201, 3610215212, 3610215214, 3610215216, 3610215203], "tags": {"leisure": "park"}}, {"type": "way", "id": 355405187, "nodes": [3610256383, 3610256344, 3610256369, 3610256363, 3610256499, 3610256506, 3610256512, 3610256517, 3610256511, 3610256389, 3610256383], "tags": {"leisure": "park"}}, {"type": "way", "id": 355405189, "nodes": [3610256214, 3610256209, 3610256217, 3610256219, 3610256218, 3610256214], "tags": {"leisure": "park"}}, {"type": "way", "id": 355409609, "nodes": [3610284343, 3610284332, 3610284361, 3610284376, 3610284343], "tags": {"leisure": "park"}}, {"type": "way", "id": 355412022, "nodes": [3610288291, 3610288288, 3610296994, 2035188810, 2035188800, 3610296993, 3610288291], "tags": {"leisure": "park"}}, {"type": "way", "id": 355427024, "nodes": [3610406973, 3610406982, 3610406988, 3610407002, 2763425968, 3610406996, 3610406999, 2763425964, 2763425966, 3610406995, 3610406981, 3610406958, 3610406961, 3610406951, 3610406938, 3610406947, 3610406932, 3610406980, 3610406979, 3610406973], "tags": {"leisure": "park"}}, {"type": "way", "id": 355427032, "nodes": [3610406747, 3610406740, 3610406744, 3610406752, 3610406747], "tags": {"leisure": "park"}}, {"type": "way", "id": 355427033, "nodes": [3610406986, 3610406984, 3610406914, 3610406923, 3610406986], "tags": {"leisure": "park"}}, {"type": "way", "id": 355427035, "nodes": [3610406998, 3610406991, 3610407003, 2763517038, 2763517046, 3610406998], "tags": {"leisure": "park"}}, {"type": "way", "id": 355427037, "nodes": [3610407158, 3610407146, 3610407143, 3610407161, 3610407171, 3610407158], "tags": {"leisure": "park"}}, {"type": "way", "id": 355427039, "nodes": [3610256234, 3610406767, 3610406793, 3610406801, 3610256258, 3610256234], "tags": {"leisure": "park"}}, {"type": "way", "id": 355427040, "nodes": [3610407211, 3610407210, 3610407203, 3610407220, 3610407224, 3610407225, 3610407211], "tags": {"leisure": "park"}}, {"type": "way", "id": 355427041, "nodes": [3610256283, 3610406841, 3610406827, 3610406879, 3610406892, 3610406897, 3610256283], "tags": {"leisure": "park"}}, {"type": "way", "id": 355427120, "nodes": [3610406719, 3610406725, 3610406727, 3610406729, 3610406734, 3610406738, 3610406739, 3610406743, 3610406749, 9871079159, 3610406755, 3610406765, 2763462140, 6339086736, 6339086737, 6339086738, 6339086739, 2763462138, 9870972123, 3610406715, 3610406693, 3610406703, 3610406719], "tags": {"leisure": "park"}}, {"type": "way", "id": 355427167, "nodes": [3610406874, 9871116150, 3610406867, 3610406828, 3610406821, 9870972277, 3610406836, 2763441961, 3610406865, 3610406864, 3610406874], "tags": {"leisure": "park"}}, {"type": "way", "id": 355428405, "nodes": [2763479257, 9871176152, 9871176137, 2763479260, 2763479256, 2763479244, 2763479252, 9871176148, 2763479237, 9871176146, 9871176145, 9871176144, 9871176143, 9871176142, 9871176147, 3610418703, 3610418709, 3610418711, 2763479232, 2763479233, 2763479226, 2763479227, 2763479235, 2763479239, 2763479241, 2763479243, 2763479247, 2763479249, 2763479251, 2763479250, 2763479257], "tags": {"leisure": "park"}}, {"type": "way", "id": 355428409, "nodes": [3610418693, 3610417292, 3610417291, 3610418694, 3610418707, 3610418704, 3610418701, 3610418695, 3610418693], "tags": {"leisure": "park", "name": "Ay \u0130\u015f\u0131\u011f\u0131 Restoran"}}, {"type": "way", "id": 355429882, "nodes": [3610429167, 3610429156, 3610429151, 3610429147, 3610429138, 3610429130, 3610429135, 3610429143, 3610429140, 3610429146, 3610429160, 2763421188, 3610429162, 3610429161, 3610429168, 3610429167], "tags": {"leisure": "park"}}, {"type": "way", "id": 355431654, "nodes": [3610442121, 3610442116, 3610442117, 3610442118, 3610442124, 3610442121], "tags": {"leisure": "park"}}, {"type": "way", "id": 355431655, "nodes": [3610442120, 3610442113, 3610442114, 3610442115, 3610442119, 3610442123, 3610442120], "tags": {"leisure": "park"}}, {"type": "way", "id": 355630621, "nodes": [3612179116, 3612179113, 3612175590, 3612175588, 3612175591, 3612179096, 3612179095, 3612179098, 3612179099, 3612179100, 3612179118, 3612179117, 3612179114, 3612179112, 3612179110, 3612179109, 3612179111, 3612179116], "tags": {"leisure": "park"}}, {"type": "way", "id": 355630629, "nodes": [3612179253, 3612179219, 3612179205, 3612179210, 3612179253], "tags": {"leisure": "park"}}, {"type": "way", "id": 355630633, "nodes": [3612179270, 3612179265, 3612179227, 3612179239, 3612179247, 3612179270], "tags": {"leisure": "park"}}, {"type": "way", "id": 355630636, "nodes": [3612179168, 3612179161, 3612179155, 3612179127, 3612179128, 3612179130, 3612179139, 3612179147, 3612179168], "tags": {"leisure": "park"}}, {"type": "way", "id": 355643879, "nodes": [3612248282, 3612248278, 3612248285, 3612248288, 3612248293, 3612248299, 3612248282], "tags": {"leisure": "park"}}, {"type": "way", "id": 356707861, "nodes": [3621209732, 9893892893, 9893892896, 3621209695, 3621196992, 3621209716, 3621209718, 9893892894, 9893892891, 3621209732], "tags": {"leisure": "park"}}, {"type": "way", "id": 356876628, "nodes": [3622780245, 3622780244, 3622780243, 3622780215, 3622780213, 3622780212, 3622780214, 3622780216, 3622780219, 3622780227, 3622780245], "tags": {"leisure": "park"}}, {"type": "way", "id": 356876630, "nodes": [3622787024, 3622787025, 3622780253, 3622780251, 3622780249, 3622780247, 3622780246, 3622780248, 3622780250, 3622780252, 3622787016, 3622787018, 3622787024], "tags": {"leisure": "park"}}, {"type": "way", "id": 356877642, "nodes": [3622805675, 3622805640, 3622805622, 3622805625, 3622805631, 3622805666, 3622805692, 3622805675], "tags": {"leisure": "park"}}, {"type": "way", "id": 357730692, "nodes": [3628838566, 9893929719, 3628838563, 10830635333, 10830635334, 10830635335, 10830635336, 3628838549, 3628838550, 9893929717, 9893966204, 3628838566], "tags": {"leisure": "park"}}, {"type": "way", "id": 358083887, "nodes": [3630968962, 3612247942, 3612247938, 3630968943, 3630968941, 3630968962], "tags": {"leisure": "park"}}, {"type": "way", "id": 453712020, "nodes": [4504101848, 4504101847, 4504101846, 4504101845, 4504101844, 4504101843, 4504101842, 4504101841, 4504101840, 4504101839, 4504101838, 4504101837, 4504101836, 4504101848], "tags": {"landuse": "grass", "name": "Z\u0259ngi Dair\u0259si", "tourism": "attraction"}}, {"type": "way", "id": 453712048, "nodes": [4504101996, 4504101995, 4504101994, 4504101993, 9917815280, 4504101997, 4504102008, 4504101996], "tags": {"leisure": "park"}}, {"type": "way", "id": 453712080, "nodes": [4504102151, 4504102150, 4504102149, 4504102148, 4504102151], "tags": {"leisure": "park"}}, {"type": "way", "id": 453714218, "nodes": [4504118525, 4504118524, 4504118528, 4504118529, 4504118525], "tags": {"leisure": "park"}}, {"type": "way", "id": 630139839, "nodes": [5950691197, 5950691198, 5950691199, 5950691200, 5950691201, 5950691202, 9764979928, 7581206728, 5950691203, 5950691204, 5950691205, 7581206727, 5950691197], "tags": {"leisure": "park"}}, {"type": "way", "id": 630215312, "nodes": [5951276063, 5951276064, 5951276065, 5951276066, 5951276063], "tags": {"leisure": "park"}}, {"type": "way", "id": 630215313, "nodes": [5951276067, 5951276068, 5951276069, 5951276070, 5951276067], "tags": {"leisure": "park"}}, {"type": "way", "id": 673113622, "nodes": [6303566350, 6303566351, 6303566352, 6303566353, 6303566350], "tags": {"addr:city": "Bak\u0131", "addr:housenumber": "59B", "addr:street": "Qara Qarayev pr.", "amenity": "restaurant", "building": "yes", "name": "Arbat Restoran", "name:en": "Arbat Restoran", "opening_hours": "Mo-Su 10:00-23:30", "phone": "+994702183838"}}, {"type": "way", "id": 703060152, "nodes": [6602497939, 6602497940, 6602497941, 6602497942, 6602497943, 6602497944, 6602497939], "tags": {"leisure": "park"}}, {"type": "way", "id": 958515470, "nodes": [8868835836, 8868835835, 8868835834, 8868835833, 9789060525, 8868835832, 8868835831, 8868835830, 8868835829, 8868835828, 9789060524, 8868835827, 8868835836], "tags": {"landuse": "grass", "name": "Bak\u0131xanov Giri\u015f", "tourism": "attraction"}}, {"type": "way", "id": 1062435208, "nodes": [9760439974, 9760439973, 9760439972, 9760440008, 9760440009, 9760440006, 9760439971, 9760439970, 9760439974], "tags": {"leisure": "park"}}, {"type": "way", "id": 1062435213, "nodes": [9760440014, 9760440013, 9760439968, 9760440012, 9760440011, 9760440010, 9760440014], "tags": {"leisure": "park"}}, {"type": "way", "id": 1063007207, "nodes": [9765036561, 9765036560, 9765036559, 9765036558, 9765036561], "tags": {"leisure": "park"}}, {"type": "way", "id": 1076165638, "nodes": [9868918819, 9868912312, 9868912309, 9868918818, 9868918817, 9868912316, 9868912315, 9868918819], "tags": {"leisure": "park"}}, {"type": "way", "id": 1076174342, "nodes": [9868997142, 9868997138, 9868997137, 9868997136, 9868997142], "tags": {"leisure": "park"}}, {"type": "way", "id": 1076174344, "nodes": [9868997150, 9868997149, 9868997148, 9868997147, 9868997146, 9868997145, 9868997144, 9868997143, 9868997150], "tags": {"leisure": "park"}}, {"type": "way", "id": 1076413627, "nodes": [9870972117, 9870952515, 4577310547, 9870952516, 9870972117], "tags": {"leisure": "park"}}, {"type": "way", "id": 1076430592, "nodes": [9871116338, 9871116337, 9871116266, 9871116336, 9871116335, 9871116334, 9871116333, 9871116332, 9871116331, 9871116328, 9871116330, 9871116338], "tags": {"leisure": "park"}}, {"type": "way", "id": 1082176641, "nodes": [2763421198, 9917858432, 9917858431, 2763421197, 2763421198], "tags": {"leisure": "park"}}, {"type": "way", "id": 1084489131, "nodes": [9937909290, 9937909286, 9937909285, 9937909291, 9937909290], "tags": {"leisure": "park"}}, {"type": "way", "id": 1101565133, "nodes": [10080655805, 10080655804, 10080655803, 1671621112, 1671621124, 1671621126, 1671621169, 10080655802, 10080655801, 10080655800, 10080655799, 10080655798, 10080655797, 7396966364, 10080655796, 10080655795, 10080655794, 3574542152, 10080655793, 10080655792, 10080655791, 10080655790, 10080655789, 1885271128, 10080655788, 10080655805], "tags": {"leisure": "park"}}, {"type": "way", "id": 1160571258, "nodes": [10793980045, 10793980044, 10802648327, 10802648326, 10802648328, 10793980043, 10793980042, 10793980041, 10793980040, 10793980039, 10793980038, 10793980037, 10793980036, 10793980035, 10793980034, 10793980045], "tags": {"leisure": "park"}}, {"type": "way", "id": 1160571284, "nodes": [10793980334, 10793980333, 10793980332, 10793980331, 10793980330, 10793980329, 10793980328, 10793980327, 10793980326, 10793980325, 10822540865, 10793980324, 10793980323, 10793980322, 10793980321, 10793980334], "tags": {"addr:city": "Sabun\u00e7u Stansiyas\u0131", "amenity": "marketplace", "name": "Sabun\u00e7u Bazar\u0131"}}, {"type": "way", "id": 1160928042, "nodes": [10797751379, 10797751378, 10797751377, 10797751376, 10797751375, 10797751374, 10797751373, 10797751379], "tags": {"leisure": "park"}}, {"type": "way", "id": 1161472638, "nodes": [10802785535, 10802785534, 10802785533, 10802785532, 10802785531, 10802785530, 10802785529, 10802785528, 10802785535], "tags": {"leisure": "park"}}, {"type": "way", "id": 1163076760, "nodes": [10816716224, 10816716223, 10816716222, 10816716221, 10816716220, 10816716224], "tags": {"amenity": "restaurant", "leisure": "park", "name": "Florensiya Restoran \\ Sabun\u00e7u"}}, {"type": "way", "id": 1163095646, "nodes": [10684149166, 10816870795, 10816870794, 10816870793, 10816870792, 10816870791, 10684149167, 10684149166], "tags": {"leisure": "park"}}, {"type": "way", "id": 1163976180, "nodes": [10825105267, 10825105266, 10825105265, 10825105264, 10825105267], "tags": {"leisure": "park"}}, {"type": "way", "id": 1164239794, "nodes": [10827741765, 10827741764, 10827741763, 10827741762, 10827741761, 10827741760, 10827741765], "tags": {"leisure": "park"}}, {"type": "way", "id": 1164239802, "nodes": [10827741816, 10827741782, 10827741776, 10827741815, 10827741814, 4512749078, 10827741772, 10827741771, 10827741773, 10827741780, 10827741813, 10827741816], "tags": {"leisure": "park"}}, {"type": "way", "id": 1164528066, "nodes": [10830583970, 10830583969, 10830583968, 10830583967, 10830583966, 10830583965, 10830583970], "tags": {"leisure": "park"}}, {"type": "way", "id": 1164534362, "nodes": [10830635340, 10830635339, 10830635338, 10830635337, 10830635340], "tags": {"leisure": "park"}}, {"type": "way", "id": 1164544450, "nodes": [10830707662, 10830707661, 10830707660, 10830707659, 10830707662], "tags": {"leisure": "park"}}, {"type": "way", "id": 1164544457, "nodes": [10830707691, 10830707690, 10830707689, 10830707688, 10830707687, 10830707686, 10830707680, 10830707678, 10830707674, 10830707679, 10830707675, 10830707676, 10830707677, 10830707691], "tags": {"leisure": "park"}}, {"type": "way", "id": 1164695561, "nodes": [10832194914, 10832194913, 10832194912, 10832194911, 10832194910, 10832194914], "tags": {"leisure": "park"}}, {"type": "way", "id": 1165467329, "nodes": [10840310073, 10840310072, 10840310071, 10840310070, 10840310069, 10840310068, 10840310073], "tags": {"leisure": "park"}}, {"type": "node", "id": 5950691199, "lat": 40.4161707, "lon": 49.9055859}, {"type": "node", "id": 5950691200, "lat": 40.4160906, "lon": 49.9056478}, {"type": "node", "id": 5950691197, "lat": 40.4166862, "lon": 49.9058334}, {"type": "node", "id": 5950691198, "lat": 40.4164018, "lon": 49.9060552}, {"type": "node", "id": 5950691201, "lat": 40.4166174, "lon": 49.9068211}, {"type": "node", "id": 5950691202, "lat": 40.4166934, "lon": 49.9068771}, {"type": "node", "id": 5950691203, "lat": 40.4168725, "lon": 49.9066933}, {"type": "node", "id": 5950691204, "lat": 40.4168911, "lon": 49.9064471}, {"type": "node", "id": 5950691205, "lat": 40.4168942, "lon": 49.9062815}, {"type": "node", "id": 7581206727, "lat": 40.416789, "lon": 49.9060889}, {"type": "node", "id": 7581206728, "lat": 40.416841, "lon": 49.9068077}, {"type": "node", "id": 9764979928, "lat": 40.4167614, "lon": 49.9068627}, {"type": "node", "id": 6602497939, "lat": 40.4258128, "lon": 49.9024986}, {"type": "node", "id": 6602497940, "lat": 40.4258376, "lon": 49.9025596}, {"type": "node", "id": 6602497941, "lat": 40.425723, "lon": 49.9029214}, {"type": "node", "id": 6602497942, "lat": 40.4254507, "lon": 49.9029662}, {"type": "node", "id": 6602497943, "lat": 40.4254198, "lon": 49.9029296}, {"type": "node", "id": 6602497944, "lat": 40.425361, "lon": 49.9024092}, {"type": "node", "id": 9937909285, "lat": 40.4266381, "lon": 49.9069782}, {"type": "node", "id": 9937909286, "lat": 40.4266526, "lon": 49.9073562}, {"type": "node", "id": 9937909290, "lat": 40.4261936, "lon": 49.9074124}, {"type": "node", "id": 9937909291, "lat": 40.4261779, "lon": 49.9070092}, {"type": "node", "id": 4577310547, "lat": 40.3995736, "lon": 49.9326289}, {"type": "node", "id": 9870952515, "lat": 40.3994484, "lon": 49.9329096}, {"type": "node", "id": 2556848878, "lat": 40.4018694, "lon": 49.9185899}, {"type": "node", "id": 2556848906, "lat": 40.4020758, "lon": 49.9184324}, {"type": "node", "id": 2556848909, "lat": 40.4020124, "lon": 49.9183619}, {"type": "node", "id": 2556848924, "lat": 40.402109, "lon": 49.9185262}, {"type": "node", "id": 2556848972, "lat": 40.4019062, "lon": 49.9184585}, {"type": "node", "id": 2556849033, "lat": 40.4019476, "lon": 49.9183814}, {"type": "node", "id": 2556849050, "lat": 40.4021345, "lon": 49.9186657}, {"type": "node", "id": 9868919003, "lat": 40.401925, "lon": 49.9184123}, {"type": "node", "id": 9868919004, "lat": 40.4019771, "lon": 49.918362}, {"type": "node", "id": 9868919005, "lat": 40.402044, "lon": 49.9183828}, {"type": "node", "id": 2556832430, "lat": 40.4023245, "lon": 49.9222759}, {"type": "node", "id": 2556832707, "lat": 40.4029689, "lon": 49.9236895}, {"type": "node", "id": 2556832771, "lat": 40.4026737, "lon": 49.9221553}, {"type": "node", "id": 2556848861, "lat": 40.4025315, "lon": 49.9218007}, {"type": "node", "id": 2556848885, "lat": 40.4017975, "lon": 49.9192075}, {"type": "node", "id": 2556848912, "lat": 40.401823, "lon": 49.918844}, {"type": "node", "id": 2556849021, "lat": 40.401919, "lon": 49.9202361}, {"type": "node", "id": 2556849028, "lat": 40.4025528, "lon": 49.9217552}, {"type": "node", "id": 2556849032, "lat": 40.4022611, "lon": 49.9218978}, {"type": "node", "id": 2556849060, "lat": 40.4018822, "lon": 49.9199921}, {"type": "node", "id": 3610442120, "lat": 40.4017933, "lon": 49.9252959}, {"type": "node", "id": 9868918968, "lat": 40.4028556, "lon": 49.9231007}, {"type": "node", "id": 9868919006, "lat": 40.4018106, "lon": 49.9193645}, {"type": "node", "id": 9868919007, "lat": 40.4018035, "lon": 49.9190332}, {"type": "node", "id": 9868919008, "lat": 40.4022334, "lon": 49.921871}, {"type": "node", "id": 9868997136, "lat": 40.4030787, "lon": 49.9221558}, {"type": "node", "id": 9868997137, "lat": 40.403036, "lon": 49.9219148}, {"type": "node", "id": 9868997138, "lat": 40.4033356, "lon": 49.9218233}, {"type": "node", "id": 9868997142, "lat": 40.4033783, "lon": 49.9220643}, {"type": "node", "id": 9868997143, "lat": 40.4033595, "lon": 49.921378}, {"type": "node", "id": 9868997144, "lat": 40.4032865, "lon": 49.921399}, {"type": "node", "id": 9868997145, "lat": 40.4033296, "lon": 49.9216564}, {"type": "node", "id": 9868997146, "lat": 40.4029934, "lon": 49.9217534}, {"type": "node", "id": 9868997147, "lat": 40.4029488, "lon": 49.9214871}, {"type": "node", "id": 9868997148, "lat": 40.4030341, "lon": 49.9214625}, {"type": "node", "id": 9868997149, "lat": 40.4029774, "lon": 49.9211238}, {"type": "node", "id": 9868997150, "lat": 40.4033013, "lon": 49.9210303}, {"type": "node", "id": 2556832070, "lat": 40.403648, "lon": 49.9288769}, {"type": "node", "id": 2556832092, "lat": 40.4035092, "lon": 49.928674}, {"type": "node", "id": 2556832120, "lat": 40.4035632, "lon": 49.9287755}, {"type": "node", "id": 2556832228, "lat": 40.403502, "lon": 49.9264897}, {"type": "node", "id": 2556832487, "lat": 40.403709, "lon": 49.9288932}, {"type": "node", "id": 2556832546, "lat": 40.4038153, "lon": 49.9288752}, {"type": "node", "id": 2763441946, "lat": 40.4017693, "lon": 49.9318765}, {"type": "node", "id": 2763441954, "lat": 40.4029607, "lon": 49.9314816}, {"type": "node", "id": 2763441959, "lat": 40.4033488, "lon": 49.9308842}, {"type": "node", "id": 2763441961, "lat": 40.4031289, "lon": 49.9309939}, {"type": "node", "id": 2763441972, "lat": 40.4039684, "lon": 49.9305306}, {"type": "node", "id": 2763441975, "lat": 40.4043098, "lon": 49.931386}, {"type": "node", "id": 2763441976, "lat": 40.4041923, "lon": 49.9317536}, {"type": "node", "id": 2763479226, "lat": 40.4056212, "lon": 49.9286825}, {"type": "node", "id": 2763479227, "lat": 40.4056603, "lon": 49.9287754}, {"type": "node", "id": 2763479232, "lat": 40.4058936, "lon": 49.9284296}, {"type": "node", "id": 2763479233, "lat": 40.4058977, "lon": 49.9284876}, {"type": "node", "id": 2763479235, "lat": 40.405939, "lon": 49.9285783}, {"type": "node", "id": 2763479237, "lat": 40.4059553, "lon": 49.9297458}, {"type": "node", "id": 2763479239, "lat": 40.4059863, "lon": 49.9286159}, {"type": "node", "id": 2763479241, "lat": 40.4060293, "lon": 49.9286267}, {"type": "node", "id": 2763479243, "lat": 40.4060746, "lon": 49.9286191}, {"type": "node", "id": 2763479244, "lat": 40.4060717, "lon": 49.9290077}, {"type": "node", "id": 2763479247, "lat": 40.4061201, "lon": 49.9285883}, {"type": "node", "id": 2763479249, "lat": 40.4061505, "lon": 49.9285461}, {"type": "node", "id": 2763479250, "lat": 40.4061706, "lon": 49.9283963}, {"type": "node", "id": 2763479251, "lat": 40.4061724, "lon": 49.928477}, {"type": "node", "id": 2763479252, "lat": 40.406215, "lon": 49.9293433}, {"type": "node", "id": 3610406821, "lat": 40.4030796, "lon": 49.9312743}, {"type": "node", "id": 3610406828, "lat": 40.4031526, "lon": 49.9302542}, {"type": "node", "id": 3610406836, "lat": 40.4031962, "lon": 49.9312557}, {"type": "node", "id": 3610406843, "lat": 40.4032215, "lon": 49.9313518}, {"type": "node", "id": 3610406864, "lat": 40.4034334, "lon": 49.9301954}, {"type": "node", "id": 3610406865, "lat": 40.4034379, "lon": 49.9308333}, {"type": "node", "id": 3610406867, "lat": 40.4034523, "lon": 49.9300445}, {"type": "node", "id": 3610406874, "lat": 40.4034797, "lon": 49.9301511}, {"type": "node", "id": 3610417291, "lat": 40.4044225, "lon": 49.9294501}, {"type": "node", "id": 3610417292, "lat": 40.4044348, "lon": 49.9293412}, {"type": "node", "id": 3610418693, "lat": 40.4047117, "lon": 49.9291255}, {"type": "node", "id": 3610418694, "lat": 40.4052988, "lon": 49.9314807}, {"type": "node", "id": 3610418695, "lat": 40.4053165, "lon": 49.9302776}, {"type": "node", "id": 3610418701, "lat": 40.4054583, "lon": 49.9306183}, {"type": "node", "id": 3610418703, "lat": 40.4054569, "lon": 49.9285451}, {"type": "node", "id": 3610418704, "lat": 40.4055154, "lon": 49.9305842}, {"type": "node", "id": 3610418707, "lat": 40.4057583, "lon": 49.931149}, {"type": "node", "id": 3610418709, "lat": 40.4058515, "lon": 49.9282488}, {"type": "node", "id": 3610418711, "lat": 40.4059022, "lon": 49.9283772}, {"type": "node", "id": 3610442113, "lat": 40.4007124, "lon": 49.9255736}, {"type": "node", "id": 3610442114, "lat": 40.4007682, "lon": 49.9258861}, {"type": "node", "id": 3610442115, "lat": 40.4010355, "lon": 49.9259092}, {"type": "node", "id": 3610442116, "lat": 40.4011618, "lon": 49.9259825}, {"type": "node", "id": 3610442117, "lat": 40.4012147, "lon": 49.9263605}, {"type": "node", "id": 3610442118, "lat": 40.4016993, "lon": 49.9261869}, {"type": "node", "id": 3610442119, "lat": 40.4017346, "lon": 49.9256624}, {"type": "node", "id": 3610442121, "lat": 40.4018051, "lon": 49.9258012}, {"type": "node", "id": 3610442123, "lat": 40.4018168, "lon": 49.9254386}, {"type": "node", "id": 3610442124, "lat": 40.4019108, "lon": 49.9259671}, {"type": "node", "id": 4858387072, "lat": 40.4039192, "lon": 49.9285879}, {"type": "node", "id": 4858387073, "lat": 40.4039195, "lon": 49.9286808}, {"type": "node", "id": 4858387078, "lat": 40.4037643, "lon": 49.9288957}, {"type": "node", "id": 4858387079, "lat": 40.4038532, "lon": 49.9288336}, {"type": "node", "id": 9868918971, "lat": 40.4038167, "lon": 49.9280725}, {"type": "node", "id": 9868918990, "lat": 40.4038904, "lon": 49.9287676}, {"type": "node", "id": 9870972244, "lat": 40.4028303, "lon": 49.9314813}, {"type": "node", "id": 9870972277, "lat": 40.4030995, "lon": 49.9313016}, {"type": "node", "id": 9871116150, "lat": 40.4034671, "lon": 49.9300973}, {"type": "node", "id": 9871116266, "lat": 40.4006752, "lon": 49.9312422}, {"type": "node", "id": 9871116328, "lat": 40.4009598, "lon": 49.9314461}, {"type": "node", "id": 9871116330, "lat": 40.4008435, "lon": 49.9315122}, {"type": "node", "id": 9871116331, "lat": 40.4012142, "lon": 49.9313016}, {"type": "node", "id": 9871116332, "lat": 40.4011488, "lon": 49.9310508}, {"type": "node", "id": 9871116333, "lat": 40.4009885, "lon": 49.9311165}, {"type": "node", "id": 9871116334, "lat": 40.4009425, "lon": 49.9309449}, {"type": "node", "id": 9871116335, "lat": 40.4008639, "lon": 49.9309784}, {"type": "node", "id": 9871116336, "lat": 40.4008904, "lon": 49.9311125}, {"type": "node", "id": 9871116337, "lat": 40.4002715, "lon": 49.9314854}, {"type": "node", "id": 9871116338, "lat": 40.4003614, "lon": 49.931775}, {"type": "node", "id": 9871176142, "lat": 40.4058332, "lon": 49.9292916}, {"type": "node", "id": 9871176143, "lat": 40.4058711, "lon": 49.929326}, {"type": "node", "id": 9871176144, "lat": 40.4058953, "lon": 49.9293922}, {"type": "node", "id": 9871176145, "lat": 40.4058909, "lon": 49.9294579}, {"type": "node", "id": 9871176146, "lat": 40.4058634, "lon": 49.9295117}, {"type": "node", "id": 9871176147, "lat": 40.40577, "lon": 49.9292873}, {"type": "node", "id": 2763425964, "lat": 40.4051355, "lon": 49.9347229}, {"type": "node", "id": 2763425966, "lat": 40.4052583, "lon": 49.9350219}, {"type": "node", "id": 2763425968, "lat": 40.405279, "lon": 49.9342956}, {"type": "node", "id": 2763441949, "lat": 40.4020446, "lon": 49.9331301}, {"type": "node", "id": 2763441950, "lat": 40.4023894, "lon": 49.932974}, {"type": "node", "id": 2763441951, "lat": 40.4024453, "lon": 49.9320952}, {"type": "node", "id": 2763441953, "lat": 40.402898, "lon": 49.9321743}, {"type": "node", "id": 2763441958, "lat": 40.4033778, "lon": 49.9331984}, {"type": "node", "id": 2763441960, "lat": 40.4034064, "lon": 49.9332829}, {"type": "node", "id": 2763441962, "lat": 40.4034782, "lon": 49.9322943}, {"type": "node", "id": 2763441963, "lat": 40.4035993, "lon": 49.9325089}, {"type": "node", "id": 2763441964, "lat": 40.4036167, "lon": 49.9323885}, {"type": "node", "id": 2763441969, "lat": 40.40376, "lon": 49.9328982}, {"type": "node", "id": 2763441979, "lat": 40.4044387, "lon": 49.9325652}, {"type": "node", "id": 2763441988, "lat": 40.4045245, "lon": 49.9321242}, {"type": "node", "id": 2763442006, "lat": 40.4047245, "lon": 49.9329123}, {"type": "node", "id": 2763442014, "lat": 40.4048209, "lon": 49.9328513}, {"type": "node", "id": 2763462138, "lat": 40.4003839, "lon": 49.9343033}, {"type": "node", "id": 2763462140, "lat": 40.4017725, "lon": 49.9338302}, {"type": "node", "id": 2763517038, "lat": 40.4056477, "lon": 49.9338709}, {"type": "node", "id": 2763517046, "lat": 40.40573, "lon": 49.933814}, {"type": "node", "id": 3610284332, "lat": 40.4060443, "lon": 49.9350494}, {"type": "node", "id": 3610406693, "lat": 40.4003027, "lon": 49.9350622}, {"type": "node", "id": 3610406703, "lat": 40.4002903, "lon": 49.9352115}, {"type": "node", "id": 3610406715, "lat": 40.4003226, "lon": 49.9348893}, {"type": "node", "id": 3610406719, "lat": 40.4003385, "lon": 49.9352467}, {"type": "node", "id": 3610406725, "lat": 40.4008883, "lon": 49.934937}, {"type": "node", "id": 3610406727, "lat": 40.4010477, "lon": 49.9355957}, {"type": "node", "id": 3610406729, "lat": 40.4011431, "lon": 49.9355467}, {"type": "node", "id": 3610406734, "lat": 40.401194, "lon": 49.9357121}, {"type": "node", "id": 3610406738, "lat": 40.4013886, "lon": 49.9355933}, {"type": "node", "id": 3610406739, "lat": 40.4014614, "lon": 49.9357516}, {"type": "node", "id": 3610406740, "lat": 40.401546, "lon": 49.9326202}, {"type": "node", "id": 3610406743, "lat": 40.4015429, "lon": 49.9356903}, {"type": "node", "id": 3610406744, "lat": 40.4017795, "lon": 49.9335658}, {"type": "node", "id": 3610406747, "lat": 40.401863, "lon": 49.9324768}, {"type": "node", "id": 3610406749, "lat": 40.401973, "lon": 49.9353963}, {"type": "node", "id": 3610406752, "lat": 40.4020984, "lon": 49.933411}, {"type": "node", "id": 3610406755, "lat": 40.4021376, "lon": 49.9358115}, {"type": "node", "id": 3610406765, "lat": 40.4022865, "lon": 49.9357031}, {"type": "node", "id": 3610406875, "lat": 40.4035681, "lon": 49.9323554}, {"type": "node", "id": 3610406914, "lat": 40.4039167, "lon": 49.936424}, {"type": "node", "id": 3610406923, "lat": 40.4039792, "lon": 49.9365718}, {"type": "node", "id": 3610406932, "lat": 40.4040581, "lon": 49.9342821}, {"type": "node", "id": 3610406938, "lat": 40.4042441, "lon": 49.9349555}, {"type": "node", "id": 3610406947, "lat": 40.4043978, "lon": 49.9348052}, {"type": "node", "id": 3610406951, "lat": 40.4044074, "lon": 49.9353297}, {"type": "node", "id": 3610406957, "lat": 40.404388, "lon": 49.9326004}, {"type": "node", "id": 3610406958, "lat": 40.4044009, "lon": 49.9351324}, {"type": "node", "id": 3610406961, "lat": 40.4044551, "lon": 49.9352978}, {"type": "node", "id": 3610406973, "lat": 40.4047732, "lon": 49.9335107}, {"type": "node", "id": 3610406979, "lat": 40.4048198, "lon": 49.9336209}, {"type": "node", "id": 3610406980, "lat": 40.4048458, "lon": 49.9336706}, {"type": "node", "id": 3610406981, "lat": 40.404857, "lon": 49.9347428}, {"type": "node", "id": 3610406982, "lat": 40.4048634, "lon": 49.933346}, {"type": "node", "id": 3610406984, "lat": 40.4048855, "lon": 49.9357181}, {"type": "node", "id": 3610406986, "lat": 40.4049355, "lon": 49.9358474}, {"type": "node", "id": 3610406988, "lat": 40.4049766, "lon": 49.9332539}, {"type": "node", "id": 3610406991, "lat": 40.405026, "lon": 49.9330843}, {"type": "node", "id": 3610406995, "lat": 40.4050675, "lon": 49.935191}, {"type": "node", "id": 3610406996, "lat": 40.4051554, "lon": 49.9343937}, {"type": "node", "id": 3610406998, "lat": 40.4053434, "lon": 49.9328602}, {"type": "node", "id": 3610406999, "lat": 40.4052684, "lon": 49.9346288}, {"type": "node", "id": 3610407002, "lat": 40.4054012, "lon": 49.934209}, {"type": "node", "id": 3610407003, "lat": 40.4054215, "lon": 49.9340204}, {"type": "node", "id": 6339086736, "lat": 40.4010205, "lon": 49.9341338}, {"type": "node", "id": 6339086737, "lat": 40.4010793, "lon": 49.9343228}, {"type": "node", "id": 6339086738, "lat": 40.4010502, "lon": 49.9343413}, {"type": "node", "id": 6339086739, "lat": 40.4009828, "lon": 49.9341039}, {"type": "node", "id": 9870952516, "lat": 40.4001893, "lon": 49.932345}, {"type": "node", "id": 9870972117, "lat": 40.4002522, "lon": 49.93259}, {"type": "node", "id": 9870972123, "lat": 40.4003634, "lon": 49.9344998}, {"type": "node", "id": 9871079159, "lat": 40.402097, "lon": 49.9357086}, {"type": "node", "id": 2763421197, "lat": 40.4105674, "lon": 49.9308862}, {"type": "node", "id": 2763421198, "lat": 40.4107307, "lon": 49.9307683}, {"type": "node", "id": 2763479256, "lat": 40.4064288, "lon": 49.9287447}, {"type": "node", "id": 2763479257, "lat": 40.4064704, "lon": 49.9281815}, {"type": "node", "id": 2763479260, "lat": 40.4065721, "lon": 49.9290803}, {"type": "node", "id": 3610429167, "lat": 40.408747, "lon": 49.9318148}, {"type": "node", "id": 9871176137, "lat": 40.4066669, "lon": 49.9290049}, {"type": "node", "id": 9871176148, "lat": 40.4062785, "lon": 49.9295005}, {"type": "node", "id": 9871176152, "lat": 40.4067789, "lon": 49.9289158}, {"type": "node", "id": 9917858431, "lat": 40.4106803, "lon": 49.9311558}, {"type": "node", "id": 9917858432, "lat": 40.4108436, "lon": 49.9310379}, {"type": "node", "id": 2763421188, "lat": 40.4079552, "lon": 49.9328501}, {"type": "node", "id": 3610215195, "lat": 40.4063488, "lon": 49.9347121}, {"type": "node", "id": 3610215196, "lat": 40.4064104, "lon": 49.9346688}, {"type": "node", "id": 3610215197, "lat": 40.4064664, "lon": 49.9346296}, {"type": "node", "id": 3610215198, "lat": 40.4073784, "lon": 49.9370756}, {"type": "node", "id": 3610215199, "lat": 40.4074324, "lon": 49.9370388}, {"type": "node", "id": 3610215200, "lat": 40.4074919, "lon": 49.9369984}, {"type": "node", "id": 3610215201, "lat": 40.4075952, "lon": 49.9375757}, {"type": "node", "id": 3610215202, "lat": 40.4076786, "lon": 49.937527}, {"type": "node", "id": 3610215203, "lat": 40.4077595, "lon": 49.9374798}, {"type": "node", "id": 3610284343, "lat": 40.4062449, "lon": 49.9349227}, {"type": "node", "id": 3610284361, "lat": 40.4065067, "lon": 49.936091}, {"type": "node", "id": 3610284376, "lat": 40.4066858, "lon": 49.9359663}, {"type": "node", "id": 3610429130, "lat": 40.4070462, "lon": 49.9322843}, {"type": "node", "id": 3610429135, "lat": 40.407172, "lon": 49.9323332}, {"type": "node", "id": 3610429138, "lat": 40.4075383, "lon": 49.9319188}, {"type": "node", "id": 3610429140, "lat": 40.4075138, "lon": 49.9329666}, {"type": "node", "id": 3610429143, "lat": 40.4076196, "lon": 49.9325471}, {"type": "node", "id": 3610429146, "lat": 40.4076745, "lon": 49.9333943}, {"type": "node", "id": 3610429147, "lat": 40.4077377, "lon": 49.9324455}, {"type": "node", "id": 3610429151, "lat": 40.4077804, "lon": 49.9324909}, {"type": "node", "id": 3610429156, "lat": 40.4078555, "lon": 49.9324777}, {"type": "node", "id": 3610429160, "lat": 40.4080647, "lon": 49.9331121}, {"type": "node", "id": 3610429161, "lat": 40.4081833, "lon": 49.9324722}, {"type": "node", "id": 3610429162, "lat": 40.4082176, "lon": 49.9326608}, {"type": "node", "id": 3610429168, "lat": 40.4088203, "lon": 49.9320019}, {"type": "node", "id": 4504101836, "lat": 40.4111714, "lon": 49.9345615}, {"type": "node", "id": 4504101837, "lat": 40.4111422, "lon": 49.9345526}, {"type": "node", "id": 4504101838, "lat": 40.4111132, "lon": 49.9345625}, {"type": "node", "id": 4504101839, "lat": 40.411091, "lon": 49.9345889}, {"type": "node", "id": 4504101840, "lat": 40.4110807, "lon": 49.9346259}, {"type": "node", "id": 4504101841, "lat": 40.4110847, "lon": 49.9346649}, {"type": "node", "id": 4504101842, "lat": 40.411102, "lon": 49.934697}, {"type": "node", "id": 4504101843, "lat": 40.4111287, "lon": 49.9347149}, {"type": "node", "id": 4504101844, "lat": 40.4111587, "lon": 49.9347144}, {"type": "node", "id": 4504101845, "lat": 40.4111851, "lon": 49.9346957}, {"type": "node", "id": 4504101846, "lat": 40.4112018, "lon": 49.934663}, {"type": "node", "id": 4504101847, "lat": 40.411205, "lon": 49.9346239}, {"type": "node", "id": 4504101848, "lat": 40.411194, "lon": 49.9345873}, {"type": "node", "id": 4504101993, "lat": 40.4102968, "lon": 49.9350647}, {"type": "node", "id": 4504101994, "lat": 40.410543, "lon": 49.934881}, {"type": "node", "id": 4504101995, "lat": 40.4105093, "lon": 49.9347147}, {"type": "node", "id": 4504101996, "lat": 40.4102233, "lon": 49.9346182}, {"type": "node", "id": 4504101997, "lat": 40.4102402, "lon": 49.9347921}, {"type": "node", "id": 4504102008, "lat": 40.4102295, "lon": 49.9347067}, {"type": "node", "id": 4504102148, "lat": 40.4117438, "lon": 49.9333716}, {"type": "node", "id": 4504102149, "lat": 40.4112639, "lon": 49.9337284}, {"type": "node", "id": 4504102150, "lat": 40.4111495, "lon": 49.9334628}, {"type": "node", "id": 4504102151, "lat": 40.4116315, "lon": 49.9331195}, {"type": "node", "id": 5951276063, "lat": 40.4083563, "lon": 49.9365778}, {"type": "node", "id": 5951276064, "lat": 40.4084274, "lon": 49.9367552}, {"type": "node", "id": 5951276065, "lat": 40.4078726, "lon": 49.9371522}, {"type": "node", "id": 5951276066, "lat": 40.4078051, "lon": 49.9369677}, {"type": "node", "id": 5951276067, "lat": 40.4084914, "lon": 49.9367342}, {"type": "node", "id": 5951276068, "lat": 40.4084132, "lon": 49.9365497}, {"type": "node", "id": 5951276069, "lat": 40.4095457, "lon": 49.9357091}, {"type": "node", "id": 5951276070, "lat": 40.4096257, "lon": 49.9359076}, {"type": "node", "id": 9868912309, "lat": 40.4097928, "lon": 49.933381}, {"type": "node", "id": 9868912312, "lat": 40.4098926, "lon": 49.9334223}, {"type": "node", "id": 9868912315, "lat": 40.4102591, "lon": 49.9332663}, {"type": "node", "id": 9868912316, "lat": 40.409965, "lon": 49.9325582}, {"type": "node", "id": 9868918817, "lat": 40.4094748, "lon": 49.9329069}, {"type": "node", "id": 9868918818, "lat": 40.4093932, "lon": 49.9332154}, {"type": "node", "id": 9868918819, "lat": 40.4101958, "lon": 49.933548}, {"type": "node", "id": 9917815280, "lat": 40.4102468, "lon": 49.9348904}, {"type": "node", "id": 1671691466, "lat": 40.4005249, "lon": 49.9390653}, {"type": "node", "id": 1671691468, "lat": 40.4005085, "lon": 49.9390036}, {"type": "node", "id": 1671691481, "lat": 40.400911, "lon": 49.938612}, {"type": "node", "id": 1671691482, "lat": 40.4010438, "lon": 49.9386683}, {"type": "node", "id": 1671691485, "lat": 40.4009519, "lon": 49.9385959}, {"type": "node", "id": 1671691488, "lat": 40.4029454, "lon": 49.9431476}, {"type": "node", "id": 1671691491, "lat": 40.4018976, "lon": 49.94068}, {"type": "node", "id": 1671691493, "lat": 40.4036215, "lon": 49.944706}, {"type": "node", "id": 1671691495, "lat": 40.4010029, "lon": 49.9386093}, {"type": "node", "id": 1671691499, "lat": 40.4005228, "lon": 49.9389312}, {"type": "node", "id": 1671691504, "lat": 40.401103, "lon": 49.9388159}, {"type": "node", "id": 1671691507, "lat": 40.402643, "lon": 49.9440193}, {"type": "node", "id": 1671691509, "lat": 40.4018016, "lon": 49.942064}, {"type": "node", "id": 1671691511, "lat": 40.4023755, "lon": 49.9417931}, {"type": "node", "id": 1671691517, "lat": 40.4005698, "lon": 49.9388775}, {"type": "node", "id": 3610256209, "lat": 40.4017713, "lon": 49.9400885}, {"type": "node", "id": 3610256214, "lat": 40.4020347, "lon": 49.9398934}, {"type": "node", "id": 3610256217, "lat": 40.4022047, "lon": 49.94111}, {"type": "node", "id": 3610256218, "lat": 40.4022491, "lon": 49.9404424}, {"type": "node", "id": 3610256219, "lat": 40.4022874, "lon": 49.9410537}, {"type": "node", "id": 3610256234, "lat": 40.4024543, "lon": 49.9413581}, {"type": "node", "id": 3610256258, "lat": 40.4027797, "lon": 49.9421247}, {"type": "node", "id": 3610256283, "lat": 40.4032457, "lon": 49.9432015}, {"type": "node", "id": 3610256344, "lat": 40.4052601, "lon": 49.9408582}, {"type": "node", "id": 3610256363, "lat": 40.4055975, "lon": 49.9415215}, {"type": "node", "id": 3610256369, "lat": 40.4056634, "lon": 49.9411151}, {"type": "node", "id": 3610256383, "lat": 40.4060087, "lon": 49.9402841}, {"type": "node", "id": 3610406767, "lat": 40.4023261, "lon": 49.941435}, {"type": "node", "id": 3610406793, "lat": 40.4026902, "lon": 49.9422866}, {"type": "node", "id": 3610406801, "lat": 40.4028168, "lon": 49.9422046}, {"type": "node", "id": 3610406827, "lat": 40.4030918, "lon": 49.9432347}, {"type": "node", "id": 3610406841, "lat": 40.4032153, "lon": 49.9431321}, {"type": "node", "id": 3610406879, "lat": 40.4035762, "lon": 49.9443736}, {"type": "node", "id": 3610406892, "lat": 40.4036872, "lon": 49.9442874}, {"type": "node", "id": 3610406897, "lat": 40.4037087, "lon": 49.9442754}, {"type": "node", "id": 11013004983, "lat": 40.4015878, "lon": 49.9415618}, {"type": "node", "id": 11013004985, "lat": 40.4021145, "lon": 49.9411853}, {"type": "node", "id": 11013004986, "lat": 40.4018193, "lon": 49.9422105}, {"type": "node", "id": 11013004988, "lat": 40.4025314, "lon": 49.94376}, {"type": "node", "id": 11013016806, "lat": 40.4028336, "lon": 49.9428819}, {"type": "node", "id": 11013016821, "lat": 40.4010723, "lon": 49.9387393}, {"type": "node", "id": 11013016822, "lat": 40.4005401, "lon": 49.9391009}, {"type": "node", "id": 1671691464, "lat": 40.4038911, "lon": 49.9469054}, {"type": "node", "id": 1671691479, "lat": 40.4044159, "lon": 49.9465352}, {"type": "node", "id": 1671691497, "lat": 40.4041464, "lon": 49.945921}, {"type": "node", "id": 3605014193, "lat": 40.4048658, "lon": 49.9491271}, {"type": "node", "id": 3605014203, "lat": 40.4051098, "lon": 49.9483525}, {"type": "node", "id": 3605014207, "lat": 40.4051746, "lon": 49.9483608}, {"type": "node", "id": 3605014226, "lat": 40.4056679, "lon": 49.951004}, {"type": "node", "id": 3605014265, "lat": 40.4061391, "lon": 49.9506427}, {"type": "node", "id": 2035188800, "lat": 40.4077843, "lon": 49.9431196}, {"type": "node", "id": 2035188810, "lat": 40.4080404, "lon": 49.943754}, {"type": "node", "id": 3610142652, "lat": 40.407752, "lon": 49.9445048}, {"type": "node", "id": 3610142653, "lat": 40.4078156, "lon": 49.9446617}, {"type": "node", "id": 3610142654, "lat": 40.4078816, "lon": 49.9448244}, {"type": "node", "id": 3610142658, "lat": 40.4086176, "lon": 49.9438939}, {"type": "node", "id": 3610142659, "lat": 40.408676, "lon": 49.9440424}, {"type": "node", "id": 3610142660, "lat": 40.4087393, "lon": 49.9442032}, {"type": "node", "id": 3610215212, "lat": 40.4089362, "lon": 49.9407255}, {"type": "node", "id": 3610215213, "lat": 40.4089978, "lon": 49.9408891}, {"type": "node", "id": 3610215214, "lat": 40.4090233, "lon": 49.9406641}, {"type": "node", "id": 3610215215, "lat": 40.4090822, "lon": 49.9408248}, {"type": "node", "id": 3610215216, "lat": 40.4091061, "lon": 49.9406056}, {"type": "node", "id": 3610215217, "lat": 40.4091586, "lon": 49.9407665}, {"type": "node", "id": 3610215218, "lat": 40.4098477, "lon": 49.9428556}, {"type": "node", "id": 3610215219, "lat": 40.4099311, "lon": 49.9427983}, {"type": "node", "id": 3610215220, "lat": 40.4100185, "lon": 49.9427382}, {"type": "node", "id": 3610256389, "lat": 40.4063321, "lon": 49.9410365}, {"type": "node", "id": 3610256499, "lat": 40.4065351, "lon": 49.941665}, {"type": "node", "id": 3610256506, "lat": 40.4066076, "lon": 49.9416761}, {"type": "node", "id": 3610256511, "lat": 40.4066475, "lon": 49.9412462}, {"type": "node", "id": 3610256512, "lat": 40.4066818, "lon": 49.9414756}, {"type": "node", "id": 3610256517, "lat": 40.4067114, "lon": 49.9413956}, {"type": "node", "id": 3610288288, "lat": 40.4072681, "lon": 49.9423824}, {"type": "node", "id": 3610288291, "lat": 40.4074257, "lon": 49.9422595}, {"type": "node", "id": 3610296993, "lat": 40.407751, "lon": 49.9430279}, {"type": "node", "id": 3610296994, "lat": 40.4078896, "lon": 49.9438639}, {"type": "node", "id": 3610407143, "lat": 40.4076258, "lon": 49.938873}, {"type": "node", "id": 3610407146, "lat": 40.4076837, "lon": 49.9387458}, {"type": "node", "id": 3610407158, "lat": 40.4078337, "lon": 49.9386391}, {"type": "node", "id": 3610407161, "lat": 40.4078696, "lon": 49.9394722}, {"type": "node", "id": 3610407171, "lat": 40.408118, "lon": 49.9392937}, {"type": "node", "id": 3610407203, "lat": 40.4087131, "lon": 49.9409788}, {"type": "node", "id": 3610407210, "lat": 40.4088196, "lon": 49.9408984}, {"type": "node", "id": 3610407211, "lat": 40.4088677, "lon": 49.9408621}, {"type": "node", "id": 3610407220, "lat": 40.4090959, "lon": 49.9418635}, {"type": "node", "id": 3610407224, "lat": 40.4092, "lon": 49.9417856}, {"type": "node", "id": 3610407225, "lat": 40.409249, "lon": 49.9417489}, {"type": "node", "id": 3612247938, "lat": 40.4126403, "lon": 49.9432984}, {"type": "node", "id": 3612247942, "lat": 40.4127453, "lon": 49.943245}, {"type": "node", "id": 3630968941, "lat": 40.4119416, "lon": 49.9436242}, {"type": "node", "id": 3630968943, "lat": 40.4119852, "lon": 49.9437345}, {"type": "node", "id": 3630968962, "lat": 40.4126907, "lon": 49.943092}, {"type": "node", "id": 6303566350, "lat": 40.4112956, "lon": 49.94336}, {"type": "node", "id": 6303566351, "lat": 40.4110778, "lon": 49.9435139}, {"type": "node", "id": 6303566352, "lat": 40.4110191, "lon": 49.9433706}, {"type": "node", "id": 6303566353, "lat": 40.4112369, "lon": 49.9432167}, {"type": "node", "id": 1671669186, "lat": 40.4096894, "lon": 49.9455456}, {"type": "node", "id": 1671669189, "lat": 40.4095873, "lon": 49.9454115}, {"type": "node", "id": 1671669192, "lat": 40.4100407, "lon": 49.9456556}, {"type": "node", "id": 1671669195, "lat": 40.4103409, "lon": 49.9456314}, {"type": "node", "id": 1671669206, "lat": 40.4100938, "lon": 49.9454088}, {"type": "node", "id": 1671669209, "lat": 40.4096547, "lon": 49.9453176}, {"type": "node", "id": 1671669221, "lat": 40.4096519, "lon": 49.9455641}, {"type": "node", "id": 1671669228, "lat": 40.409622, "lon": 49.9453874}, {"type": "node", "id": 1671669230, "lat": 40.4096996, "lon": 49.9452935}, {"type": "node", "id": 1671669251, "lat": 40.4102367, "lon": 49.9454705}, {"type": "node", "id": 1671669268, "lat": 40.4101183, "lon": 49.9456744}, {"type": "node", "id": 1671669271, "lat": 40.4101482, "lon": 49.9457572}, {"type": "node", "id": 1671669282, "lat": 40.4097704, "lon": 49.9455668}, {"type": "node", "id": 1671669295, "lat": 40.409818, "lon": 49.9453364}, {"type": "node", "id": 1671669298, "lat": 40.4102626, "lon": 49.9454515}, {"type": "node", "id": 3610139080, "lat": 40.4085674, "lon": 49.9456986}, {"type": "node", "id": 3610139082, "lat": 40.408707, "lon": 49.9460346}, {"type": "node", "id": 3610142695, "lat": 40.4088951, "lon": 49.9454639}, {"type": "node", "id": 3610142711, "lat": 40.4090321, "lon": 49.9458017}, {"type": "node", "id": 3610142725, "lat": 40.4092095, "lon": 49.9452387}, {"type": "node", "id": 3610142729, "lat": 40.409349, "lon": 49.9455748}, {"type": "node", "id": 3610155283, "lat": 40.4096903, "lon": 49.9481279}, {"type": "node", "id": 3610155285, "lat": 40.4097235, "lon": 49.9484339}, {"type": "node", "id": 3610155288, "lat": 40.4097494, "lon": 49.9480992}, {"type": "node", "id": 3610155289, "lat": 40.4097517, "lon": 49.9484583}, {"type": "node", "id": 3610155291, "lat": 40.4097805, "lon": 49.9484457}, {"type": "node", "id": 3610163799, "lat": 40.4099548, "lon": 49.9477151}, {"type": "node", "id": 3610163808, "lat": 40.4100306, "lon": 49.9479184}, {"type": "node", "id": 3610163814, "lat": 40.4100682, "lon": 49.9479987}, {"type": "node", "id": 3610163816, "lat": 40.410086, "lon": 49.9476359}, {"type": "node", "id": 3610163822, "lat": 40.4101312, "lon": 49.9481533}, {"type": "node", "id": 3610163829, "lat": 40.4101979, "lon": 49.9479064}, {"type": "node", "id": 3610208950, "lat": 40.409872, "lon": 49.9503762}, {"type": "node", "id": 3610208957, "lat": 40.4100034, "lon": 49.9494216}, {"type": "node", "id": 3610208971, "lat": 40.4101348, "lon": 49.950443}, {"type": "node", "id": 3610208989, "lat": 40.4103722, "lon": 49.950276}, {"type": "node", "id": 2781855542, "lat": 40.4155523, "lon": 49.921116}, {"type": "node", "id": 2781855544, "lat": 40.4149808, "lon": 49.9208189}, {"type": "node", "id": 2781855546, "lat": 40.414905, "lon": 49.9209389}, {"type": "node", "id": 2781855548, "lat": 40.4155243, "lon": 49.92098}, {"type": "node", "id": 2781855550, "lat": 40.415466, "lon": 49.9208617}, {"type": "node", "id": 2781855552, "lat": 40.415383, "lon": 49.9207724}, {"type": "node", "id": 2781855554, "lat": 40.4152833, "lon": 49.9207206}, {"type": "node", "id": 2781855556, "lat": 40.4151762, "lon": 49.9207111}, {"type": "node", "id": 2781855558, "lat": 40.4150721, "lon": 49.920745}, {"type": "node", "id": 2781855560, "lat": 40.4148644, "lon": 49.9210853}, {"type": "node", "id": 2781855562, "lat": 40.4148637, "lon": 49.9212412}, {"type": "node", "id": 2781855564, "lat": 40.4149029, "lon": 49.9213883}, {"type": "node", "id": 2781855566, "lat": 40.4149775, "lon": 49.9215096}, {"type": "node", "id": 2781855569, "lat": 40.4150787, "lon": 49.9215908}, {"type": "node", "id": 2781855577, "lat": 40.4151949, "lon": 49.9216226}, {"type": "node", "id": 2781855579, "lat": 40.4153125, "lon": 49.9216012}, {"type": "node", "id": 2781855581, "lat": 40.4154177, "lon": 49.9215292}, {"type": "node", "id": 2781855583, "lat": 40.4154984, "lon": 49.9214148}, {"type": "node", "id": 2781855585, "lat": 40.415545, "lon": 49.9212716}, {"type": "node", "id": 3442328374, "lat": 40.4214816, "lon": 49.9162746}, {"type": "node", "id": 3442328381, "lat": 40.4220346, "lon": 49.9176375}, {"type": "node", "id": 3442328382, "lat": 40.4220473, "lon": 49.9157947}, {"type": "node", "id": 3442328383, "lat": 40.4221892, "lon": 49.9179812}, {"type": "node", "id": 3442328387, "lat": 40.4223586, "lon": 49.91809}, {"type": "node", "id": 3442328389, "lat": 40.4224315, "lon": 49.9153444}, {"type": "node", "id": 3442328391, "lat": 40.4226247, "lon": 49.9180793}, {"type": "node", "id": 3442329995, "lat": 40.4228763, "lon": 49.9179797}, {"type": "node", "id": 3442330001, "lat": 40.4233386, "lon": 49.9175865}, {"type": "node", "id": 3622805622, "lat": 40.4198561, "lon": 49.9131408}, {"type": "node", "id": 3622805625, "lat": 40.4199462, "lon": 49.9133399}, {"type": "node", "id": 3622805631, "lat": 40.4200425, "lon": 49.9135525}, {"type": "node", "id": 3622805640, "lat": 40.420159, "lon": 49.9129043}, {"type": "node", "id": 3622805666, "lat": 40.4203373, "lon": 49.9133222}, {"type": "node", "id": 3622805675, "lat": 40.4204452, "lon": 49.9126807}, {"type": "node", "id": 3622805692, "lat": 40.4206315, "lon": 49.9130924}, {"type": "node", "id": 3622809518, "lat": 40.4222677, "lon": 49.9154594}, {"type": "node", "id": 3622886021, "lat": 40.4216128, "lon": 49.916724}, {"type": "node", "id": 3622886024, "lat": 40.421673, "lon": 49.9166869}, {"type": "node", "id": 3622886026, "lat": 40.4216948, "lon": 49.9169142}, {"type": "node", "id": 3622886040, "lat": 40.4222572, "lon": 49.9180546}, {"type": "node", "id": 3622886041, "lat": 40.4223387, "lon": 49.9154046}, {"type": "node", "id": 3622886055, "lat": 40.4224944, "lon": 49.9180993}, {"type": "node", "id": 3622886067, "lat": 40.4227439, "lon": 49.9180471}, {"type": "node", "id": 4021864034, "lat": 40.4226607, "lon": 49.916033}, {"type": "node", "id": 4021864035, "lat": 40.4228357, "lon": 49.91641}, {"type": "node", "id": 4021864036, "lat": 40.4229688, "lon": 49.9167564}, {"type": "node", "id": 4021864037, "lat": 40.4231041, "lon": 49.9169158}, {"type": "node", "id": 4021864038, "lat": 40.4232418, "lon": 49.916974}, {"type": "node", "id": 4021864039, "lat": 40.4233421, "lon": 49.9169771}, {"type": "node", "id": 4021864040, "lat": 40.423517, "lon": 49.9174477}, {"type": "node", "id": 4021864043, "lat": 40.4221221, "lon": 49.9156834}, {"type": "node", "id": 5672805585, "lat": 40.4217801, "lon": 49.9160205}, {"type": "node", "id": 9765036558, "lat": 40.424378, "lon": 49.9138042}, {"type": "node", "id": 9765036559, "lat": 40.4240656, "lon": 49.9140403}, {"type": "node", "id": 9765036560, "lat": 40.4238941, "lon": 49.9137023}, {"type": "node", "id": 9765036561, "lat": 40.4241963, "lon": 49.9134582}, {"type": "node", "id": 8868835827, "lat": 40.4256913, "lon": 49.9249594}, {"type": "node", "id": 8868835828, "lat": 40.4256436, "lon": 49.9250675}, {"type": "node", "id": 8868835829, "lat": 40.425596, "lon": 49.9250841}, {"type": "node", "id": 8868835830, "lat": 40.4255485, "lon": 49.9250672}, {"type": "node", "id": 8868835831, "lat": 40.4255138, "lon": 49.9250214}, {"type": "node", "id": 8868835832, "lat": 40.4255012, "lon": 49.9249589}, {"type": "node", "id": 8868835833, "lat": 40.4255489, "lon": 49.9248509}, {"type": "node", "id": 8868835834, "lat": 40.4255965, "lon": 49.9248343}, {"type": "node", "id": 8868835835, "lat": 40.425644, "lon": 49.9248511}, {"type": "node", "id": 8868835836, "lat": 40.4256787, "lon": 49.924897}, {"type": "node", "id": 9789060524, "lat": 40.4256785, "lon": 49.9250218}, {"type": "node", "id": 9789060525, "lat": 40.425514, "lon": 49.9248965}, {"type": "node", "id": 10830583965, "lat": 40.4205545, "lon": 49.9237338}, {"type": "node", "id": 10830583966, "lat": 40.4206066, "lon": 49.9243426}, {"type": "node", "id": 10830583967, "lat": 40.420138, "lon": 49.92447}, {"type": "node", "id": 10830583968, "lat": 40.420092, "lon": 49.9243976}, {"type": "node", "id": 10830583969, "lat": 40.4203105, "lon": 49.9232778}, {"type": "node", "id": 10830583970, "lat": 40.4206076, "lon": 49.9234079}, {"type": "node", "id": 10830707659, "lat": 40.4220942, "lon": 49.9239416}, {"type": "node", "id": 10830707660, "lat": 40.4216684, "lon": 49.9240556}, {"type": "node", "id": 10830707661, "lat": 40.4216511, "lon": 49.923939}, {"type": "node", "id": 10830707662, "lat": 40.4220707, "lon": 49.9238411}, {"type": "node", "id": 10830707674, "lat": 40.4222408, "lon": 49.9251097}, {"type": "node", "id": 10830707676, "lat": 40.4217963, "lon": 49.925216}, {"type": "node", "id": 10830707677, "lat": 40.4221819, "lon": 49.9251238}, {"type": "node", "id": 10830707678, "lat": 40.4222259, "lon": 49.9249609}, {"type": "node", "id": 10830707679, "lat": 40.4222691, "lon": 49.9253142}, {"type": "node", "id": 10830707680, "lat": 40.4222973, "lon": 49.9249394}, {"type": "node", "id": 10830707688, "lat": 40.4214571, "lon": 49.9253149}, {"type": "node", "id": 10830707689, "lat": 40.4213948, "lon": 49.9252371}, {"type": "node", "id": 10830707690, "lat": 40.4214009, "lon": 49.9251607}, {"type": "node", "id": 10830707691, "lat": 40.4221585, "lon": 49.9249703}, {"type": "node", "id": 3622780212, "lat": 40.4138654, "lon": 49.9295847}, {"type": "node", "id": 3622780213, "lat": 40.4138778, "lon": 49.9296513}, {"type": "node", "id": 3622780214, "lat": 40.4138819, "lon": 49.9295087}, {"type": "node", "id": 3622780215, "lat": 40.4139271, "lon": 49.9296978}, {"type": "node", "id": 3622780216, "lat": 40.4139176, "lon": 49.9294668}, {"type": "node", "id": 3622780219, "lat": 40.4139515, "lon": 49.9294503}, {"type": "node", "id": 3622780227, "lat": 40.4139974, "lon": 49.9294593}, {"type": "node", "id": 3622780243, "lat": 40.4162414, "lon": 49.9305371}, {"type": "node", "id": 3622780244, "lat": 40.4162708, "lon": 49.9304039}, {"type": "node", "id": 3622780245, "lat": 40.4162975, "lon": 49.9302826}, {"type": "node", "id": 3622780246, "lat": 40.4163495, "lon": 49.9304582}, {"type": "node", "id": 3622780247, "lat": 40.4163547, "lon": 49.9304364}, {"type": "node", "id": 3622780248, "lat": 40.4163639, "lon": 49.9305411}, {"type": "node", "id": 3622780249, "lat": 40.4163675, "lon": 49.9303824}, {"type": "node", "id": 3622780250, "lat": 40.4163855, "lon": 49.9305742}, {"type": "node", "id": 3622780251, "lat": 40.4163928, "lon": 49.9303493}, {"type": "node", "id": 3622780252, "lat": 40.4164342, "lon": 49.9306027}, {"type": "node", "id": 3622780253, "lat": 40.4164396, "lon": 49.9303469}, {"type": "node", "id": 3622787016, "lat": 40.4176883, "lon": 49.931047}, {"type": "node", "id": 3622787018, "lat": 40.4176946, "lon": 49.9310162}, {"type": "node", "id": 3622787024, "lat": 40.417729, "lon": 49.9308277}, {"type": "node", "id": 3622787025, "lat": 40.4177378, "lon": 49.9307898}, {"type": "node", "id": 4504118524, "lat": 40.4145266, "lon": 49.9282776}, {"type": "node", "id": 4504118525, "lat": 40.4147237, "lon": 49.9283514}, {"type": "node", "id": 4504118528, "lat": 40.4144617, "lon": 49.9285073}, {"type": "node", "id": 4504118529, "lat": 40.4146369, "lon": 49.9285741}, {"type": "node", "id": 3628838549, "lat": 40.4171268, "lon": 49.9370797}, {"type": "node", "id": 3628838550, "lat": 40.4172684, "lon": 49.9364234}, {"type": "node", "id": 3628838563, "lat": 40.4185574, "lon": 49.9374477}, {"type": "node", "id": 3628838566, "lat": 40.4186609, "lon": 49.9369402}, {"type": "node", "id": 9893929717, "lat": 40.4184451, "lon": 49.9368626}, {"type": "node", "id": 9893929719, "lat": 40.4186286, "lon": 49.9370946}, {"type": "node", "id": 9893966204, "lat": 40.4184803, "lon": 49.9368753}, {"type": "node", "id": 10830635333, "lat": 40.4185289, "lon": 49.9375015}, {"type": "node", "id": 10830635334, "lat": 40.4184901, "lon": 49.9375311}, {"type": "node", "id": 10830635335, "lat": 40.4184431, "lon": 49.9375485}, {"type": "node", "id": 10830635336, "lat": 40.418391, "lon": 49.9375485}, {"type": "node", "id": 10830707675, "lat": 40.4218246, "lon": 49.9254205}, {"type": "node", "id": 10830707686, "lat": 40.4223545, "lon": 49.925378}, {"type": "node", "id": 10830707687, "lat": 40.4217756, "lon": 49.9255174}, {"type": "node", "id": 10830635337, "lat": 40.4216664, "lon": 49.9381185}, {"type": "node", "id": 10830635339, "lat": 40.4202329, "lon": 49.9382687}, {"type": "node", "id": 10830635340, "lat": 40.4203718, "lon": 49.9376249}, {"type": "node", "id": 9760439968, "lat": 40.4262055, "lon": 49.9144962}, {"type": "node", "id": 9760439970, "lat": 40.426916, "lon": 49.9146947}, {"type": "node", "id": 9760439971, "lat": 40.4267833, "lon": 49.914853}, {"type": "node", "id": 9760439972, "lat": 40.4266547, "lon": 49.9143594}, {"type": "node", "id": 9760439973, "lat": 40.4266485, "lon": 49.9142307}, {"type": "node", "id": 9760439974, "lat": 40.4268629, "lon": 49.9141985}, {"type": "node", "id": 9760440006, "lat": 40.4265313, "lon": 49.9148236}, {"type": "node", "id": 9760440008, "lat": 40.4264774, "lon": 49.9145752}, {"type": "node", "id": 9760440009, "lat": 40.426591, "lon": 49.9147603}, {"type": "node", "id": 9760440010, "lat": 40.4266067, "lon": 49.9143367}, {"type": "node", "id": 9760440011, "lat": 40.4263862, "lon": 49.9146116}, {"type": "node", "id": 9760440012, "lat": 40.4262075, "lon": 49.9146035}, {"type": "node", "id": 9760440013, "lat": 40.42628, "lon": 49.9143125}, {"type": "node", "id": 9760440014, "lat": 40.4265955, "lon": 49.9142615}, {"type": "node", "id": 4512749078, "lat": 40.4269093, "lon": 49.9377746}, {"type": "node", "id": 10827741764, "lat": 40.4268635, "lon": 49.9383666}, {"type": "node", "id": 10827741765, "lat": 40.42724, "lon": 49.9382687}, {"type": "node", "id": 10827741771, "lat": 40.4270301, "lon": 49.9376372}, {"type": "node", "id": 10827741772, "lat": 40.4268938, "lon": 49.9376731}, {"type": "node", "id": 10827741773, "lat": 40.4270456, "lon": 49.9377384}, {"type": "node", "id": 10827741776, "lat": 40.4268024, "lon": 49.9371096}, {"type": "node", "id": 10827741780, "lat": 40.4270994, "lon": 49.9377243}, {"type": "node", "id": 10827741782, "lat": 40.4269065, "lon": 49.9370822}, {"type": "node", "id": 10827741813, "lat": 40.4271616, "lon": 49.9377079}, {"type": "node", "id": 10827741814, "lat": 40.4267891, "lon": 49.9378062}, {"type": "node", "id": 10827741815, "lat": 40.4266874, "lon": 49.9371399}, {"type": "node", "id": 10827741816, "lat": 40.42706, "lon": 49.9370418}, {"type": "node", "id": 10825105264, "lat": 40.4385481, "lon": 49.9362892}, {"type": "node", "id": 10825105265, "lat": 40.4379704, "lon": 49.9360532}, {"type": "node", "id": 10825105266, "lat": 40.4383358, "lon": 49.9352887}, {"type": "node", "id": 10825105267, "lat": 40.4386328, "lon": 49.9354027}, {"type": "node", "id": 3612175588, "lat": 40.4138716, "lon": 49.9409517}, {"type": "node", "id": 3612175590, "lat": 40.4138997, "lon": 49.940727}, {"type": "node", "id": 3612175591, "lat": 40.413929, "lon": 49.9409903}, {"type": "node", "id": 3612179095, "lat": 40.4141155, "lon": 49.9407202}, {"type": "node", "id": 3612179096, "lat": 40.4141193, "lon": 49.9408645}, {"type": "node", "id": 3612179098, "lat": 40.414519, "lon": 49.9404267}, {"type": "node", "id": 3612179099, "lat": 40.4145308, "lon": 49.940453}, {"type": "node", "id": 3612179100, "lat": 40.4145688, "lon": 49.9405374}, {"type": "node", "id": 3612179109, "lat": 40.4152341, "lon": 49.9398817}, {"type": "node", "id": 3612179110, "lat": 40.4152392, "lon": 49.9399202}, {"type": "node", "id": 3612179111, "lat": 40.4152532, "lon": 49.9398481}, {"type": "node", "id": 3612179112, "lat": 40.4152583, "lon": 49.939942}, {"type": "node", "id": 3612179113, "lat": 40.4152826, "lon": 49.9397156}, {"type": "node", "id": 3612179114, "lat": 40.4152852, "lon": 49.9399454}, {"type": "node", "id": 3612179116, "lat": 40.4153164, "lon": 49.9398031}, {"type": "node", "id": 3612179117, "lat": 40.4153196, "lon": 49.9399236}, {"type": "node", "id": 3612179118, "lat": 40.4153324, "lon": 49.9399504}, {"type": "node", "id": 3612179127, "lat": 40.4155099, "lon": 49.9395546}, {"type": "node", "id": 3612179128, "lat": 40.4155424, "lon": 49.9396418}, {"type": "node", "id": 3612179130, "lat": 40.4156223, "lon": 49.9395848}, {"type": "node", "id": 3612179139, "lat": 40.4157129, "lon": 49.939516}, {"type": "node", "id": 3612179147, "lat": 40.4157742, "lon": 49.9396603}, {"type": "node", "id": 3612179155, "lat": 40.4158381, "lon": 49.9392779}, {"type": "node", "id": 3612179161, "lat": 40.4158863, "lon": 49.939381}, {"type": "node", "id": 3612179168, "lat": 40.4159463, "lon": 49.9395253}, {"type": "node", "id": 3612179205, "lat": 40.4163195, "lon": 49.9393869}, {"type": "node", "id": 3612179210, "lat": 40.4163591, "lon": 49.9398951}, {"type": "node", "id": 3612179219, "lat": 40.416488, "lon": 49.9392712}, {"type": "node", "id": 3612179227, "lat": 40.4165519, "lon": 49.9392041}, {"type": "node", "id": 3612179239, "lat": 40.416663, "lon": 49.9393416}, {"type": "node", "id": 3612179247, "lat": 40.4166957, "lon": 49.9393229}, {"type": "node", "id": 3612179253, "lat": 40.4167536, "lon": 49.9396217}, {"type": "node", "id": 3612179265, "lat": 40.4169349, "lon": 49.9389357}, {"type": "node", "id": 3612179270, "lat": 40.4169986, "lon": 49.9391071}, {"type": "node", "id": 3612248278, "lat": 40.4172324, "lon": 49.9394918}, {"type": "node", "id": 3612248282, "lat": 40.4173424, "lon": 49.9394125}, {"type": "node", "id": 3612248285, "lat": 40.4173972, "lon": 49.9399219}, {"type": "node", "id": 3612248288, "lat": 40.4174719, "lon": 49.9398769}, {"type": "node", "id": 3612248293, "lat": 40.4175661, "lon": 49.9401465}, {"type": "node", "id": 3612248299, "lat": 40.417623, "lon": 49.9401224}, {"type": "node", "id": 1671621124, "lat": 40.419328, "lon": 49.9501807}, {"type": "node", "id": 1671658833, "lat": 40.4134445, "lon": 49.9489475}, {"type": "node", "id": 1671658836, "lat": 40.4131551, "lon": 49.948692}, {"type": "node", "id": 1671658837, "lat": 40.4132347, "lon": 49.9488763}, {"type": "node", "id": 2326319127, "lat": 40.4133701, "lon": 49.9487753}, {"type": "node", "id": 3597008465, "lat": 40.4129486, "lon": 49.94885}, {"type": "node", "id": 3597008475, "lat": 40.4131084, "lon": 49.9492179}, {"type": "node", "id": 3621196992, "lat": 40.4208302, "lon": 49.9387577}, {"type": "node", "id": 3621209695, "lat": 40.4209049, "lon": 49.9387059}, {"type": "node", "id": 3621209716, "lat": 40.4211519, "lon": 49.9403131}, {"type": "node", "id": 3621209718, "lat": 40.4212329, "lon": 49.9402872}, {"type": "node", "id": 3621209732, "lat": 40.4215193, "lon": 49.9389281}, {"type": "node", "id": 9893892891, "lat": 40.4213869, "lon": 49.9395565}, {"type": "node", "id": 9893892893, "lat": 40.421206, "lon": 49.9388148}, {"type": "node", "id": 9893892894, "lat": 40.4213006, "lon": 49.939966}, {"type": "node", "id": 9893892896, "lat": 40.4210391, "lon": 49.9387545}, {"type": "node", "id": 10830635338, "lat": 40.4215316, "lon": 49.9387622}, {"type": "node", "id": 10832194910, "lat": 40.4252397, "lon": 49.9432871}, {"type": "node", "id": 10832194911, "lat": 40.4250457, "lon": 49.9433327}, {"type": "node", "id": 10832194912, "lat": 40.4248354, "lon": 49.9419084}, {"type": "node", "id": 10832194913, "lat": 40.4248926, "lon": 49.941785}, {"type": "node", "id": 10832194914, "lat": 40.4250192, "lon": 49.9417528}, {"type": "node", "id": 1671621112, "lat": 40.41949, "lon": 49.9501558}, {"type": "node", "id": 1885271128, "lat": 40.4213757, "lon": 49.9500241}, {"type": "node", "id": 3574542152, "lat": 40.4219352, "lon": 49.9509742}, {"type": "node", "id": 10080655788, "lat": 40.4213601, "lon": 49.9499725}, {"type": "node", "id": 10080655789, "lat": 40.4213958, "lon": 49.9500704}, {"type": "node", "id": 10080655790, "lat": 40.4214867, "lon": 49.9500141}, {"type": "node", "id": 10080655791, "lat": 40.4217215, "lon": 49.9506229}, {"type": "node", "id": 10080655792, "lat": 40.4218992, "lon": 49.9505773}, {"type": "node", "id": 10080655793, "lat": 40.4219686, "lon": 49.9508992}, {"type": "node", "id": 10080655794, "lat": 40.4217542, "lon": 49.9511728}, {"type": "node", "id": 10080655803, "lat": 40.4199256, "lon": 49.9500221}, {"type": "node", "id": 10080655804, "lat": 40.4198409, "lon": 49.9494696}, {"type": "node", "id": 10080655805, "lat": 40.4210701, "lon": 49.9497002}, {"type": "node", "id": 1671621126, "lat": 40.4196443, "lon": 49.9516613}, {"type": "node", "id": 1671621169, "lat": 40.4199051, "lon": 49.9515784}, {"type": "node", "id": 7396966364, "lat": 40.4203121, "lon": 49.9519975}, {"type": "node", "id": 10080655795, "lat": 40.4205607, "lon": 49.9515657}, {"type": "node", "id": 10080655796, "lat": 40.4206893, "lon": 49.9519117}, {"type": "node", "id": 10080655797, "lat": 40.4202829, "lon": 49.9520089}, {"type": "node", "id": 10080655798, "lat": 40.4203034, "lon": 49.9521558}, {"type": "node", "id": 10080655799, "lat": 40.4202988, "lon": 49.9521813}, {"type": "node", "id": 10080655800, "lat": 40.4202926, "lon": 49.9521967}, {"type": "node", "id": 10080655801, "lat": 40.4202758, "lon": 49.9522115}, {"type": "node", "id": 10080655802, "lat": 40.4200766, "lon": 49.9522703}, {"type": "node", "id": 10827741760, "lat": 40.427282, "lon": 49.9385476}, {"type": "node", "id": 10827741761, "lat": 40.4270134, "lon": 49.9386174}, {"type": "node", "id": 10827741762, "lat": 40.4270732, "lon": 49.9390143}, {"type": "node", "id": 10827741763, "lat": 40.4269653, "lon": 49.9390424}, {"type": "node", "id": 10684149166, "lat": 40.4393527, "lon": 49.9325308}, {"type": "node", "id": 10684149167, "lat": 40.4393319, "lon": 49.9327117}, {"type": "node", "id": 10802785528, "lat": 40.4431085, "lon": 49.9368417}, {"type": "node", "id": 10802785529, "lat": 40.4430116, "lon": 49.9368578}, {"type": "node", "id": 10802785530, "lat": 40.4430371, "lon": 49.9372937}, {"type": "node", "id": 10802785531, "lat": 40.4429034, "lon": 49.9373259}, {"type": "node", "id": 10802785532, "lat": 40.4427094, "lon": 49.9373285}, {"type": "node", "id": 10802785533, "lat": 40.4426166, "lon": 49.9364488}, {"type": "node", "id": 10802785534, "lat": 40.4427401, "lon": 49.9364273}, {"type": "node", "id": 10802785535, "lat": 40.4431024, "lon": 49.9368028}, {"type": "node", "id": 10816870791, "lat": 40.4392869, "lon": 49.9327027}, {"type": "node", "id": 10816870792, "lat": 40.4392769, "lon": 49.9328117}, {"type": "node", "id": 10816870793, "lat": 40.4394239, "lon": 49.9328439}, {"type": "node", "id": 10816870794, "lat": 40.4395004, "lon": 49.9327031}, {"type": "node", "id": 10816870795, "lat": 40.4395127, "lon": 49.9325623}, {"type": "node", "id": 10840310068, "lat": 40.4419868, "lon": 49.9368793}, {"type": "node", "id": 10840310069, "lat": 40.442044, "lon": 49.9374023}, {"type": "node", "id": 10840310070, "lat": 40.4419174, "lon": 49.9374452}, {"type": "node", "id": 10840310071, "lat": 40.4417153, "lon": 49.9374479}, {"type": "node", "id": 10840310072, "lat": 40.4417276, "lon": 49.936544}, {"type": "node", "id": 10840310073, "lat": 40.4419889, "lon": 49.9365467}, {"type": "node", "id": 10793980034, "lat": 40.4477492, "lon": 49.9335292}, {"type": "node", "id": 10793980035, "lat": 40.4478697, "lon": 49.9335587}, {"type": "node", "id": 10793980036, "lat": 40.4477962, "lon": 49.9343875}, {"type": "node", "id": 10793980037, "lat": 40.4475594, "lon": 49.9343553}, {"type": "node", "id": 10793980038, "lat": 40.4475063, "lon": 49.9346316}, {"type": "node", "id": 10793980039, "lat": 40.4469307, "lon": 49.9344586}, {"type": "node", "id": 10793980040, "lat": 40.4469787, "lon": 49.9342963}, {"type": "node", "id": 10793980041, "lat": 40.4469287, "lon": 49.9342789}, {"type": "node", "id": 10793980042, "lat": 40.4470012, "lon": 49.9339584}, {"type": "node", "id": 10793980043, "lat": 40.4470614, "lon": 49.9339838}, {"type": "node", "id": 10793980044, "lat": 40.447143, "lon": 49.9329284}, {"type": "node", "id": 10793980045, "lat": 40.4477656, "lon": 49.9331537}, {"type": "node", "id": 10802648326, "lat": 40.4471553, "lon": 49.9336137}, {"type": "node", "id": 10802648327, "lat": 40.4470981, "lon": 49.9334809}, {"type": "node", "id": 10802648328, "lat": 40.4470869, "lon": 49.93367}, {"type": "node", "id": 3524011635, "lat": 40.4427319, "lon": 49.9436981}, {"type": "node", "id": 3524011636, "lat": 40.4427354, "lon": 49.943369}, {"type": "node", "id": 3524011648, "lat": 40.4432472, "lon": 49.9437062}, {"type": "node", "id": 3524011649, "lat": 40.4432551, "lon": 49.9433877}, {"type": "node", "id": 3531527417, "lat": 40.4432713, "lon": 49.9449183}, {"type": "node", "id": 3531527418, "lat": 40.4432845, "lon": 49.9441054}, {"type": "node", "id": 3531527420, "lat": 40.4433109, "lon": 49.9441011}, {"type": "node", "id": 3531527422, "lat": 40.4433208, "lon": 49.9449248}, {"type": "node", "id": 3531527425, "lat": 40.4434428, "lon": 49.944552}, {"type": "node", "id": 10793980333, "lat": 40.4452304, "lon": 49.9447677}, {"type": "node", "id": 10793980334, "lat": 40.4453815, "lon": 49.944258}, {"type": "node", "id": 10797411333, "lat": 40.4430976, "lon": 49.9431964}, {"type": "node", "id": 10797411334, "lat": 40.4428844, "lon": 49.9431826}, {"type": "node", "id": 10797411335, "lat": 40.4428825, "lon": 49.9433796}, {"type": "node", "id": 10797411336, "lat": 40.4430981, "lon": 49.9433772}, {"type": "node", "id": 10797751346, "lat": 40.4427333, "lon": 49.9435687}, {"type": "node", "id": 10797751347, "lat": 40.4432505, "lon": 49.943574}, {"type": "node", "id": 10797751373, "lat": 40.4423706, "lon": 49.9442527}, {"type": "node", "id": 10797751374, "lat": 40.4423706, "lon": 49.9448347},