{"version": 0.6, "generator": "Overpass API 0.7.62.8 e802775f", "osm3s": {"timestamp_osm_base": "2025-11-23T07:58:40Z", "copyright": "The data included in this document is from www.openstreetmap.org. The data is made available under ODbL."}, "elements": [{"type": "node", "id": 1764833096, "lat": 40.3983603, "lon": 49.9486714, "tags": {"amenity": "cafe"}}, {"type": "node", "id": 2763458310, "lat": 40.3994023, "lon": 49.9391358, "tags": {"amenity": "restaurant", "name": "A\u011f Saray"}}, {"type": "node", "id": 2763458313, "lat": 40.3972029, "lon": 49.9407925, "tags": {"amenity": "restaurant", "name": "Qolden Rinq \u015eadl\u0131q Saray\u0131", "name:az": "Qolden Rinq \u015eadl\u0131q Saray\u0131", "name:en": "Golden Ring"}}, {"type": "node", "id": 2763458316, "lat": 40.3988177, "lon": 49.93969, "tags": {"amenity": "restaurant", "name": "Sultan \u015eadl\u0131q Saray\u0131"}}, {"type": "node", "id": 2763462116, "lat": 40.397583, "lon": 49.9376417, "tags": {"amenity": "restaurant", "name": "Q\u0131z\u0131l Qaya \u015eadl\u0131q Saray\u0131 / 8-ci km."}}, {"type": "node", "id": 2763462117, "lat": 40.398592, "lon": 49.935501, "tags": {"amenity": "restaurant", "name": "Su S\u0259si \u015eadl\u0131q Saray\u0131"}}, {"type": "node", "id": 2934109074, "lat": 40.3904726, "lon": 49.9035886, "tags": {"amenity": "restaurant", "name": "Aysun \u015eadl\u0131q Saray\u0131 \\ Bab\u0259k", "phone": "(+99412) 511-67-69"}}, {"type": "node", "id": 2934110657, "lat": 40.3910167, "lon": 49.9028646, "tags": {"amenity": "restaurant", "name": "Venera Restoran \\ Bab\u0259k"}}, {"type": "node", "id": 3553883397, "lat": 40.3750486, "lon": 49.9294401, "tags": {"historic": "memorial", "name": "H\u0259zi Aslanov"}}, {"type": "node", "id": 3585894593, "lat": 40.3955597, "lon": 49.9339734, "tags": {"addr:city": "Bak\u0131", "addr:housenumber": "76", "addr:street": "Bab\u0259k pr.", "name": "Astoriya Otel", "name:en": "Hotel Astoria", "tourism": "hotel", "website": "http://astoriabaku.com/"}}, {"type": "node", "id": 3610406554, "lat": 40.3967644, "lon": 49.939583, "tags": {"amenity": "restaurant", "name": "El\u015f\u0259n Palace \u015eadl\u0131q Saray\u0131"}}, {"type": "node", "id": 3610406556, "lat": 40.3999388, "lon": 49.9319125, "tags": {"amenity": "restaurant", "name": "Xanlar \u015eadl\u0131q Saray\u0131"}}, {"type": "node", "id": 3610406557, "lat": 40.3966544, "lon": 49.9412155, "tags": {"addr:housenumber": "338", "addr:street": "B\u0259kir \u00c7obanzad\u0259", "amenity": "restaurant", "name": "\u015eam Ba\u011f\u0131 Restoran - Q\u0131z\u0131l Saray"}}, {"type": "node", "id": 3713207307, "lat": 40.3908985, "lon": 49.9148731, "tags": {"addr:street": "Oqtay V\u0259liyev", "amenity": "restaurant", "name": "Dal\u011fa Palace", "name:en": "G\u0259nc\u0259 restoran\u0131"}}, {"type": "node", "id": 3713207308, "lat": 40.3873918, "lon": 49.9114826, "tags": {"amenity": "restaurant", "name": "Ramin Nur \u015eadl\u0131q Saray\u0131"}}, {"type": "node", "id": 4076896522, "lat": 40.3669802, "lon": 49.9453953, "tags": {"amenity": "cafe", "name": "Cay evi"}}, {"type": "node", "id": 4076979254, "lat": 40.3751647, "lon": 49.942776, "tags": {"amenity": "restaurant", "internet_access": "wlan", "name": "Cira\u011fan Restoran \\ \u018fhm\u0259dli"}}, {"type": "node", "id": 4354167690, "lat": 40.3733426, "lon": 49.9277288, "tags": {"addr:street": "8 oktyabr pr. \\ Nobel pr.", "amenity": "restaurant", "name": "Asiman \u015eadl\u0131q Saray\u0131 \\ Nobel \\ 8 Noyabr pr.", "opening_hours": "Mo-Su 09:00-00:00"}}, {"type": "node", "id": 4360456991, "lat": 40.3763555, "lon": 49.9200749, "tags": {"addr:street": "Kaz\u0131ma\u011fa K\u0259rimov", "amenity": "cafe", "name:en": "Lion"}}, {"type": "node", "id": 4360501889, "lat": 40.3765619, "lon": 49.9205939, "tags": {"addr:street": "Kaz\u0131ma\u011fa K\u0259rimov", "amenity": "cafe", "name:en": "G\u0259d\u0259b\u0259y"}}, {"type": "node", "id": 4405281890, "lat": 40.3648188, "lon": 49.9486506, "tags": {"addr:postcode": "az1129", "amenity": "cafe", "cuisine": "heuriger;breakfast;grill;asian;pancake;brazilian;barbecue", "diet:vegetarian": "yes", "internet_access": "wlan", "name:ru": "\u041e\u0425\u041e\u0422\u0410", "opening_hours": "24/7"}}, {"type": "node", "id": 4498037689, "lat": 40.3649168, "lon": 49.9483275, "tags": {"amenity": "cafe", "name:en": "Shahrizad cay evi"}}, {"type": "node", "id": 4532462395, "lat": 40.3901493, "lon": 49.9143262, "tags": {"addr:housenumber": "46", "addr:street": "\u0130lqar H\u0259bibov", "amenity": "restaurant", "name:en": "DAL\u011eA Palace"}}, {"type": "node", "id": 4686319406, "lat": 40.3838951, "lon": 49.917965, "tags": {"name:en": "Neft kemerleri anbar teseruffati", "tourism": "artwork"}}, {"type": "node", "id": 4713665791, "lat": 40.3854046, "lon": 49.9122817, "tags": {"addr:street": "S\u00fcleyman \u018fhm\u0259dov", "amenity": "restaurant", "name:en": "Salam Zirv\u0259si"}}, {"type": "node", "id": 4742539221, "lat": 40.3744823, "lon": 49.9428478, "tags": {"addr:postcode": "AZ1123", "addr:street": "Ramiz Quliyev", "amenity": "restaurant", "name": "H\u0259k\u0259ri \u015eadl\u0131q Saray\u0131 \\ X\u0259tai", "phone": "0124719141"}}, {"type": "node", "id": 4757640624, "lat": 40.3712172, "lon": 49.9213501, "tags": {"name": "Mirz\u0259 Market", "name:tr": "avr11433 elxan mirze davud", "shop": "convenience", "tourism": "apartment"}}, {"type": "node", "id": 5083982222, "lat": 40.3628686, "lon": 49.9395001, "tags": {"addr:street": "beton zavod yolu", "internet_access": "wlan", "name:en": "Aykom", "name:tr": "Aykom", "opening_hours": "24/7", "operator": "Gilan Holding", "phone": "+994703552288", "tourism": "camp_site"}}, {"type": "node", "id": 5138972921, "lat": 40.3968974, "lon": 49.9440621, "tags": {"amenity": "cafe", "name": "Paxlava Kafe"}}, {"type": "node", "id": 5516044124, "lat": 40.3828102, "lon": 49.9226168, "tags": {"name:tr": "avr14679", "tourism": "apartment"}}, {"type": "node", "id": 5540159977, "lat": 40.3914936, "lon": 49.9169777, "tags": {"name:en": "unus market 1239", "tourism": "apartment"}}, {"type": "node", "id": 5550121621, "lat": 40.3905734, "lon": 49.9201168, "tags": {"name:en": "avr1259 ilqar nsz", "tourism": "apartment"}}, {"type": "node", "id": 5556646223, "lat": 40.3864093, "lon": 49.9064438, "tags": {"name:en": "avr16403 umid nzs", "tourism": "apartment"}}, {"type": "node", "id": 5558725021, "lat": 40.3838336, "lon": 49.9010977, "tags": {"name": "Avr18107 Dilav\u0259r Mt", "tourism": "apartment"}}, {"type": "node", "id": 5559102823, "lat": 40.3610765, "lon": 49.9455176, "tags": {"name:en": "avr18219 medine zig", "tourism": "apartment"}}, {"type": "node", "id": 5561785421, "lat": 40.3763423, "lon": 49.9301092, "tags": {"name:en": "avr15269 goy market h aslanov", "tourism": "apartment"}}, {"type": "node", "id": 5571663722, "lat": 40.3618101, "lon": 49.9493023, "tags": {"amenity": "restaurant", "name:en": "Eczotika"}}, {"type": "node", "id": 5576030529, "lat": 40.3732904, "lon": 49.9324746, "tags": {"amenity": "bench", "name:en": "Gunel Hajiyeva's house", "tourism": "apartment"}}, {"type": "node", "id": 5948004285, "lat": 40.3944138, "lon": 49.9479416, "tags": {"amenity": "restaurant", "name:en": "Deli Kur Restoran"}}, {"type": "node", "id": 6841605885, "lat": 40.3716275, "lon": 49.9442377, "tags": {"historic": "castle"}}, {"type": "node", "id": 7635073285, "lat": 40.3721606, "lon": 49.927011, "tags": {"name:en": "Komtec MMC", "tourism": "artwork"}}, {"type": "node", "id": 9382616542, "lat": 40.3915828, "lon": 49.9064268, "tags": {"amenity": "restaurant", "name": "M\u0259din\u0259 M\u0259rasim Evi \\ Bab\u0259k"}}, {"type": "node", "id": 9780143245, "lat": 40.3946889, "lon": 49.9339771, "tags": {"name": "Astoria Otel / Bab\u0259k", "tourism": "hotel"}}, {"type": "node", "id": 9780143255, "lat": 40.3940669, "lon": 49.9348019, "tags": {"amenity": "cafe", "name": "K\u0259p\u0259z Kafe"}}, {"type": "node", "id": 9780143274, "lat": 40.39589, "lon": 49.9394649, "tags": {"amenity": "cafe", "name": "\u00c7ay Evi 8-ci km"}}, {"type": "node", "id": 9780143277, "lat": 40.3952609, "lon": 49.9403071, "tags": {"alt_name:az": "Ma\u015f\u0131n Bazar\u0131 Dair\u0259si", "name": "8-ci kilometr dair\u0259si", "tourism": "attraction"}}, {"type": "node", "id": 9797098760, "lat": 40.3742459, "lon": 49.9261183, "tags": {"amenity": "restaurant", "name": "Orda Restoran"}}, {"type": "node", "id": 9866683435, "lat": 40.3942354, "lon": 49.9099258, "tags": {"amenity": "restaurant", "name": "SOCAR M\u0259rasim Evi / Ke\u015fl\u0259"}}, {"type": "node", "id": 9866687776, "lat": 40.3995689, "lon": 49.9075574, "tags": {"name": "K\u0259p\u0259z Otel / Ke\u015fl\u0259", "tourism": "motel"}}, {"type": "node", "id": 9870972122, "lat": 40.3997874, "lon": 49.934763, "tags": {"amenity": "restaurant", "name": "Elux Events Hall \u015eadl\u0131q Saray\u0131 B\u00f6y\u00fck Saray / 8-ci km."}}, {"type": "node", "id": 9871110312, "lat": 40.398858, "lon": 49.9393254, "tags": {"amenity": "cafe", "name": "\u015eam \u0130\u015f\u0131\u011f\u0131 Kafe"}}, {"type": "node", "id": 9871116132, "lat": 40.3964906, "lon": 49.9400845, "tags": {"amenity": "restaurant", "name": "N\u0259q\u015ficahan Restoran\u0131 / 8-ci km."}}, {"type": "node", "id": 9871116182, "lat": 40.3979634, "lon": 49.9386147, "tags": {"amenity": "restaurant", "name": "Alp \u015eadl\u0131q Saray\u0131 / 8-ci km."}}, {"type": "node", "id": 9871116251, "lat": 40.3961137, "lon": 49.9339597, "tags": {"amenity": "cafe", "name": "S\u0259rin Kafe / 8-ci km."}}, {"type": "node", "id": 10087221021, "lat": 40.3921392, "lon": 49.9220324, "tags": {"name:en": "Safura ev", "name:ru": "Safura ev", "tourism": "apartment"}}, {"type": "node", "id": 10276902675, "lat": 40.3724631, "lon": 49.9436337, "tags": {"amenity": "restaurant", "name": "Fuad Restoran \\ X\u0259tai"}}, {"type": "node", "id": 11020950604, "lat": 40.3794757, "lon": 49.9476886, "tags": {"amenity": "restaurant", "name": "Pluton \u015eadl\u0131q Saray\u0131 \\ Ukrayna Dair\u0259si"}}, {"type": "node", "id": 13261024072, "lat": 40.3712626, "lon": 49.9439879, "tags": {"historic": "monument"}}, {"type": "way", "id": 163793200, "nodes": [1754706331, 1754706330, 1754706328, 3303727245, 1754706329, 1754706331], "tags": {"leisure": "park"}}, {"type": "way", "id": 164882073, "nodes": [1764817173, 1764817175, 1764817171, 1764817169, 1764817174, 1764817172, 1764817173], "tags": {"addr:city": "Bak\u0131", "addr:housenumber": "23/15", "addr:street": "Bab\u0259k prospekti", "amenity": "marketplace", "building": "yes", "building:levels": "2", "name": "Bizim Market"}}, {"type": "way", "id": 182971860, "nodes": [1933346183, 1933346185, 1933346186, 1933346182, 1933346184, 9797092099, 1933346183], "tags": {"addr:housename": "Kafe Nargilja", "addr:postcode": "AZ1123", "addr:street": "Z\u0131\u011f \u015fosesi", "amenity": "cafe", "building": "yes", "name": "Nargil\u0259 \u00c7ay Evi"}}, {"type": "way", "id": 182976589, "nodes": [1933399942, 1933399941, 11026386811, 1933399939, 11026386815, 11026386812, 11026386816, 1933399940, 11026386809, 1933399942], "tags": {"leisure": "park", "name": "Park"}}, {"type": "way", "id": 183201142, "nodes": [1935675992, 1935675997, 1935675999, 13261366114, 13261366113, 1935675994, 1935675993, 1935675991, 1935676002, 1935675995, 1935675996, 1935676001, 13261366111, 13261366112, 1935675992], "tags": {"leisure": "park", "name": "Z\u0259rif\u0259 \u018fliyeva Park\u0131"}}, {"type": "way", "id": 268836356, "nodes": [2741492964, 2741492965, 2741492966, 2741492967, 2741492968, 2741492969, 2741492970, 2741492971, 2741492972, 2741492973, 2741492964], "tags": {"landuse": "grass", "name": "Nargil\u0259 Dair\u0259si", "tourism": "attraction"}}, {"type": "way", "id": 268836786, "nodes": [2741496598, 2741496599, 2741496601, 2741496603, 2741496598], "tags": {"addr:housenumber": "19", "addr:postcode": "AZ1123", "addr:street": "Rahib M\u0259mm\u0259dov", "amenity": "restaurant", "building": "manufacture", "name": "Elg\u00fcn \u015eadl\u0131q Saray\u0131 \\ X\u0259tai", "phone": "+994 12 571 00 21"}}, {"type": "way", "id": 286543640, "nodes": [2902268544, 2902268527, 2902268528, 2902268521, 2902268522, 2902268529, 2902268530, 2902268545, 2902268544], "tags": {"addr:housenumber": "56", "addr:street": "Bab\u0259k Prospekti", "amenity": "restaurant", "building": "yes", "building:levels": "3", "name": "Mala Praqa Restoran", "opening_hours": "Mo-Su 11:00-02:00"}}, {"type": "way", "id": 286543641, "nodes": [2902268540, 2902268519, 2902268510, 2902268512, 2902268514, 2902268515, 2902268541, 2902268540], "tags": {"addr:housenumber": "64", "addr:street": "Babek highway", "amenity": "restaurant", "building": "yes", "building:levels": "3", "name": "Sev\u0259n \u00dcr\u0259kl\u0259r \u015eadl\u0131q Saray\u0131"}}, {"type": "way", "id": 286543643, "nodes": [2902268539, 2902268518, 2902268519, 2902268540, 2902268539], "tags": {"alt_name": "Sev\u0259n \u00dcr\u0259kl\u0259r", "amenity": "restaurant", "building": "yes", "building:levels": "3", "name": "Tural"}}, {"type": "way", "id": 286547552, "nodes": [2902302554, 2902302531, 2902302540, 2902302562, 2902302554], "tags": {"addr:city": "Bak\u0131", "addr:country": "AZ", "addr:housenumber": "76", "addr:street": "Bab\u0259k pr.", "amenity": "restaurant", "building": "yes", "building:levels": "2", "name": "Astoria Restoran"}}, {"type": "way", "id": 286547554, "nodes": [2902302527, 2902302363, 2902302370, 2902302373, 2902302394, 2902302390, 2902302530, 2902302527], "tags": {"addr:city": "Bak\u0131", "addr:country": "AZ", "addr:housenumber": "76", "addr:street": "Bab\u0259k pr.", "amenity": "restaurant", "building": "yes", "building:levels": "1", "name": "Mu\u011fam Oca\u011f\u0131 Restoran"}}, {"type": "way", "id": 286547555, "nodes": [2902302539, 2902302393, 2902302389, 2902302501, 2902302547, 2902302541, 2902302539], "tags": {"addr:city": "Bak\u0131", "addr:country": "AZ", "addr:housenumber": "76", "addr:street": "Bab\u0259k pr.", "amenity": "restaurant", "building": "yes", "height": "6", "name": "S\u0259rin \u015eadl\u0131q Saray\u0131"}}, {"type": "way", "id": 286547583, "nodes": [2902302543, 2902302400, 2902302505, 2902302529, 2902302549, 2902302543], "tags": {"leisure": "park"}}, {"type": "way", "id": 286547584, "nodes": [2902302379, 2902302361, 2902302372, 9779865868, 9779865869, 2902302377, 2902302501, 2902302389, 2902302393, 2902302388, 2902302384, 2902302381, 2902302398, 2902302397, 2902302379], "tags": {"leisure": "park"}}, {"type": "way", "id": 286547595, "nodes": [2902302613, 2902302610, 2902302601, 2902302606, 2902302613], "tags": {"leisure": "park"}}, {"type": "way", "id": 286554732, "nodes": [2902361489, 2902361480, 2902361482, 2902361490, 2902361489], "tags": {"amenity": "restaurant", "building": "yes", "height": "8", "name": "Arzu \u015eadl\u0131q Saray\u0131"}}, {"type": "way", "id": 286554737, "nodes": [2902361491, 2902361487, 2902361488, 2902361492, 2902361491], "tags": {"amenity": "restaurant", "building": "yes", "height": "6", "name": "\u015eahzad\u0259"}}, {"type": "way", "id": 286555870, "nodes": [2902373531, 2902373521, 2902373522, 2902373524, 2902373523, 2902373525, 2902373529, 2902373532, 2902373531], "tags": {"addr:city": "Bak\u0131", "addr:country": "AZ", "addr:housenumber": "62a", "addr:street": "Bab\u0259k Prospekti", "amenity": "restaurant", "building": "yes", "height": "6", "name": "Ceyhun", "name:en": "Sah Restoran"}}, {"type": "way", "id": 286555872, "nodes": [2902373509, 2902371499, 2902302314, 2902373507, 2902373512, 2902373509], "tags": {"amenity": "restaurant", "building": "yes", "building:levels": "3", "name": "H\u0259yat Restoran / Bab\u0259k"}}, {"type": "way", "id": 286555875, "nodes": [2902371496, 2902373504, 2902373506, 2902371500, 2902371497, 2902371496], "tags": {"addr:city": "Bak\u0131", "addr:country": "AZ", "addr:housenumber": "23/15", "addr:street": "Bab\u0259k pr.", "amenity": "restaurant", "building": "yes", "building:levels": "3", "name": "Kleopatra Restoran / Bab\u0259k"}}, {"type": "way", "id": 286555878, "nodes": [2902373533, 2902373527, 2902373528, 2902373534, 2902373533], "tags": {"amenity": "restaurant", "building": "yes", "building:levels": "3", "name": "L\u0259mb\u0259ran Restoran"}}, {"type": "way", "id": 313270928, "nodes": [3191828485, 3191828486, 3191828487, 3191828488, 3191828489, 3191828490, 3191828491, 3191828492, 3191828493, 3191828494, 3191828495, 3191828496, 3191828497, 3191828498, 3191828499, 3191828500, 3191828501, 3191828502, 3191828503, 3191828504, 3191828505, 3191828506, 3191828507, 3191828508, 3191828509, 3191828510, 3191828511, 3191828512, 3191828513, 3191828514, 3191828485], "tags": {"addr:street": "Ramiz Quliyev", "amenity": "restaurant", "building": "yes", "cuisine": "regional", "name": "Mirvari Plaza"}}, {"type": "way", "id": 314352890, "nodes": [3203991569, 3203991570, 3203991571, 3203991572, 3203991569], "tags": {"leisure": "park"}}, {"type": "way", "id": 314372964, "nodes": [3204219464, 3204219465, 9797229654, 3204219467, 3204219468, 3204219469, 3204219470, 9797229651, 3204219471, 9797229652, 9382629963, 9797229653, 9382629962, 3204219464], "tags": {"leisure": "park"}}, {"type": "way", "id": 323592099, "nodes": [3303727170, 3303744568, 3303727172, 3303744567, 3303744564, 3303725948, 3303744561, 3303725945, 3303727170], "tags": {"leisure": "park"}}, {"type": "way", "id": 355427145, "nodes": [3610406642, 9871116236, 9871116235, 3610406635, 3610406631, 3610406624, 3610406620, 3610406607, 3610406618, 3610406611, 3610406612, 3610406614, 9871116187, 9871116186, 3610406596, 3610406597, 3610406594, 3610406584, 3610406583, 9871116183, 9871116184, 3610406577, 9871116185, 3610406578, 3610406587, 3610406640, 3610406633, 3610406619, 3610406623, 3610406638, 3610406645, 3610406655, 3610406642], "tags": {"leisure": "park"}}, {"type": "way", "id": 362792011, "nodes": [3670450119, 3670450118, 3670450117, 1969708426, 11050055125, 11050055124, 9795394714, 3670450115, 3670450116, 11050055126, 3670450119], "tags": {"leisure": "park"}}, {"type": "way", "id": 362792012, "nodes": [1969708550, 3670461925, 3670450124, 3670450123, 3670450122, 3713218128, 1969708518, 1969708529, 11050055129, 1969708550], "tags": {"leisure": "park"}}, {"type": "way", "id": 365130882, "nodes": [3691760214, 3691760209, 3691760201, 3691760203, 3691760214], "tags": {"leisure": "park"}}, {"type": "way", "id": 365348766, "nodes": [3693615922, 3693615856, 3693615857, 2902268522, 2902268521, 3693615927, 3693615922], "tags": {"leisure": "park"}}, {"type": "way", "id": 365348808, "nodes": [3693615502, 3693615501, 3693615492, 3693615472, 3693615471, 3693615440, 3693615441, 3693615449, 3693615451, 3693615522, 3693615523, 3693615511, 3693615508, 1832067936, 3692266247, 3693615429, 3693615427, 3693615457, 3693615474, 3693615475, 3693615479, 3693615490, 3693615499, 3693615502], "tags": {"landuse": "grass", "leisure": "park"}}, {"type": "way", "id": 366273014, "nodes": [3702498932, 3702498927, 3702498923, 3702498924, 3702498925, 3702498929, 3702498935, 3702498933, 3702498932], "tags": {"leisure": "park"}}, {"type": "way", "id": 367395233, "nodes": [3713207927, 3713207324, 3713207925, 3713207928, 3713207927], "tags": {"leisure": "park"}}, {"type": "way", "id": 371360289, "nodes": [3749334631, 3749334632, 3749334635, 3749334640, 3749334639, 3749334644, 3749334646, 3749334631], "tags": {"leisure": "park"}}, {"type": "way", "id": 405488463, "nodes": [4076836260, 4076836261, 4076836262, 4076836263, 4076836260], "tags": {"addr:housenumber": "2", "addr:street": "Q\u0259dir M\u0259mm\u0259dov", "amenity": "restaurant", "building": "yes", "capacity": "200", "cuisine": "regional", "delivery": "no", "name": "Taj Mahal", "name:en": "Tac Mahal Restoran"}}, {"type": "way", "id": 405489184, "nodes": [4076842896, 4076842897, 4076842898, 4076842899, 4076842896], "tags": {"addr:street": "Z\u0131\u011f \u015fossesi", "amenity": "restaurant", "building": "yes", "building:levels": "1", "capacity": "300-400", "cuisine": "regional", "name": "Z\u0259rif\u0259 \u015eadl\u0131g evi"}}, {"type": "way", "id": 405497240, "nodes": [4076906881, 9797092095, 4076906882, 4076906883, 4076906884, 4076906885, 4076906881], "tags": {"addr:street": "Z\u0131\u011f \u015fossesi", "amenity": "restaurant", "capacity": "200", "cuisine": "regional", "name": "Nargil\u0259 Kafe Restoran", "smoking": "outside"}}, {"type": "way", "id": 405538092, "nodes": [4077233017, 4077233018, 4077233019, 9797092102, 4077233020, 4077233017], "tags": {"addr:street": "Ramiz Quliyev", "amenity": "restaurant", "capacity": "50", "cuisine": "regional", "name": "Ail\u0259vi Restoran \\ H\u0259zi Aslanov"}}, {"type": "way", "id": 405540603, "nodes": [4077244989, 4077244990, 4077244991, 4077244992, 4077244989], "tags": {"addr:street": "Ramiz Quliyev", "amenity": "restaurant", "building": "terrace", "cuisine": "international", "name": "Mirvari", "smoking": "outside"}}, {"type": "way", "id": 405712675, "nodes": [4078691329, 4078691330, 4078691331, 4078691332, 13261036637, 13261036638, 4078691333, 4078691334, 13261036639, 13261036640, 4078691329], "tags": {"leisure": "park"}}, {"type": "way", "id": 405712677, "nodes": [4078691335, 4078691336, 4078691337, 4078691338, 4078691335], "tags": {"addr:housenumber": "36", "addr:street": "823 Ke\u00e7id", "amenity": "restaurant", "building": "yes", "cuisine": "regional", "name": "Canbax\u00e7a"}}, {"type": "way", "id": 405815258, "nodes": [4079684067, 4079684068, 4079684069, 4079684070, 4079684071, 4079684067], "tags": {"leisure": "park"}}, {"type": "way", "id": 405819683, "nodes": [4079718604, 4079718605, 4079718606, 4079718607, 4079718604], "tags": {"amenity": "cafe", "building": "yes", "building:levels": "1", "name": "Cafeteria"}}, {"type": "way", "id": 405820105, "nodes": [4079723738, 4079723739, 4079723740, 4079723741, 4079723738], "tags": {"amenity": "cafe", "building": "yes", "name": "Cafeteria"}}, {"type": "way", "id": 449036622, "nodes": [4460063041, 4460063042, 4460063043, 13261366108, 4460063044, 4460063045, 13228409157, 13228409155, 13228409154, 13228409187, 13228409149, 13228409150, 13228409151, 3691760214, 3691760209, 13228409148, 13228409152, 13228409153, 13228409156, 4460063048, 4460063049, 4460063050, 4460063041], "tags": {"leisure": "park"}}, {"type": "way", "id": 463296924, "nodes": [4585773999, 4585774000, 4585774001, 4585774002, 4585774003, 4585774004, 4585774005, 4585774006, 4585774007, 4585773999], "tags": {"leisure": "park"}}, {"type": "way", "id": 463296925, "nodes": [4585774008, 4585774009, 4585774010, 4585774011, 4585774008], "tags": {"leisure": "park"}}, {"type": "way", "id": 463296926, "nodes": [4585774012, 4585774013, 4585774014, 4585774018, 4585774019, 4585774020, 4585774021, 4585774022, 4585774023, 4585774024, 4076906881, 4076906885, 4076906884, 4585774026, 4585774012], "tags": {"leisure": "park"}}, {"type": "way", "id": 463302907, "nodes": [4585835096, 4585835097, 4585835098, 4585835099, 4585835100, 4585835101, 4585835102, 4585835103, 4585835104, 4585835105, 4585835106, 4585835107, 4585835108, 4585835109, 4585835110, 4585835111, 4585835112, 11008636696, 4585835113, 4585835114, 11008636693, 11008636694, 4585835096], "tags": {"leisure": "park"}}, {"type": "way", "id": 553026069, "nodes": [5338747029, 5338747030, 5338747031, 5338747032, 5338747033, 5338747034, 5338747029], "tags": {"leisure": "park"}}, {"type": "way", "id": 553026422, "nodes": [5338750121, 11026386870, 11026386871, 5338750122, 5338750123, 5338750124, 5338750121], "tags": {"leisure": "park"}}, {"type": "way", "id": 721155550, "nodes": [6766180369, 13132427749, 13261036664, 13261036665, 6766180370, 6766180371, 6766180372, 13261036612, 6766180373, 10608918460, 13261036540, 6766180374, 1946006396, 13261036596, 1946006402, 9893885762, 9893885761, 6766180368, 9893885760, 9893885763, 6766180367, 13261036582, 13261036583, 6766180375, 13261036670, 6766180369], "tags": {"leisure": "park"}}, {"type": "way", "id": 1063938358, "nodes": [9772075472, 9772075473, 9772075474, 9772075475, 9772075476, 9772075477, 9772075478, 9772075479, 9772075480, 9772075481, 9772075482, 9772075483, 9772075484, 9772075485, 9772075486, 9772075487, 9772075488, 9772075489, 9772075490, 9772075491, 9772075492, 9772075493, 9772075494, 9772075495, 9772075496, 9772075497, 9772075498, 9772075499, 9772075534, 9772075500, 9772075501, 9772075502, 9772075503, 9772075504, 9772075505, 9772075506, 9772075507, 9772075508, 9772075509, 9772075510, 9772075511, 9772075512, 9772075513, 9772075472], "tags": {"amenity": "cafe", "building": "yes"}}, {"type": "way", "id": 1063938359, "nodes": [9772075514, 9772075515, 9772075516, 9772075517, 9772075518, 9772075519, 9772075533, 9772075520, 9772075521, 9772075522, 9772075523, 9772075524, 9772075525, 9772075526, 9772075527, 9772075528, 9772075529, 9772075530, 9772075531, 9772075532, 9772075536, 9772075514], "tags": {"amenity": "cafe", "building": "yes"}}, {"type": "way", "id": 1066993807, "nodes": [9797255795, 9797255794, 9797255793, 9797255792, 9797255791, 9797255790, 9797255789, 9797255788, 9797255787, 9797255786, 9797255785, 9797255784, 9797255783, 9797255782, 9797255781, 9797255780, 9797255795], "tags": {"leisure": "park"}}, {"type": "way", "id": 1075863172, "nodes": [5638110858, 9866683434, 9866683433, 9866683432, 5638110859, 9866683431, 5638110858], "tags": {"amenity": "restaurant"}}, {"type": "way", "id": 1076413627, "nodes": [9870972117, 9870952515, 4577310547, 9870952516, 9870972117], "tags": {"leisure": "park"}}, {"type": "way", "id": 1076430563, "nodes": [9871116118, 9871116117, 9871110316, 9871110315, 9871116118], "tags": {"amenity": "marketplace", "name": "\u018ft Bazar\u0131 / 8-ci km."}}, {"type": "way", "id": 1138134859, "nodes": [10608931710, 10608931709, 10608931708, 10608931707, 10608931706, 10608931705, 10608931710], "tags": {"leisure": "park"}}, {"type": "way", "id": 1138148094, "nodes": [10609042236, 13261024038, 10609042235, 10609042234, 13261024052, 10609042233, 10609042232, 13261036512, 13261036513, 10609042231, 13261036514, 10609042230, 10609042229, 10609042228, 13261036515, 13261024036, 13261024037, 10609042227, 10609042236], "tags": {"leisure": "park", "name": "\u0130bo park"}}, {"type": "way", "id": 1186592369, "nodes": [11020950603, 11020950602, 11020950601, 11020950600, 11020950599, 11020950598, 11020950597, 11020950596, 11020950595, 11020950594, 11020950593, 11020950603], "tags": {"leisure": "park"}}, {"type": "way", "id": 1186594746, "nodes": [11020968492, 11020968491, 11020968490, 11020968489, 11020968492], "tags": {"leisure": "park"}}, {"type": "way", "id": 1303982830, "nodes": [12076038046, 12076038047, 12076038048, 12076038049, 12076038046], "tags": {"amenity": "cafe", "building": "yes"}}, {"type": "way", "id": 1441707453, "nodes": [13228409141, 13228409142, 13228409143, 13228409144, 13228409145, 13228409146, 13228409147, 13228409141], "tags": {"amenity": "restaurant", "building": "yes", "name": "Qaya Kafe v\u0259 Restoran"}}, {"type": "node", "id": 3749334631, "lat": 40.3755316, "lon": 49.9110525}, {"type": "node", "id": 3749334632, "lat": 40.3755316, "lon": 49.9119599}, {"type": "node", "id": 3749334635, "lat": 40.3756975, "lon": 49.912133}, {"type": "node", "id": 3749334639, "lat": 40.3760171, "lon": 49.9115298}, {"type": "node", "id": 3749334640, "lat": 40.3760171, "lon": 49.9117554}, {"type": "node", "id": 3749334644, "lat": 40.3762189, "lon": 49.9114669}, {"type": "node", "id": 3749334646, "lat": 40.3762429, "lon": 49.9110499}, {"type": "node", "id": 3713207324, "lat": 40.3887225, "lon": 49.9109037}, {"type": "node", "id": 3713207925, "lat": 40.3887467, "lon": 49.9112225}, {"type": "node", "id": 3713207927, "lat": 40.3889626, "lon": 49.9108732}, {"type": "node", "id": 3713207928, "lat": 40.3889793, "lon": 49.9111959}, {"type": "node", "id": 5638110858, "lat": 40.3938545, "lon": 49.9095036}, {"type": "node", "id": 5638110859, "lat": 40.3943528, "lon": 49.9094631}, {"type": "node", "id": 9866683431, "lat": 40.3940629, "lon": 49.9094866}, {"type": "node", "id": 9866683432, "lat": 40.3943947, "lon": 49.9104032}, {"type": "node", "id": 9866683433, "lat": 40.3939821, "lon": 49.9104515}, {"type": "node", "id": 9866683434, "lat": 40.3939024, "lon": 49.9103603}, {"type": "node", "id": 1933399939, "lat": 40.3595339, "lon": 49.9475676}, {"type": "node", "id": 1933399940, "lat": 40.3592151, "lon": 49.9472364}, {"type": "node", "id": 1933399941, "lat": 40.3600091, "lon": 49.9473317}, {"type": "node", "id": 1933399942, "lat": 40.3598956, "lon": 49.9469119}, {"type": "node", "id": 11026386809, "lat": 40.3597822, "lon": 49.946966}, {"type": "node", "id": 11026386811, "lat": 40.3598897, "lon": 49.947391}, {"type": "node", "id": 11026386812, "lat": 40.3593997, "lon": 49.9475455}, {"type": "node", "id": 11026386815, "lat": 40.3594246, "lon": 49.9475746}, {"type": "node", "id": 11026386816, "lat": 40.3592028, "lon": 49.9473158}, {"type": "node", "id": 1933346183, "lat": 40.3687297, "lon": 49.9383912}, {"type": "node", "id": 1933346185, "lat": 40.3688143, "lon": 49.9383875}, {"type": "node", "id": 2741492964, "lat": 40.3685844, "lon": 49.9377589}, {"type": "node", "id": 2741492965, "lat": 40.3685875, "lon": 49.9377448}, {"type": "node", "id": 2741492966, "lat": 40.3685979, "lon": 49.937742}, {"type": "node", "id": 2741492967, "lat": 40.3686062, "lon": 49.9377438}, {"type": "node", "id": 2741492968, "lat": 40.3686119, "lon": 49.9377566}, {"type": "node", "id": 2741492969, "lat": 40.3685302, "lon": 49.9381011}, {"type": "node", "id": 2741492970, "lat": 40.3685229, "lon": 49.9381115}, {"type": "node", "id": 2741492971, "lat": 40.3685147, "lon": 49.9381113}, {"type": "node", "id": 2741492972, "lat": 40.3685068, "lon": 49.9381055}, {"type": "node", "id": 2741492973, "lat": 40.3685046, "lon": 49.9380894}, {"type": "node", "id": 3191828485, "lat": 40.3699095, "lon": 49.9379533}, {"type": "node", "id": 3191828486, "lat": 40.3699717, "lon": 49.9379856}, {"type": "node", "id": 3191828487, "lat": 40.3700105, "lon": 49.9379856}, {"type": "node", "id": 3191828488, "lat": 40.3700504, "lon": 49.9379995}, {"type": "node", "id": 3191828489, "lat": 40.3700832, "lon": 49.9380226}, {"type": "node", "id": 3191828490, "lat": 40.3701067, "lon": 49.9380518}, {"type": "node", "id": 3191828491, "lat": 40.3701736, "lon": 49.9380811}, {"type": "node", "id": 3191828492, "lat": 40.3701982, "lon": 49.9380626}, {"type": "node", "id": 3191828493, "lat": 40.3702264, "lon": 49.9380673}, {"type": "node", "id": 3191828494, "lat": 40.3702393, "lon": 49.9380888}, {"type": "node", "id": 3191828495, "lat": 40.3702358, "lon": 49.9381181}, {"type": "node", "id": 3191828496, "lat": 40.3701802, "lon": 49.9383296}, {"type": "node", "id": 3191828497, "lat": 40.3701694, "lon": 49.9383499}, {"type": "node", "id": 3191828498, "lat": 40.3701515, "lon": 49.9383479}, {"type": "node", "id": 3191828499, "lat": 40.370129, "lon": 49.9383307}, {"type": "node", "id": 3191828500, "lat": 40.3701266, "lon": 49.9383091}, {"type": "node", "id": 3191828501, "lat": 40.3700609, "lon": 49.9382783}, {"type": "node", "id": 3191828502, "lat": 40.3700198, "lon": 49.9382798}, {"type": "node", "id": 3191828503, "lat": 40.3699799, "lon": 49.9382644}, {"type": "node", "id": 3191828504, "lat": 40.3699389, "lon": 49.9382413}, {"type": "node", "id": 3191828505, "lat": 40.3699201, "lon": 49.9382182}, {"type": "node", "id": 3191828506, "lat": 40.3698485, "lon": 49.9381843}, {"type": "node", "id": 3191828507, "lat": 40.369825, "lon": 49.9382028}, {"type": "node", "id": 3191828508, "lat": 40.3698051, "lon": 49.9382028}, {"type": "node", "id": 3191828509, "lat": 40.3697898, "lon": 49.9381797}, {"type": "node", "id": 3191828510, "lat": 40.3697886, "lon": 49.938152}, {"type": "node", "id": 3191828511, "lat": 40.3698473, "lon": 49.9379286}, {"type": "node", "id": 3191828512, "lat": 40.3698614, "lon": 49.9379086}, {"type": "node", "id": 3191828513, "lat": 40.3698825, "lon": 49.9379024}, {"type": "node", "id": 3191828514, "lat": 40.3699001, "lon": 49.9379178}, {"type": "node", "id": 3204219464, "lat": 40.3681825, "lon": 49.937926}, {"type": "node", "id": 3204219467, "lat": 40.3676337, "lon": 49.9382163}, {"type": "node", "id": 3204219468, "lat": 40.3671655, "lon": 49.9382109}, {"type": "node", "id": 3204219469, "lat": 40.3672168, "lon": 49.9381508}, {"type": "node", "id": 3204219470, "lat": 40.3679222, "lon": 49.9377731}, {"type": "node", "id": 3204219471, "lat": 40.3680718, "lon": 49.9377135}, {"type": "node", "id": 4077233017, "lat": 40.3698253, "lon": 49.9377799}, {"type": "node", "id": 4077233018, "lat": 40.3696988, "lon": 49.9383212}, {"type": "node", "id": 4077233019, "lat": 40.3693256, "lon": 49.9381604}, {"type": "node", "id": 4077233020, "lat": 40.369448, "lon": 49.9376299}, {"type": "node", "id": 4077244989, "lat": 40.3709812, "lon": 49.9382885}, {"type": "node", "id": 4077244992, "lat": 40.3704294, "lon": 49.9380364}, {"type": "node", "id": 9382629962, "lat": 40.368188, "lon": 49.937861}, {"type": "node", "id": 9382629963, "lat": 40.3681532, "lon": 49.9377644}, {"type": "node", "id": 9797092102, "lat": 40.3693533, "lon": 49.9380404}, {"type": "node", "id": 9797229651, "lat": 40.3680133, "lon": 49.9377215}, {"type": "node", "id": 9797229652, "lat": 40.3681113, "lon": 49.9377215}, {"type": "node", "id": 9797229653, "lat": 40.3681767, "lon": 49.9378046}, {"type": "node", "id": 9797229654, "lat": 40.3676896, "lon": 49.9383265}, {"type": "node", "id": 1969708426, "lat": 40.3773529, "lon": 49.9141127}, {"type": "node", "id": 3670450115, "lat": 40.3775932, "lon": 49.9138869}, {"type": "node", "id": 3670450116, "lat": 40.3779382, "lon": 49.9139443}, {"type": "node", "id": 3670450117, "lat": 40.378656, "lon": 49.9146291}, {"type": "node", "id": 3670450118, "lat": 40.378735, "lon": 49.9141772}, {"type": "node", "id": 3670450119, "lat": 40.3787714, "lon": 49.9139692}, {"type": "node", "id": 3670450122, "lat": 40.3788485, "lon": 49.9146999}, {"type": "node", "id": 3670450123, "lat": 40.3789174, "lon": 49.9142258}, {"type": "node", "id": 3670450124, "lat": 40.3789419, "lon": 49.9140572}, {"type": "node", "id": 9795394714, "lat": 40.376653, "lon": 49.9136674}, {"type": "node", "id": 11050055124, "lat": 40.3766529, "lon": 49.913705}, {"type": "node", "id": 11050055125, "lat": 40.3770759, "lon": 49.9140027}, {"type": "node", "id": 11050055126, "lat": 40.3779627, "lon": 49.9137479}, {"type": "node", "id": 1969708518, "lat": 40.381162, "lon": 49.915582}, {"type": "node", "id": 1969708529, "lat": 40.3813022, "lon": 49.9155624}, {"type": "node", "id": 1969708550, "lat": 40.3822157, "lon": 49.9149247}, {"type": "node", "id": 3670461925, "lat": 40.3812029, "lon": 49.9146007}, {"type": "node", "id": 3713218128, "lat": 40.3800994, "lon": 49.91515}, {"type": "node", "id": 11050055129, "lat": 40.3818139, "lon": 49.9152052}, {"type": "node", "id": 3203991569, "lat": 40.365712, "lon": 49.9430561}, {"type": "node", "id": 3203991570, "lat": 40.3655241, "lon": 49.9432145}, {"type": "node", "id": 3203991571, "lat": 40.365685, "lon": 49.9435433}, {"type": "node", "id": 3203991572, "lat": 40.3658729, "lon": 49.943385}, {"type": "node", "id": 4076836260, "lat": 40.3660667, "lon": 49.9443637}, {"type": "node", "id": 4076836261, "lat": 40.3659624, "lon": 49.944479}, {"type": "node", "id": 4076836262, "lat": 40.3661631, "lon": 49.944801}, {"type": "node", "id": 4076836263, "lat": 40.3662666, "lon": 49.9446884}, {"type": "node", "id": 4079684070, "lat": 40.3669018, "lon": 49.9422221}, {"type": "node", "id": 4585774001, "lat": 40.3667061, "lon": 49.9438763}, {"type": "node", "id": 4585774002, "lat": 40.3662851, "lon": 49.9443001}, {"type": "node", "id": 4585774003, "lat": 40.3660623, "lon": 49.9439474}, {"type": "node", "id": 4585774004, "lat": 40.3661931, "lon": 49.9438053}, {"type": "node", "id": 4585774005, "lat": 40.3662288, "lon": 49.9438401}, {"type": "node", "id": 4585774006, "lat": 40.3664547, "lon": 49.9436121}, {"type": "node", "id": 4585774007, "lat": 40.3664876, "lon": 49.9435009}, {"type": "node", "id": 4585835096, "lat": 40.3660265, "lon": 49.944153}, {"type": "node", "id": 4585835097, "lat": 40.3660156, "lon": 49.9441235}, {"type": "node", "id": 4585835098, "lat": 40.3659974, "lon": 49.944094}, {"type": "node", "id": 4585835099, "lat": 40.3659776, "lon": 49.9440736}, {"type": "node", "id": 4585835100, "lat": 40.3659567, "lon": 49.9440623}, {"type": "node", "id": 4585835101, "lat": 40.365934, "lon": 49.9440596}, {"type": "node", "id": 4585835102, "lat": 40.3659125, "lon": 49.9440662}, {"type": "node", "id": 4585835103, "lat": 40.3658677, "lon": 49.9441119}, {"type": "node", "id": 4585835104, "lat": 40.3656902, "lon": 49.9442938}, {"type": "node", "id": 4585835105, "lat": 40.365671, "lon": 49.944332}, {"type": "node", "id": 4585835106, "lat": 40.3656128, "lon": 49.9443938}, {"type": "node", "id": 4585835107, "lat": 40.3655335, "lon": 49.9444618}, {"type": "node", "id": 4585835108, "lat": 40.3653171, "lon": 49.9446664}, {"type": "node", "id": 4585835111, "lat": 40.3652152, "lon": 49.9449837}, {"type": "node", "id": 4585835113, "lat": 40.3653485, "lon": 49.9448597}, {"type": "node", "id": 4585835114, "lat": 40.3657532, "lon": 49.9444761}, {"type": "node", "id": 5338750121, "lat": 40.3649968, "lon": 49.942654}, {"type": "node", "id": 5338750122, "lat": 40.365203, "lon": 49.9428717}, {"type": "node", "id": 5338750123, "lat": 40.3648056, "lon": 49.943193}, {"type": "node", "id": 5338750124, "lat": 40.3645475, "lon": 49.9426129}, {"type": "node", "id": 9797255794, "lat": 40.364116, "lon": 49.944824}, {"type": "node", "id": 11008636693, "lat": 40.3657755, "lon": 49.9442781}, {"type": "node", "id": 11008636694, "lat": 40.3659073, "lon": 49.9442983}, {"type": "node", "id": 11008636696, "lat": 40.365376, "lon": 49.9449299}, {"type": "node", "id": 11026386870, "lat": 40.3650715, "lon": 49.9426903}, {"type": "node", "id": 11026386871, "lat": 40.3651481, "lon": 49.942764}, {"type": "node", "id": 1935675991, "lat": 40.361755, "lon": 49.9476263}, {"type": "node", "id": 1935675992, "lat": 40.363555, "lon": 49.9461257}, {"type": "node", "id": 1935675993, "lat": 40.3620821, "lon": 49.9474709}, {"type": "node", "id": 1935675994, "lat": 40.3622896, "lon": 49.9472679}, {"type": "node", "id": 1935675995, "lat": 40.3613293, "lon": 49.9480586}, {"type": "node", "id": 1935675996, "lat": 40.3610849, "lon": 49.9473409}, {"type": "node", "id": 1935675997, "lat": 40.3637271, "lon": 49.9466058}, {"type": "node", "id": 1935675999, "lat": 40.3630753, "lon": 49.9469379}, {"type": "node", "id": 1935676001, "lat": 40.3619338, "lon": 49.9469715}, {"type": "node", "id": 1935676002, "lat": 40.361689, "lon": 49.9478011}, {"type": "node", "id": 3691760201, "lat": 40.3663876, "lon": 49.9476211}, {"type": "node", "id": 3691760203, "lat": 40.3665416, "lon": 49.9478861}, {"type": "node", "id": 4076842896, "lat": 40.3637765, "lon": 49.9463486}, {"type": "node", "id": 4076842897, "lat": 40.3638521, "lon": 49.946598}, {"type": "node", "id": 4076842898, "lat": 40.3640156, "lon": 49.9465122}, {"type": "node", "id": 4076842899, "lat": 40.3639379, "lon": 49.9462654}, {"type": "node", "id": 4078691329, "lat": 40.3648372, "lon": 49.945156}, {"type": "node", "id": 4078691330, "lat": 40.3649809, "lon": 49.9454052}, {"type": "node", "id": 4078691331, "lat": 40.3646805, "lon": 49.9456922}, {"type": "node", "id": 4078691332, "lat": 40.3645975, "lon": 49.9455506}, {"type": "node", "id": 4078691333, "lat": 40.3642505, "lon": 49.9457818}, {"type": "node", "id": 4078691334, "lat": 40.3642125, "lon": 49.9457196}, {"type": "node", "id": 4078691335, "lat": 40.3645518, "lon": 49.945601}, {"type": "node", "id": 4078691336, "lat": 40.364611, "lon": 49.9457163}, {"type": "node", "id": 4078691337, "lat": 40.3643474, "lon": 49.9459309}, {"type": "node", "id": 4078691338, "lat": 40.3642902, "lon": 49.9458156}, {"type": "node", "id": 4585835109, "lat": 40.3648535, "lon": 49.9451279}, {"type": "node", "id": 4585835110, "lat": 40.3649071, "lon": 49.9452404}, {"type": "node", "id": 4585835112, "lat": 40.365253, "lon": 49.9450387}, {"type": "node", "id": 5338747029, "lat": 40.3643066, "lon": 49.9460542}, {"type": "node", "id": 5338747030, "lat": 40.3642895, "lon": 49.9462234}, {"type": "node", "id": 5338747031, "lat": 40.3640179, "lon": 49.9460993}, {"type": "node", "id": 5338747032, "lat": 40.3637139, "lon": 49.9463889}, {"type": "node", "id": 5338747033, "lat": 40.3636053, "lon": 49.9461138}, {"type": "node", "id": 5338747034, "lat": 40.3641391, "lon": 49.9457899}, {"type": "node", "id": 9772075472, "lat": 40.3607645, "lon": 49.949699}, {"type": "node", "id": 9772075473, "lat": 40.3607537, "lon": 49.9496583}, {"type": "node", "id": 9772075474, "lat": 40.3607402, "lon": 49.9496247}, {"type": "node", "id": 9772075475, "lat": 40.3607173, "lon": 49.9495981}, {"type": "node", "id": 9772075476, "lat": 40.3606876, "lon": 49.9495733}, {"type": "node", "id": 9772075477, "lat": 40.3606404, "lon": 49.9495627}, {"type": "node", "id": 9772075478, "lat": 40.360604, "lon": 49.9495663}, {"type": "node", "id": 9772075479, "lat": 40.3605824, "lon": 49.9495787}, {"type": "node", "id": 9772075480, "lat": 40.3605582, "lon": 49.9496087}, {"type": "node", "id": 9772075481, "lat": 40.360542, "lon": 49.9496388}, {"type": "node", "id": 9772075482, "lat": 40.3605231, "lon": 49.9496831}, {"type": "node", "id": 9772075483, "lat": 40.3605204, "lon": 49.949745}, {"type": "node", "id": 9772075484, "lat": 40.3605272, "lon": 49.9497981}, {"type": "node", "id": 9772075485, "lat": 40.3605474, "lon": 49.9498388}, {"type": "node", "id": 9772075486, "lat": 40.3605663, "lon": 49.9498689}, {"type": "node", "id": 9772075487, "lat": 40.3605892, "lon": 49.9498866}, {"type": "node", "id": 9772075488, "lat": 40.3605865, "lon": 49.9499167}, {"type": "node", "id": 9772075489, "lat": 40.3605636, "lon": 49.9499237}, {"type": "node", "id": 9772075490, "lat": 40.3605406, "lon": 49.9499467}, {"type": "node", "id": 9772075491, "lat": 40.3605177, "lon": 49.9499857}, {"type": "node", "id": 9772075492, "lat": 40.360515, "lon": 49.9500476}, {"type": "node", "id": 9772075493, "lat": 40.3605272, "lon": 49.9500883}, {"type": "node", "id": 9772075494, "lat": 40.360542, "lon": 49.9501202}, {"type": "node", "id": 9772075495, "lat": 40.360573, "lon": 49.9501467}, {"type": "node", "id": 9772075496, "lat": 40.3605905, "lon": 49.9501467}, {"type": "node", "id": 9772075497, "lat": 40.3606242, "lon": 49.9501485}, {"type": "node", "id": 9772075498, "lat": 40.3606458, "lon": 49.9501272}, {"type": "node", "id": 9772075499, "lat": 40.3606728, "lon": 49.9501042}, {"type": "node", "id": 9772075500, "lat": 40.3606849, "lon": 49.9500635}, {"type": "node", "id": 9772075501, "lat": 40.3606863, "lon": 49.9500264}, {"type": "node", "id": 9772075502, "lat": 40.3606755, "lon": 49.9499804}, {"type": "node", "id": 9772075503, "lat": 40.3606634, "lon": 49.9499574}, {"type": "node", "id": 9772075504, "lat": 40.3606364, "lon": 49.9499343}, {"type": "node", "id": 9772075505, "lat": 40.360635, "lon": 49.9499007}, {"type": "node", "id": 9772075506, "lat": 40.360662, "lon": 49.949899}, {"type": "node", "id": 9772075507, "lat": 40.3606836, "lon": 49.9498919}, {"type": "node", "id": 9772075508, "lat": 40.3607092, "lon": 49.9498689}, {"type": "node", "id": 9772075509, "lat": 40.3607294, "lon": 49.9498512}, {"type": "node", "id": 9772075510, "lat": 40.3607443, "lon": 49.9498299}, {"type": "node", "id": 9772075511, "lat": 40.360755, "lon": 49.9498016}, {"type": "node", "id": 9772075512, "lat": 40.3607645, "lon": 49.9497645}, {"type": "node", "id": 9772075513, "lat": 40.3607685, "lon": 49.9497344}, {"type": "node", "id": 9772075514, "lat": 40.360871, "lon": 49.9501449}, {"type": "node", "id": 9772075515, "lat": 40.3608386, "lon": 49.9501414}, {"type": "node", "id": 9772075516, "lat": 40.3608198, "lon": 49.9501308}, {"type": "node", "id": 9772075517, "lat": 40.3608171, "lon": 49.9501007}, {"type": "node", "id": 9772075518, "lat": 40.36084, "lon": 49.9500865}, {"type": "node", "id": 9772075519, "lat": 40.3608454, "lon": 49.9500359}, {"type": "node", "id": 9772075520, "lat": 40.3607591, "lon": 49.9499981}, {"type": "node", "id": 9772075521, "lat": 40.3607254, "lon": 49.9500104}, {"type": "node", "id": 9772075522, "lat": 40.3607146, "lon": 49.9500299}, {"type": "node", "id": 9772075523, "lat": 40.3607011, "lon": 49.9500688}, {"type": "node", "id": 9772075524, "lat": 40.3607065, "lon": 49.9501166}, {"type": "node", "id": 9772075525, "lat": 40.3607173, "lon": 49.9501573}, {"type": "node", "id": 9772075526, "lat": 40.3607416, "lon": 49.9501821}, {"type": "node", "id": 9772075527, "lat": 40.3607672, "lon": 49.9501962}, {"type": "node", "id": 9772075528, "lat": 40.3607928, "lon": 49.950198}, {"type": "node", "id": 9772075529, "lat": 40.3608157, "lon": 49.9501892}, {"type": "node", "id": 9772075530, "lat": 40.3608346, "lon": 49.950175}, {"type": "node", "id": 9772075531, "lat": 40.3608467, "lon": 49.950175}, {"type": "node", "id": 9772075532, "lat": 40.3608656, "lon": 49.9501786}, {"type": "node", "id": 9772075533, "lat": 40.3608103, "lon": 49.9500065}, {"type": "node", "id": 9772075534, "lat": 40.3606756, "lon": 49.9500949}, {"type": "node", "id": 9772075536, "lat": 40.3608687, "lon": 49.9501595}, {"type": "node", "id": 9797255780, "lat": 40.3640833, "lon": 49.9452746}, {"type": "node", "id": 9797255781, "lat": 40.3636542, "lon": 49.9455348}, {"type": "node", "id": 9797255782, "lat": 40.362804, "lon": 49.9460202}, {"type": "node", "id": 9797255783, "lat": 40.3620601, "lon": 49.9463689}, {"type": "node", "id": 9797255784, "lat": 40.3620233, "lon": 49.9463099}, {"type": "node", "id": 9797255785, "lat": 40.3618455, "lon": 49.946385}, {"type": "node", "id": 9797255786, "lat": 40.3618087, "lon": 49.9463099}, {"type": "node", "id": 9797255787, "lat": 40.3618741, "lon": 49.9462295}, {"type": "node", "id": 9797255788, "lat": 40.3620539, "lon": 49.9461973}, {"type": "node", "id": 9797255789, "lat": 40.362056, "lon": 49.9461463}, {"type": "node", "id": 9797255790, "lat": 40.3621949, "lon": 49.9459317}, {"type": "node", "id": 9797255791, "lat": 40.3622726, "lon": 49.9459746}, {"type": "node", "id": 9797255792, "lat": 40.3623503, "lon": 49.9461704}, {"type": "node", "id": 9797255793, "lat": 40.3632005, "lon": 49.9455133}, {"type": "node", "id": 9797255795, "lat": 40.3643102, "lon": 49.9451056}, {"type": "node", "id": 13261036637, "lat": 40.3643556, "lon": 49.9457557}, {"type": "node", "id": 13261036638, "lat": 40.3643252, "lon": 49.9457215}, {"type": "node", "id": 13261036639, "lat": 40.3642818, "lon": 49.945652}, {"type": "node", "id": 13261036640, "lat": 40.3643794, "lon": 49.9455978}, {"type": "node", "id": 13261366111, "lat": 40.3627927, "lon": 49.9465372}, {"type": "node", "id": 13261366112, "lat": 40.3632978, "lon": 49.946281}, {"type": "node", "id": 13261366113, "lat": 40.362786, "lon": 49.9469031}, {"type": "node", "id": 13261366114, "lat": 40.3628178, "lon": 49.9469903}, {"type": "node", "id": 1933346182, "lat": 40.3686836, "lon": 49.9385802}, {"type": "node", "id": 1933346184, "lat": 40.3686803, "lon": 49.9384538}, {"type": "node", "id": 1933346186, "lat": 40.368819, "lon": 49.9385742}, {"type": "node", "id": 2741496598, "lat": 40.3729833, "lon": 49.9435851}, {"type": "node", "id": 2741496599, "lat": 40.3732427, "lon": 49.9438571}, {"type": "node", "id": 2741496601, "lat": 40.3731216, "lon": 49.9440559}, {"type": "node", "id": 2741496603, "lat": 40.3728622, "lon": 49.9437839}, {"type": "node", "id": 3204219465, "lat": 40.3678935, "lon": 49.9387288}, {"type": "node", "id": 4076906881, "lat": 40.3686145, "lon": 49.9386889}, {"type": "node", "id": 4076906882, "lat": 40.3688383, "lon": 49.9389343}, {"type": "node", "id": 4076906883, "lat": 40.3685082, "lon": 49.9395686}, {"type": "node", "id": 4076906884, "lat": 40.3683713, "lon": 49.939464}, {"type": "node", "id": 4076906885, "lat": 40.3684183, "lon": 49.9393594}, {"type": "node", "id": 4077244990, "lat": 40.3707748, "lon": 49.9387847}, {"type": "node", "id": 4077244991, "lat": 40.3702966, "lon": 49.9385675}, {"type": "node", "id": 4079684067, "lat": 40.367333, "lon": 49.9416428}, {"type": "node", "id": 4079684068, "lat": 40.3672349, "lon": 49.9418815}, {"type": "node", "id": 4079684069, "lat": 40.3669876, "lon": 49.9422919}, {"type": "node", "id": 4079684071, "lat": 40.3671205, "lon": 49.9415274}, {"type": "node", "id": 4079723738, "lat": 40.3720131, "lon": 49.9404266}, {"type": "node", "id": 4079723739, "lat": 40.3720662, "lon": 49.9404803}, {"type": "node", "id": 4079723740, "lat": 40.3719436, "lon": 49.9406761}, {"type": "node", "id": 4079723741, "lat": 40.3718966, "lon": 49.9406251}, {"type": "node", "id": 4460063041, "lat": 40.3719406, "lon": 49.9403313}, {"type": "node", "id": 4460063042, "lat": 40.3719971, "lon": 49.9403857}, {"type": "node", "id": 4460063043, "lat": 40.3718684, "lon": 49.9406137}, {"type": "node", "id": 4460063044, "lat": 40.371799, "lon": 49.9409742}, {"type": "node", "id": 4460063045, "lat": 40.3713959, "lon": 49.9417122}, {"type": "node", "id": 4460063048, "lat": 40.3712521, "lon": 49.9414578}, {"type": "node", "id": 4460063049, "lat": 40.371651, "lon": 49.9407992}, {"type": "node", "id": 4460063050, "lat": 40.3717834, "lon": 49.940591}, {"type": "node", "id": 4585773999, "lat": 40.3671649, "lon": 49.9427597}, {"type": "node", "id": 4585774000, "lat": 40.3672006, "lon": 49.9427927}, {"type": "node", "id": 4585774008, "lat": 40.3675888, "lon": 49.9421865}, {"type": "node", "id": 4585774009, "lat": 40.3676829, "lon": 49.942267}, {"type": "node", "id": 4585774010, "lat": 40.3674295, "lon": 49.9428651}, {"type": "node", "id": 4585774011, "lat": 40.3672905, "lon": 49.9427363}, {"type": "node", "id": 4585774012, "lat": 40.3684676, "lon": 49.9396223}, {"type": "node", "id": 4585774013, "lat": 40.3680405, "lon": 49.9408561}, {"type": "node", "id": 4585774014, "lat": 40.3677136, "lon": 49.9416662}, {"type": "node", "id": 4585774018, "lat": 40.3679853, "lon": 49.9408508}, {"type": "node", "id": 4585774019, "lat": 40.3680957, "lon": 49.9404699}, {"type": "node", "id": 4585774020, "lat": 40.3680794, "lon": 49.9404162}, {"type": "node", "id": 4585774021, "lat": 40.3685519, "lon": 49.9385312}, {"type": "node", "id": 4585774022, "lat": 40.3685676, "lon": 49.9385017}, {"type": "node", "id": 4585774023, "lat": 40.3685903, "lon": 49.9384915}, {"type": "node", "id": 4585774024, "lat": 40.3686282, "lon": 49.9385064}, {"type": "node", "id": 4585774026, "lat": 40.368343, "lon": 49.9395311}, {"type": "node", "id": 9797092095, "lat": 40.3686323, "lon": 49.9387085}, {"type": "node", "id": 9797092099, "lat": 40.3687312, "lon": 49.9384516}, {"type": "node", "id": 10609042227, "lat": 40.3715314, "lon": 49.9445407}, {"type": "node", "id": 10609042228, "lat": 40.3711105, "lon": 49.9444818}, {"type": "node", "id": 10609042229, "lat": 40.3709704, "lon": 49.9444099}, {"type": "node", "id": 10609042230, "lat": 40.3708245, "lon": 49.9442979}, {"type": "node", "id": 10609042231, "lat": 40.3705478, "lon": 49.9440653}, {"type": "node", "id": 10609042232, "lat": 40.3708435, "lon": 49.9436572}, {"type": "node", "id": 10609042233, "lat": 40.3710969, "lon": 49.9432281}, {"type": "node", "id": 10609042234, "lat": 40.3713033, "lon": 49.9434051}, {"type": "node", "id": 10609042235, "lat": 40.3714259, "lon": 49.9434963}, {"type": "node", "id": 10609042236, "lat": 40.3715832, "lon": 49.943416}, {"type": "node", "id": 13228409141, "lat": 40.370839, "lon": 49.9443836}, {"type": "node", "id": 13228409142, "lat": 40.3707498, "lon": 49.9442986}, {"type": "node", "id": 13228409143, "lat": 40.3705854, "lon": 49.9441864}, {"type": "node", "id": 13228409144, "lat": 40.3705038, "lon": 49.9444132}, {"type": "node", "id": 13228409145, "lat": 40.3706559, "lon": 49.944492}, {"type": "node", "id": 13228409146, "lat": 40.3706872, "lon": 49.9444396}, {"type": "node", "id": 13228409147, "lat": 40.3708001, "lon": 49.9444889}, {"type": "node", "id": 13228409156, "lat": 40.3693359, "lon": 49.9445211}, {"type": "node", "id": 13228409157, "lat": 40.369539, "lon": 49.9448136}, {"type": "node", "id": 13261024036, "lat": 40.3712094, "lon": 49.9445161}, {"type": "node", "id": 13261024037, "lat": 40.3712833, "lon": 49.9445268}, {"type": "node", "id": 13261024038, "lat": 40.3715299, "lon": 49.9436139}, {"type": "node", "id": 13261024052, "lat": 40.3711169, "lon": 49.9432453}, {"type": "node", "id": 13261036512, "lat": 40.370611, "lon": 49.9440599}, {"type": "node", "id": 13261036513, "lat": 40.3705695, "lon": 49.944021}, {"type": "node", "id": 13261036514, "lat": 40.3706864, "lon": 49.9441822}, {"type": "node", "id": 13261036515, "lat": 40.3711533, "lon": 49.9444989}, {"type": "node", "id": 13261366108, "lat": 40.3717004, "lon": 49.9408753}, {"type": "node", "id": 3691760209, "lat": 40.367189, "lon": 49.9468072}, {"type": "node", "id": 3691760214, "lat": 40.3673667, "lon": 49.9471164}, {"type": "node", "id": 4079718604, "lat": 40.3693092, "lon": 49.945331}, {"type": "node", "id": 4079718605, "lat": 40.3694219, "lon": 49.9452108}, {"type": "node", "id": 4079718606, "lat": 40.3694631, "lon": 49.9452775}, {"type": "node", "id": 4079718607, "lat": 40.3693504, "lon": 49.9453977}, {"type": "node", "id": 13228409148, "lat": 40.3678012, "lon": 49.9462033}, {"type": "node", "id": 13228409149, "lat": 40.3685826, "lon": 49.945628}, {"type": "node", "id": 13228409150, "lat": 40.3677882, "lon": 49.9465007}, {"type": "node", "id": 13228409151, "lat": 40.3673086, "lon": 49.946998}, {"type": "node", "id": 13228409152, "lat": 40.3684565, "lon": 49.9455011}, {"type": "node", "id": 13228409153, "lat": 40.3688515, "lon": 49.9450585}, {"type": "node", "id": 13228409154, "lat": 40.3686531, "lon": 49.9457608}, {"type": "node", "id": 13228409155, "lat": 40.3691093, "lon": 49.9452816}, {"type": "node", "id": 13228409187, "lat": 40.3685978, "lon": 49.9456567}, {"type": "node", "id": 11020968489, "lat": 40.3751531, "lon": 49.9431181}, {"type": "node", "id": 11020968490, "lat": 40.3749999, "lon": 49.9429665}, {"type": "node", "id": 11020968491, "lat": 40.375241, "lon": 49.9425521}, {"type": "node", "id": 11020968492, "lat": 40.3753871, "lon": 49.942705}, {"type": "node", "id": 1946006396, "lat": 40.3753284, "lon": 49.9490275}, {"type": "node", "id": 1946006402, "lat": 40.3753493, "lon": 49.9485149}, {"type": "node", "id": 6766180367, "lat": 40.3750225, "lon": 49.9483958}, {"type": "node", "id": 6766180368, "lat": 40.3753379, "lon": 49.9484581}, {"type": "node", "id": 6766180369, "lat": 40.3751036, "lon": 49.9468701}, {"type": "node", "id": 6766180370, "lat": 40.3760148, "lon": 49.9477513}, {"type": "node", "id": 6766180371, "lat": 40.3760094, "lon": 49.9478964}, {"type": "node", "id": 6766180372, "lat": 40.3758432, "lon": 49.9478827}, {"type": "node", "id": 6766180373, "lat": 40.3757891, "lon": 49.9492938}, {"type": "node", "id": 6766180374, "lat": 40.3753127, "lon": 49.9492501}, {"type": "node", "id": 6766180375, "lat": 40.3750783, "lon": 49.9479166}, {"type": "node", "id": 9893885760, "lat": 40.375323, "lon": 49.9484383}, {"type": "node", "id": 9893885761, "lat": 40.3753451, "lon": 49.9484757}, {"type": "node", "id": 9893885762, "lat": 40.375349, "lon": 49.9484949}, {"type": "node", "id": 9893885763, "lat": 40.3753041, "lon": 49.9484259}, {"type": "node", "id": 10608918460, "lat": 40.3757113, "lon": 49.9492984}, {"type": "node", "id": 10608931705, "lat": 40.3779146, "lon": 49.9489633}, {"type": "node", "id": 10608931706, "lat": 40.3776365, "lon": 49.948962}, {"type": "node", "id": 10608931707, "lat": 40.3776361, "lon": 49.9491028}, {"type": "node", "id": 10608931708, "lat": 40.3773198, "lon": 49.9491014}, {"type": "node", "id": 10608931709, "lat": 40.3773213, "lon": 49.9485308}, {"type": "node", "id": 10608931710, "lat": 40.3779157, "lon": 49.9485335}, {"type": "node", "id": 11020950593, "lat": 40.3797352, "lon": 49.9480695}, {"type": "node", "id": 11020950594, "lat": 40.379276, "lon": 49.9480715}, {"type": "node", "id": 11020950595, "lat": 40.3792397, "lon": 49.9480862}, {"type": "node", "id": 11020950596, "lat": 40.3791728, "lon": 49.9481855}, {"type": "node", "id": 11020950597, "lat": 40.3791304, "lon": 49.9481834}, {"type": "node", "id": 11020950598, "lat": 40.3791263, "lon": 49.9480889}, {"type": "node", "id": 11020950599, "lat": 40.3791171, "lon": 49.9480413}, {"type": "node", "id": 11020950600, "lat": 40.3790839, "lon": 49.9479823}, {"type": "node", "id": 11020950601, "lat": 40.3790303, "lon": 49.9479313}, {"type": "node", "id": 11020950602, "lat": 40.3790783, "lon": 49.9474217}, {"type": "node", "id": 11020950603, "lat": 40.3797413, "lon": 49.9474646}, {"type": "node", "id": 13132427749, "lat": 40.3751644, "lon": 49.9469427}, {"type": "node", "id": 13261036540, "lat": 40.375588, "lon": 49.9492835}, {"type": "node", "id": 13261036582, "lat": 40.375033, "lon": 49.9480673}, {"type": "node", "id": 13261036583, "lat": 40.375085, "lon": 49.9480007}, {"type": "node", "id": 13261036596, "lat": 40.3753288, "lon": 49.9490168}, {"type": "node", "id": 13261036612, "lat": 40.3758368, "lon": 49.9479433}, {"type": "node", "id": 13261036664, "lat": 40.3751933, "lon": 49.9469702}, {"type": "node", "id": 13261036665, "lat": 40.3753533, "lon": 49.9471223}, {"type": "node", "id": 13261036670, "lat": 40.3751085, "lon": 49.9469204}, {"type": "node", "id": 3702498923, "lat": 40.3975393, "lon": 49.9195986}, {"type": "node", "id": 3702498924, "lat": 40.3975535, "lon": 49.9197395}, {"type": "node", "id": 3702498925, "lat": 40.3975687, "lon": 49.9198915}, {"type": "node", "id": 3702498927, "lat": 40.3976022, "lon": 49.9195882}, {"type": "node", "id": 3702498929, "lat": 40.3976328, "lon": 49.9198799}, {"type": "node", "id": 3702498932, "lat": 40.3976754, "lon": 49.9195761}, {"type": "node", "id": 3702498933, "lat": 40.3976879, "lon": 49.919711}, {"type": "node", "id": 3702498935, "lat": 40.3977023, "lon": 49.9198674}, {"type": "node", "id": 2902361480, "lat": 40.392716, "lon": 49.9255767}, {"type": "node", "id": 2902361482, "lat": 40.3927759, "lon": 49.9260693}, {"type": "node", "id": 2902361487, "lat": 40.393016, "lon": 49.9260679}, {"type": "node", "id": 2902361488, "lat": 40.3930491, "lon": 49.926358}, {"type": "node", "id": 2902361489, "lat": 40.3930892, "lon": 49.9254984}, {"type": "node", "id": 2902361490, "lat": 40.3931492, "lon": 49.9259909}, {"type": "node", "id": 2902361491, "lat": 40.3932155, "lon": 49.9260288}, {"type": "node", "id": 2902361492, "lat": 40.3932486, "lon": 49.9263188}, {"type": "node", "id": 1764817169, "lat": 40.3941813, "lon": 49.9376009}, {"type": "node", "id": 1764817171, "lat": 40.3941923, "lon": 49.9377386}, {"type": "node", "id": 1764817172, "lat": 40.3941739, "lon": 49.9371271}, {"type": "node", "id": 1764817173, "lat": 40.3944081, "lon": 49.9370832}, {"type": "node", "id": 1764817174, "lat": 40.3942222, "lon": 49.9375955}, {"type": "node", "id": 1764817175, "lat": 40.3944694, "lon": 49.9376867}, {"type": "node", "id": 2902302314, "lat": 40.3938911, "lon": 49.9344863}, {"type": "node", "id": 2902302361, "lat": 40.3946726, "lon": 49.9342366}, {"type": "node", "id": 2902302363, "lat": 40.3946856, "lon": 49.9333292}, {"type": "node", "id": 2902302370, "lat": 40.3947403, "lon": 49.9337777}, {"type": "node", "id": 2902302372, "lat": 40.394773, "lon": 49.9349593}, {"type": "node", "id": 2902302373, "lat": 40.3947736, "lon": 49.9337707}, {"type": "node", "id": 2902302377, "lat": 40.394846, "lon": 49.9350178}, {"type": "node", "id": 2902302379, "lat": 40.3948359, "lon": 49.9341908}, {"type": "node", "id": 2902302381, "lat": 40.3948719, "lon": 49.9343191}, {"type": "node", "id": 2902302384, "lat": 40.3948875, "lon": 49.9343636}, {"type": "node", "id": 2902302388, "lat": 40.3949232, "lon": 49.9344663}, {"type": "node", "id": 2902302389, "lat": 40.394926, "lon": 49.9346352}, {"type": "node", "id": 2902302390, "lat": 40.3949474, "lon": 49.9334327}, {"type": "node", "id": 2902302393, "lat": 40.3949711, "lon": 49.934604}, {"type": "node", "id": 2902302394, "lat": 40.3949818, "lon": 49.9337186}, {"type": "node", "id": 2902302397, "lat": 40.3949919, "lon": 49.9341705}, {"type": "node", "id": 2902302398, "lat": 40.3950022, "lon": 49.9342155}, {"type": "node", "id": 2902302400, "lat": 40.3950309, "lon": 49.9335624}, {"type": "node", "id": 2902302501, "lat": 40.3950291, "lon": 49.9348918}, {"type": "node", "id": 2902302505, "lat": 40.3950503, "lon": 49.9337852}, {"type": "node", "id": 2902302527, "lat": 40.3951923, "lon": 49.9332322}, {"type": "node", "id": 2902302529, "lat": 40.3952066, "lon": 49.9337757}, {"type": "node", "id": 2902302530, "lat": 40.3952007, "lon": 49.9333006}, {"type": "node", "id": 2902302531, "lat": 40.3952334, "lon": 49.9330892}, {"type": "node", "id": 2902302539, "lat": 40.3953162, "lon": 49.9343649}, {"type": "node", "id": 2902302540, "lat": 40.3953254, "lon": 49.9333014}, {"type": "node", "id": 2902302541, "lat": 40.3953225, "lon": 49.9343852}, {"type": "node", "id": 2902302543, "lat": 40.3953691, "lon": 49.9335051}, {"type": "node", "id": 2902302547, "lat": 40.3954219, "lon": 49.9346233}, {"type": "node", "id": 2902302549, "lat": 40.3954369, "lon": 49.9336468}, {"type": "node", "id": 2902302554, "lat": 40.3954858, "lon": 49.9329005}, {"type": "node", "id": 2902302562, "lat": 40.3955778, "lon": 49.9331127}, {"type": "node", "id": 2902302601, "lat": 40.3959596, "lon": 49.933959}, {"type": "node", "id": 2902302606, "lat": 40.396023, "lon": 49.934107}, {"type": "node", "id": 2902302610, "lat": 40.3961381, "lon": 49.9338242}, {"type": "node", "id": 2902302613, "lat": 40.3962041, "lon": 49.933975}, {"type": "node", "id": 2902371496, "lat": 40.3937338, "lon": 49.9331686}, {"type": "node", "id": 2902371497, "lat": 40.3937952, "lon": 49.9336541}, {"type": "node", "id": 2902371499, "lat": 40.3938454, "lon": 49.9340761}, {"type": "node", "id": 2902371500, "lat": 40.3938543, "lon": 49.9336408}, {"type": "node", "id": 2902373504, "lat": 40.3939864, "lon": 49.9331124}, {"type": "node", "id": 2902373506, "lat": 40.3940491, "lon": 49.9335975}, {"type": "node", "id": 2902373507, "lat": 40.3940745, "lon": 49.9344492}, {"type": "node", "id": 2902373509, "lat": 40.394078, "lon": 49.9340314}, {"type": "node", "id": 2902373512, "lat": 40.3941237, "lon": 49.9344416}, {"type": "node", "id": 3610406577, "lat": 40.3970818, "lon": 49.9383079}, {"type": "node", "id": 3610406583, "lat": 40.3973314, "lon": 49.9379879}, {"type": "node", "id": 3610406584, "lat": 40.3974686, "lon": 49.9380708}, {"type": "node", "id": 3610406594, "lat": 40.3977074, "lon": 49.9375253}, {"type": "node", "id": 3610406596, "lat": 40.3977895, "lon": 49.9367438}, {"type": "node", "id": 3610406597, "lat": 40.3975186, "lon": 49.9373884}, {"type": "node", "id": 3610406607, "lat": 40.3982688, "lon": 49.9362647}, {"type": "node", "id": 3610406611, "lat": 40.398296, "lon": 49.9366528}, {"type": "node", "id": 3610406612, "lat": 40.398296, "lon": 49.9368275}, {"type": "node", "id": 3610406614, "lat": 40.3983176, "lon": 49.9371328}, {"type": "node", "id": 3610406618, "lat": 40.3983775, "lon": 49.9366056}, {"type": "node", "id": 3610406619, "lat": 40.3983847, "lon": 49.9370667}, {"type": "node", "id": 3610406620, "lat": 40.3983559, "lon": 49.9360751}, {"type": "node", "id": 3610406623, "lat": 40.3984494, "lon": 49.9367834}, {"type": "node", "id": 3610406624, "lat": 40.3984866, "lon": 49.9364183}, {"type": "node", "id": 3610406631, "lat": 40.3986208, "lon": 49.9364073}, {"type": "node", "id": 3610406633, "lat": 40.3986316, "lon": 49.9372209}, {"type": "node", "id": 3610406635, "lat": 40.3987255, "lon": 49.9358304}, {"type": "node", "id": 3610406638, "lat": 40.3987323, "lon": 49.9368117}, {"type": "node", "id": 3610406640, "lat": 40.3987658, "lon": 49.9377749}, {"type": "node", "id": 3610406642, "lat": 40.398788, "lon": 49.9359976}, {"type": "node", "id": 3610406645, "lat": 40.3988138, "lon": 49.9369187}, {"type": "node", "id": 3610406655, "lat": 40.3989305, "lon": 49.9369019}, {"type": "node", "id": 4577310547, "lat": 40.3995736, "lon": 49.9326289}, {"type": "node", "id": 9779865868, "lat": 40.394788, "lon": 49.9349937}, {"type": "node", "id": 9779865869, "lat": 40.3948074, "lon": 49.9350151}, {"type": "node", "id": 9870952515, "lat": 40.3994484, "lon": 49.9329096}, {"type": "node", "id": 9871116183, "lat": 40.397277, "lon": 49.9381185}, {"type": "node", "id": 9871116184, "lat": 40.3971994, "lon": 49.9380782}, {"type": "node", "id": 9871116185, "lat": 40.3971565, "lon": 49.9384269}, {"type": "node", "id": 9871116186, "lat": 40.3981452, "lon": 49.9369839}, {"type": "node", "id": 9871116187, "lat": 40.3982105, "lon": 49.9371931}, {"type": "node", "id": 9871116235, "lat": 40.3989295, "lon": 49.9355771}, {"type": "node", "id": 9871116236, "lat": 40.3990337, "lon": 49.9358037}, {"type": "node", "id": 9870952516, "lat": 40.4001893, "lon": 49.932345}, {"type": "node", "id": 9870972117, "lat": 40.4002522, "lon": 49.93259}, {"type": "node", "id": 1832067936, "lat": 40.3891042, "lon": 49.9415948}, {"type": "node", "id": 3692266247, "lat": 40.389106, "lon": 49.9416447}, {"type": "node", "id": 3693615427, "lat": 40.3889864, "lon": 49.9427068}, {"type": "node", "id": 3693615429, "lat": 40.3890106, "lon": 49.9416981}, {"type": "node", "id": 3693615440, "lat": 40.3893141, "lon": 49.9424348}, {"type": "node", "id": 3693615441, "lat": 40.3893212, "lon": 49.9420024}, {"type": "node", "id": 3693615449, "lat": 40.3894144, "lon": 49.9419865}, {"type": "node", "id": 3693615451, "lat": 40.3894235, "lon": 49.9417042}, {"type": "node", "id": 3693615457, "lat": 40.3894629, "lon": 49.942679}, {"type": "node", "id": 3693615471, "lat": 40.3896526, "lon": 49.9424166}, {"type": "node", "id": 3693615472, "lat": 40.3896647, "lon": 49.9417845}, {"type": "node", "id": 3693615474, "lat": 40.3898927, "lon": 49.9426539}, {"type": "node", "id": 3693615475, "lat": 40.3899589, "lon": 49.9426501}, {"type": "node", "id": 3693615479, "lat": 40.3901279, "lon": 49.9426402}, {"type": "node", "id": 3693615490, "lat": 40.3902516, "lon": 49.942633}, {"type": "node", "id": 3693615492, "lat": 40.3902916, "lon": 49.9417749}, {"type": "node", "id": 3693615499, "lat": 40.3903761, "lon": 49.9418826}, {"type": "node", "id": 3693615501, "lat": 40.3904194, "lon": 49.9417591}, {"type": "node", "id": 3693615502, "lat": 40.3904332, "lon": 49.9418814}, {"type": "node", "id": 3693615508, "lat": 40.3905864, "lon": 49.9415795}, {"type": "node", "id": 3693615511, "lat": 40.3906622, "lon": 49.9415787}, {"type": "node", "id": 3693615522, "lat": 40.391017, "lon": 49.9416658}, {"type": "node", "id": 3693615523, "lat": 40.3910184, "lon": 49.9415694}, {"type": "node", "id": 1754706329, "lat": 40.3959393, "lon": 49.9422866}, {"type": "node", "id": 1754706331, "lat": 40.3964742, "lon": 49.9418933}, {"type": "node", "id": 2902268510, "lat": 40.3943518, "lon": 49.9409328}, {"type": "node", "id": 2902268512, "lat": 40.3943567, "lon": 49.9410961}, {"type": "node", "id": 2902268514, "lat": 40.3944147, "lon": 49.9410931}, {"type": "node", "id": 2902268515, "lat": 40.3944177, "lon": 49.9411942}, {"type": "node", "id": 2902268518, "lat": 40.3945195, "lon": 49.9407262}, {"type": "node", "id": 2902268519, "lat": 40.3945254, "lon": 49.9409239}, {"type": "node", "id": 2902268521, "lat": 40.3945189, "lon": 49.9412992}, {"type": "node", "id": 2902268522, "lat": 40.3945237, "lon": 49.9414433}, {"type": "node", "id": 2902268527, "lat": 40.3946339, "lon": 49.9412193}, {"type": "node", "id": 2902268528, "lat": 40.3946364, "lon": 49.9412925}, {"type": "node", "id": 2902268529, "lat": 40.3946393, "lon": 49.9414367}, {"type": "node", "id": 2902268530, "lat": 40.3946419, "lon": 49.9415151}, {"type": "node", "id": 2902268539, "lat": 40.3947383, "lon": 49.940715}, {"type": "node", "id": 2902268540, "lat": 40.3947442, "lon": 49.9409127}, {"type": "node", "id": 2902268541, "lat": 40.3947521, "lon": 49.941177}, {"type": "node", "id": 2902268544, "lat": 40.3947711, "lon": 49.9412114}, {"type": "node", "id": 2902268545, "lat": 40.3947809, "lon": 49.9415071}, {"type": "node", "id": 2902373527, "lat": 40.3947672, "lon": 49.9419034}, {"type": "node", "id": 2902373528, "lat": 40.3947679, "lon": 49.9424747}, {"type": "node", "id": 2902373533, "lat": 40.3948517, "lon": 49.9419032}, {"type": "node", "id": 2902373534, "lat": 40.3948524, "lon": 49.9424745}, {"type": "node", "id": 3303725945, "lat": 40.3958126, "lon": 49.9449721}, {"type": "node", "id": 3303727170, "lat": 40.3965238, "lon": 49.9449724}, {"type": "node", "id": 3610406578, "lat": 40.3972533, "lon": 49.9384831}, {"type": "node", "id": 3610406587, "lat": 40.3975993, "lon": 49.9385465}, {"type": "node", "id": 3693615856, "lat": 40.393625, "lon": 49.9412078}, {"type": "node", "id": 3693615857, "lat": 40.3936408, "lon": 49.9414823}, {"type": "node", "id": 3693615922, "lat": 40.3943252, "lon": 49.9411448}, {"type": "node", "id": 3693615927, "lat": 40.3944038, "lon": 49.941236}, {"type": "node", "id": 9871110315, "lat": 40.3976651, "lon": 49.9407524}, {"type": "node", "id": 9871110316, "lat": 40.3973403, "lon": 49.939878}, {"type": "node", "id": 9871116117, "lat": 40.3979062, "lon": 49.939473}, {"type": "node", "id": 9871116118, "lat": 40.3982371, "lon": 49.9403501}, {"type": "node", "id": 1754706328, "lat": 40.3994142, "lon": 49.9504389}, {"type": "node", "id": 2902373521, "lat": 40.3945586, "lon": 49.9478686}, {"type": "node", "id": 2902373522, "lat": 40.3945633, "lon": 49.9482007}, {"type": "node", "id": 2902373523, "lat": 40.3946433, "lon": 49.9480741}, {"type": "node", "id": 2902373524, "lat": 40.3946451, "lon": 49.9481987}, {"type": "node", "id": 2902373525, "lat": 40.3946866, "lon": 49.948073}, {"type": "node", "id": 2902373529, "lat": 40.3947994, "lon": 49.9480703}, {"type": "node", "id": 2902373531, "lat": 40.3948245, "lon": 49.9478621}, {"type": "node", "id": 2902373532, "lat": 40.3948275, "lon": 49.9480696}, {"type": "node", "id": 3303725948, "lat": 40.3958213, "lon": 49.9457479}, {"type": "node", "id": 3303727172, "lat": 40.3965482, "lon": 49.9455075}, {"type": "node", "id": 3303727245, "lat": 40.3992643, "lon": 49.9500967}, {"type": "node", "id": 3303744561, "lat": 40.3958174, "lon": 49.945397}, {"type": "node", "id": 3303744564, "lat": 40.396153, "lon": 49.9456382}, {"type": "node", "id": 3303744567, "lat": 40.3964462, "lon": 49.9455413}, {"type": "node", "id": 3303744568, "lat": 40.3965402, "lon": 49.9453329}, {"type": "node", "id": 12076038046, "lat": 40.3988079, "lon": 49.9475803}, {"type": "node", "id": 12076038047, "lat": 40.3987497, "lon": 49.9476486}, {"type": "node", "id": 12076038048, "lat": 40.3988574, "lon": 49.9479137}, {"type": "node", "id": 12076038049, "lat": 40.3989243, "lon": 49.9478487}, {"type": "node", "id": 1754706330, "lat": 40.3999669, "lon": 49.950051}]}