{"version": 0.6, "generator": "Overpass API 0.7.62.8 e802775f", "osm3s": {"timestamp_osm_base": "2025-11-23T07:57:29Z", "copyright": "The data included in this document is from www.openstreetmap.org. The data is made available under ODbL."}, "elements": [{"type": "node", "id": 1279154501, "lat": 40.3777251, "lon": 49.8101524, "tags": {"amenity": "cafe", "name": "Baku Roasting Company"}}, {"type": "node", "id": 1311937173, "lat": 40.381359, "lon": 49.8476717, "tags": {"tourism": "picnic_site"}}, {"type": "node", "id": 1464993558, "lat": 40.3692174, "lon": 49.8372403, "tags": {"historic": "memorial", "memorial": "memorial", "name": "Xur\u015fudbanu Nat\u0259van heyk\u0259li", "name:az": "Xur\u015fudbanu Nat\u0259van heyk\u0259li", "name:en": "Khurshudbanu Natavan memorial"}}, {"type": "node", "id": 1469182847, "lat": 40.3689816, "lon": 49.8386123, "tags": {"addr:city": "Bak\u0131", "addr:housenumber": "6A", "addr:street": "\u018fbd\u00fclk\u0259rim \u018flizad\u0259 k\u00fc\u00e7\u0259si", "amenity": "restaurant", "cuisine": "indian", "level": "1", "name": "Maharaja", "opening_hours": "Mo-Tu 11:00-01:00; We-Th 11:00-02:00; Fr-Sa-11:00-03:00; Su 11:00-02:00"}}, {"type": "node", "id": 1482504063, "lat": 40.3862702, "lon": 49.8252602, "tags": {"amenity": "restaurant", "cuisine": "italian", "name": "Scalini - Skalini"}}, {"type": "node", "id": 1760943277, "lat": 40.3551994, "lon": 49.8038621, "tags": {"addr:city": "Bak\u0131", "addr:housenumber": "1C", "addr:postcode": "1006", "addr:street": "Mikay\u0131l M\u00fc\u015ffiq k\u00fc\u00e7.", "addr:street:en": "Mikayil Mushfig Street", "brand": "Pullman", "brand:wikidata": "Q3410757", "email": "HA8J3@ACCOR.COM", "fax": "(+994)12/5389091", "internet_access": "wlan", "name": "Pullman Hotel Baku", "operator": "Accor", "phone": "+994125389090", "stars": "5", "tourism": "hotel", "website": "https://www.accorhotels.com/de/hotel-A8J3-pullman-baku/index.shtml"}}, {"type": "node", "id": 1808547606, "lat": 40.3717723, "lon": 49.8376813, "tags": {"amenity": "restaurant", "internet_access": "wlan", "name": "Dalida"}}, {"type": "node", "id": 1809771164, "lat": 40.3613967, "lon": 49.8244244, "tags": {"amenity": "atm", "brand": "ABB", "brand:wikidata": "Q4288376", "contact:email": "info@abb-bank.az", "contact:phone": "937", "contact:website": "https://abb-bank.az", "currency:AZN": "yes", "historic": "memorial", "language:az": "yes", "language:en": "yes", "name": "H\u0259zi Aslanov heyk\u0259li", "name:az": "H\u0259zi Aslanov heyk\u0259li", "name:en": "Statue of Hazi Aslanov (Baku, 1949)", "name:ru": "\u0441\u043a\u0443\u043b\u044c\u043f\u0442\u0443\u0440\u0430 \u0410\u0437\u0438 \u0410\u0441\u043b\u0430\u043d\u043e\u0432\u0430", "opening_hours": "24/7", "operator": "ABB", "operator:wikidata": "Q4288376", "wikipedia": "az:H\u0259zi Aslanovun heyk\u0259li (Bak\u0131, 1949)", "wikipedia:az": "az:H\u0259zi Aslanovun heyk\u0259li (Bak\u0131, 1949)"}}, {"type": "node", "id": 1828798157, "lat": 40.3705545, "lon": 49.8377024, "tags": {"amenity": "restaurant", "cuisine": "italian;japanese", "name": "IL Patio - Planet Sushi", "smoking": "separated"}}, {"type": "node", "id": 1845151385, "lat": 40.3738465, "lon": 49.8421954, "tags": {"historic": "memorial", "memorial": "statue", "name": "N\u0259simi heyk\u0259li", "name:en": "Nasimi Monument", "wheelchair": "yes"}}, {"type": "node", "id": 1863175575, "lat": 40.3710136, "lon": 49.8361287, "tags": {"amenity": "cafe", "name": "Palma Cafe"}}, {"type": "node", "id": 1863175576, "lat": 40.3695773, "lon": 49.835184, "tags": {"historic": "memorial", "memorial": "statue", "name": "Nizami G\u0259nc\u0259vi heyk\u0259li", "name:az": "Nizami G\u0259nc\u0259vi heyk\u0259li", "name:en": "Nizami Ganjavi monument", "name:fa": "\u0645\u062c\u0633\u0645\u0647 \u0646\u0638\u0627\u0645\u06cc \u06af\u0646\u062c\u0648\u06cc", "name:ru": "\u043f\u0430\u043c\u044f\u0442\u043d\u0438\u043a \u041d\u0438\u0437\u0430\u043c\u0438 \u0413\u044f\u043d\u0434\u0436\u044f\u0432\u0438"}}, {"type": "node", "id": 1863501026, "lat": 40.3702142, "lon": 49.8377511, "tags": {"amenity": "restaurant", "drive_in": "no", "microbrewery": "no", "name": "Piano", "smoking": "yes", "wheelchair": "no"}}, {"type": "node", "id": 1863503979, "lat": 40.3704291, "lon": 49.8357304, "tags": {"addr:city": "Bak\u0131", "addr:housenumber": "2", "addr:street": "Islam Safarli", "amenity": "cafe", "contact:email": "fontan@cafecity.az", "contact:facebook": "https://www.facebook.com/kafesiti/", "contact:instagram": "https://www.instagram.com/cafecitybaku/", "contact:phone": "+994 12 598 86 86;+994 50 598 86 86", "contact:website": "https://cafecity.az/restaurant/cafecity-fountain", "internet_access": "wlan", "name": "CafeCity Fountain", "opening_hours": "Fr-Sa 09:00-02:00; Mo-Th,Su 09:00-00:00", "smoking": "yes"}}, {"type": "node", "id": 1863509063, "lat": 40.3704856, "lon": 49.8356922, "tags": {"amenity": "cafe", "name": "Araz terrace", "smoking": "yes"}}, {"type": "node", "id": 1865708715, "lat": 40.3696557, "lon": 49.8376486, "tags": {"amenity": "restaurant", "cuisine": "european", "name": "Elephant", "opening_hours": "Mo-Su 13:00-00:00", "phone": "+994 (12) 498-87-52"}}, {"type": "node", "id": 1865940198, "lat": 40.372135, "lon": 49.838193, "tags": {"addr:housenumber": "46", "addr:street": "Nizami", "amenity": "cafe", "internet_access": "wlan", "name": "Casual Brasserie", "note": "Wifi 12345678 or brasserie or 0124988120", "phone": "+994 (12) 4988120"}}, {"type": "node", "id": 1872462828, "lat": 40.3731433, "lon": 49.8354613, "tags": {"addr:housenumber": "18", "addr:street": "Mirz\u0259 \u0130brahimov", "air_conditioning": "yes", "name": "Hotel \"Hale Kai\"", "tourism": "hotel", "wheelchair": "no"}}, {"type": "node", "id": 1872462867, "lat": 40.3735889, "lon": 49.836111, "tags": {"addr:city": "Bak\u0131", "addr:housenumber": "94", "addr:street": "\u018fl\u00f6vs\u0259t Quliyev", "internet_access": "wlan", "name": "Amsterdam Hostel", "rooms": "3", "tourism": "hostel"}}, {"type": "node", "id": 1873560526, "lat": 40.3738425, "lon": 49.8499597, "tags": {"addr:city": "Baku", "addr:housenumber": "74", "addr:postcode": "AZ1010", "addr:street": "\u00dczeyir Hac\u0131b\u0259yov", "air_conditioning": "yes", "amenity": "restaurant", "bar": "yes", "cuisine": "regional;asian;sushi;burger;pizza;chicken;international", "diet:healthy": "yes", "diet:local": "yes", "diet:organic": "yes", "name": "Rimon Kosher Restaurant", "opening_hours": "24/7", "phone": "+994553938394"}}, {"type": "node", "id": 1873560690, "lat": 40.3916391, "lon": 49.8411883, "tags": {"addr:housenumber": "97", "addr:street": "Azadl\u0131q", "amenity": "cafe", "name:ru": "\u041c\u0443\u0433\u0430\u043d\u044c"}}, {"type": "node", "id": 1874081218, "lat": 40.371145, "lon": 49.8380058, "tags": {"amenity": "restaurant", "name": "Merkez Lahmacun", "note": "Turkish cuisine"}}, {"type": "node", "id": 1875470444, "lat": 40.3724913, "lon": 49.8404432, "tags": {"amenity": "restaurant", "name": "Mado", "smoking": "yes"}}, {"type": "node", "id": 1875471945, "lat": 40.372866, "lon": 49.840544, "tags": {"amenity": "restaurant", "indoor_seating": "yes", "layer": "-1", "name:en": "White House", "note": "\u0412 \u043f\u043e\u043b\u0443\u043f\u043e\u0434\u0432\u0430\u043b\u044c\u043d\u043e\u043c \u043f\u043e\u043c\u0435\u0449\u0435\u043d\u0438\u0438", "outdoor_seating": "yes"}}, {"type": "node", "id": 1878839313, "lat": 40.3730616, "lon": 49.8436169, "tags": {"amenity": "cafe", "name": "Art"}}, {"type": "node", "id": 1888396587, "lat": 40.375906, "lon": 49.8462198, "tags": {"addr:housenumber": "14", "addr:street": "28 May", "amenity": "restaurant", "cuisine": "pizza", "name": "Kono Pizza"}}, {"type": "node", "id": 1889702966, "lat": 40.375227, "lon": 49.8403864, "tags": {"addr:city": "Bak\u0131", "addr:housenumber": "23", "addr:street": "S\u0259m\u0259d Vur\u011fun k\u00fc\u00e7\u0259si", "check_date": "2024-11-17", "fax": "+994 (12) 498-90-05", "name": "Sapphire Hotel & Restaurant", "phone": "+994 (12) 498-90-08", "rooms": "42", "rooms:business": "11", "rooms:delux": "22", "rooms:lux": "9", "stars": "5", "tourism": "hotel", "website": "https://www.sapphire.az"}}, {"type": "node", "id": 1889750062, "lat": 40.3748669, "lon": 49.8429967, "tags": {"name": "Niyazinin ev-muzeyi", "name:ru": "\u041c\u0443\u0437\u0435\u0439-\u043a\u0432\u0430\u0440\u0442\u0438\u0440\u0430 \u0438\u043c.\u041d\u0438\u044f\u0437\u0438", "tourism": "museum", "wikidata": "Q38993391", "wikimedia_commons": "Category:House-museum of Niyazi", "wikipedia": "az:Niyazinin ev-muzeyi"}}, {"type": "node", "id": 1893375801, "lat": 40.3728625, "lon": 49.834774, "tags": {"amenity": "restaurant", "cuisine": "georgian", "name": "Khachapuri House"}}, {"type": "node", "id": 1893375903, "lat": 40.3731307, "lon": 49.8347488, "tags": {"addr:city": "Baku", "addr:housenumber": "29", "addr:postcode": "AZ1005;10005", "addr:street": "\u0130slam S\u0259f\u0259rli k\u00fc\u00e7\u0259si", "email": "amadeofficiale@gmail.com", "internet_access": "wlan", "internet_access:ssid": "Amadeo 1st Floor", "name": "Amadeo Hotel & Apartments", "name:en": "Amadeo Hotel&Apartments", "name:ru": "\u0410\u043c\u0430\u0434\u0435\u043e \u041e\u0442\u0435\u043b\u044c \u0438 \u0410\u043f\u0430\u0440\u0442\u0430\u043c\u0435\u043d\u0442\u044b", "opening_hours": "24/7", "operator": "Ra & Fa", "payment:cash": "yes", "payment:credit_cards": "yes", "payment:mastercard": "yes", "payment:visa": "yes", "phone": "+994 55 221 06 35", "rooms": "4", "smoking": "outside", "stars": "0", "tourism": "hotel", "website": "http://ammarhotel.com"}}, {"type": "node", "id": 1894143033, "lat": 40.3743034, "lon": 49.8365839, "tags": {"amenity": "cafe", "cuisine": "Azeri", "name": "Kafe"}}, {"type": "node", "id": 1896641341, "lat": 40.3738356, "lon": 49.8381406, "tags": {"amenity": "cafe", "name": "Baki Geceleri", "name:ru": "\u041a\u0430\u0444\u0435 \"\u0411\u0430\u043a\u0438\u043d\u0441\u043a\u0438\u0435 \u0432\u0435\u0447\u0435\u0440\u0430\""}}, {"type": "node", "id": 1896641345, "lat": 40.3732841, "lon": 49.8381508, "tags": {"information": "office", "name": "Euro Tourism", "office": "travel_agent", "tourism": "information"}}, {"type": "node", "id": 1896641373, "lat": 40.3738008, "lon": 49.839899, "tags": {"amenity": "restaurant", "name": "Nevizade Meyhane"}}, {"type": "node", "id": 1896641378, "lat": 40.3743394, "lon": 49.8383539, "tags": {"amenity": "cafe", "name": "Niyal", "smoking": "yes", "wheelchair": "no"}}, {"type": "node", "id": 1896666813, "lat": 40.3729679, "lon": 49.8383196, "tags": {"addr:housenumber": "31", "addr:street": "R\u0259sul Rza k\u00fc\u00e7\u0259si", "amenity": "restaurant", "contact:website": "https://www.facebook.com/ImeretiGeorgianRestaurant", "name": "Imereti"}}, {"type": "node", "id": 1908775935, "lat": 40.3793256, "lon": 49.8479175, "tags": {"historic": "monument", "name": "C\u0259f\u0259r Cabbarl\u0131", "name:en": "Jafar Jabbarli", "name:ru": "\u0414\u0436\u0430\u0444\u0430\u0440 \u0414\u0436\u0430\u0431\u0431\u0430\u0440\u043b\u044b", "subject:wikidata": "Q25396001", "wikidata": "Q25396001", "wikimedia_commons": "Category:C\u0259f\u0259r Cabbarl\u0131n\u0131n heyk\u0259li (Bak\u0131)", "wikipedia": "az:C\u0259f\u0259r Cabbarl\u0131n\u0131n heyk\u0259li (Bak\u0131, C\u0259f\u0259r Cabbarl\u0131 meydan\u0131)"}}, {"type": "node", "id": 1955660772, "lat": 40.3648525, "lon": 49.8349009, "tags": {"name": "Az\u0259ri \u0130\u00e7\u0259ri \u015e\u0259h\u0259r", "tourism": "hotel"}}, {"type": "node", "id": 1975948119, "lat": 40.3958759, "lon": 49.8402276, "tags": {"amenity": "marketplace", "name": "N\u0259simi Bazar\u0131", "name:en": "Nasimi Bazar"}}, {"type": "node", "id": 1976790417, "lat": 40.3792164, "lon": 49.8407423, "tags": {"name": "Sentral Park - Central Park Hotel", "tourism": "hotel"}}, {"type": "node", "id": 1976790537, "lat": 40.3904535, "lon": 49.8366076, "tags": {"historic": "memorial", "memorial": "sculpture", "name": "Rixard Zorgenin abid\u0259si", "name:de": "Richard Sorge Denkmal", "name:en": "Monument to Richard Sorge", "name:ka": "\u10e0\u10d8\u10ee\u10d0\u10e0\u10d3 \u10d6\u10dd\u10e0\u10d2\u10d4\u10e1 \u10eb\u10d4\u10d2\u10da\u10d8", "name:pl": "Pomnik Richarda Sorge", "name:ru": "\u041f\u0430\u043c\u044f\u0442\u043d\u0438\u043a \u0420\u0438\u0445\u0430\u0440\u0434\u0443 \u0417\u043e\u0440\u0433\u0435", "wikidata": "Q21635821", "wikimedia_commons": "File:Rixard Zorgenin abid\u0259si (1).jpg", "wikipedia": "ru:\u041f\u0430\u043c\u044f\u0442\u043d\u0438\u043a \u0420\u0438\u0445\u0430\u0440\u0434\u0443 \u0417\u043e\u0440\u0433\u0435 (\u0411\u0430\u043a\u0443)"}}, {"type": "node", "id": 2007655612, "lat": 40.3732391, "lon": 49.8403561, "tags": {"amenity": "cafe", "internet_access": "wlan", "name": "Double Coffee", "smoking": "yes"}}, {"type": "node", "id": 2007655675, "lat": 40.3732439, "lon": 49.8401479, "tags": {"amenity": "restaurant", "cuisine": "pizza", "name": "Pizza Gusto", "takeaway": "yes"}}, {"type": "node", "id": 2034721614, "lat": 40.3948278, "lon": 49.8343132, "tags": {"amenity": "restaurant", "cuisine": "turkish", "name": "Tuana"}}, {"type": "node", "id": 2041604160, "lat": 40.3777942, "lon": 49.845887, "tags": {"addr:city": "Baku", "addr:street": "S\u00fcleyman R\u00fcst\u0259m", "amenity": "restaurant", "name": "MTN-nin N\u0259simi Rayon \u015e\u00f6b\u0259si", "name:en": "Interior Security Ministry;Maharani Indian Restaurant", "office": "government"}}, {"type": "node", "id": 2041604165, "lat": 40.3776186, "lon": 49.8444351, "tags": {"historic": "memorial", "name": "\u00dczeyir Hac\u0131b\u0259yovun heyk\u0259li", "name:ru": "\u041f\u0430\u043c\u044f\u0442\u043d\u0438\u043a \u0423\u0437\u0435\u0438\u0440\u0443 \u0413\u0430\u0434\u0436\u0438\u0431\u0435\u043a\u043e\u0432\u0443"}}, {"type": "node", "id": 2119771912, "lat": 40.3960126, "lon": 49.8419843, "tags": {"amenity": "restaurant", "name": "Turkruaz"}}, {"type": "node", "id": 2134527303, "lat": 40.3831538, "lon": 49.8248625, "tags": {"addr:city": "Bak\u0131", "addr:housenumber": "5d", "addr:street": "M\u0259h\u0259mm\u0259d Nax\u00e7\u0131vani k\u00fc\u00e7\u0259si", "amenity": "restaurant", "cuisine": "regional;international;kebab;seafood;steak_house", "name": "6-c\u0131 Paralel QastroPub", "opening_hours": "Mo-Su 12:00-02:00", "phone": "+994702250606"}}, {"type": "node", "id": 2291003426, "lat": 40.3684573, "lon": 49.8244544, "tags": {"historic": "memorial", "memorial": "statue", "name": "N\u0259riman N\u0259rimanov heyk\u0259li", "name:en": "Nariman Narimanov statue", "name:ru": "\u041f\u0430\u043c\u044f\u0442\u043d\u0438\u043a \u041d\u0430\u0440\u0438\u043c\u0430\u043d\u0443 \u041d\u0430\u0440\u0438\u043c\u0430\u043d\u043e\u0432\u0443"}}, {"type": "node", "id": 2293989429, "lat": 40.3734499, "lon": 49.8169106, "tags": {"historic": "memorial", "memorial": "statue", "name": "H\u00fcseyn Cavid", "name:ru": "\u0413\u0443\u0441\u0435\u0439\u043d \u0414\u0436\u0430\u0432\u0438\u0434"}}, {"type": "node", "id": 2336972253, "lat": 40.3846559, "lon": 49.8363236, "tags": {"amenity": "cafe"}}, {"type": "node", "id": 2336972259, "lat": 40.3857673, "lon": 49.8365489, "tags": {"amenity": "cafe", "name": "Arrow Terrace"}}, {"type": "node", "id": 2778881421, "lat": 40.3542129, "lon": 49.8071746, "tags": {"name": "Monolit Plaza \\ Badamdar", "tourism": "hotel"}}, {"type": "node", "id": 2778881422, "lat": 40.3567672, "lon": 49.8099421, "tags": {"amenity": "cafe", "cuisine": "local", "name": "M\u0259rasim Zal\u0131 2-ci F\u0259xri"}}, {"type": "node", "id": 2779930608, "lat": 40.3716638, "lon": 49.8364391, "tags": {"addr:city": "Bak\u0131", "addr:postcode": "AZ1005", "amenity": "place_of_worship", "denomination": "armenian_apostolic", "historic": "yes", "name": "M\u00fcq\u0259dd\u0259s Qriqori kils\u0259si", "name:en": "St. Gregory the Illuminator's Church", "name:hy": "\u054d\u0578\u0582\u0580\u0562 \u0533\u0580\u056b\u0563\u0578\u0580 \u053c\u0578\u0582\u057d\u0561\u057e\u0578\u0580\u056b\u0579 \u0565\u056f\u0565\u0572\u0565\u0581\u056b", "name:pl": "Ko\u015bci\u00f3\u0142 \u015bwi\u0119tego Grzegorza", "religion": "christian", "tourism": "attraction", "wikidata": "Q2503332", "wikimedia_commons": "Category:Armenian church of Saint Gregory the Illuminator in Baku", "wikipedia": "ru:\u0426\u0435\u0440\u043a\u043e\u0432\u044c \u0421\u0432\u044f\u0442\u043e\u0433\u043e \u0413\u0440\u0438\u0433\u043e\u0440\u0438\u044f \u041f\u0440\u043e\u0441\u0432\u0435\u0442\u0438\u0442\u0435\u043b\u044f (\u0411\u0430\u043a\u0443)"}}, {"type": "node", "id": 2914439992, "lat": 40.3717486, "lon": 49.8375674, "tags": {"addr:city": "Bak\u0131", "amenity": "cafe", "brand": "Second Cup", "brand:wikidata": "Q862180", "cuisine": "coffee_shop", "currency:XBT": "no", "internet_access": "wlan", "name": "Second Cup", "opening_hours": "09:00-22:00", "smoking": "no", "takeaway": "yes"}}, {"type": "node", "id": 3031326885, "lat": 40.3634899, "lon": 49.8312734, "tags": {"name": "Xalq T\u0259hsili Muzeyi", "name:az": "Xalq T\u0259hsili Muzeyi", "name:en": "Azerbaijan National Education Museum", "name:fa": "\u0645\u0648\u0632\u0647 \u0645\u0644\u06cc \u0622\u0645\u0648\u0632\u0634 \u0648 \u067e\u0631\u0648\u0631\u0634 \u0622\u0630\u0631\u0628\u0627\u06cc\u062c\u0627\u0646", "name:ru": "\u041c\u0443\u0437\u0435\u0439 \u043d\u0430\u0440\u043e\u0434\u043d\u043e\u0433\u043e \u043e\u0431\u0440\u0430\u0437\u043e\u0432\u0430\u043d\u0438\u044f", "tourism": "museum", "wikidata": "Q41504433", "wikipedia": "az:Xalq T\u0259hsili Muzeyi"}}, {"type": "node", "id": 3031326886, "lat": 40.3632725, "lon": 49.8318442, "tags": {"fee": "yes", "name": "Az\u0259rbaycan Milli \u0130nc\u0259s\u0259n\u0259t M\u00fczeyi", "name:az": "\u0130nc\u0259s\u0259n\u0259t Muzeyi R.Mustafayev", "name:en": "Azerbaijan National Museum of Art", "name:fa": "\u0645\u0648\u0632\u0647 \u0647\u0646\u0631 \u0631. \u0645\u0635\u0637\u0641\u06cc \u0627\u0641", "name:ru": "\u041c\u0443\u0437\u0435\u0439 \u0438\u0441\u043a\u0443\u0441\u0441\u0442\u0432 \u0420.\u041c\u0443\u0441\u0442\u0430\u0444\u0430\u0435\u0432\u0430", "tourism": "museum", "wikidata": "Q2559128", "wikimedia_commons": "Category:National Art Museum of Azerbaijan", "wikipedia": "az:Az\u0259rbaycan Milli \u0130nc\u0259s\u0259n\u0259t Muzeyi"}}, {"type": "node", "id": 3031346908, "lat": 40.3629813, "lon": 49.8301587, "tags": {"check_date": "2024-07-17", "name": "Prezident Oteli", "tourism": "hotel"}}, {"type": "node", "id": 3031346909, "lat": 40.3620106, "lon": 49.8401198, "tags": {"amenity": "restaurant", "name": "Yaxt Klub", "phone": "+994554059617", "website": "https://shadliq.az/az/baki-yaxta-klubu"}}, {"type": "node", "id": 3034051283, "lat": 40.3669689, "lon": 49.834866, "tags": {"name": "La Casa", "tourism": "guest_house"}}, {"type": "node", "id": 3034051284, "lat": 40.3672825, "lon": 49.8349723, "tags": {"check_date": "2024-11-17", "name": "Atropat Hotel", "name:ar": "\u0641\u0646\u062f\u0642 \u0627\u062a\u0631\u0648\u0628\u0627\u062a", "tourism": "hotel"}}, {"type": "node", "id": 3034051285, "lat": 40.3650444, "lon": 49.8340695, "tags": {"name": "Baku Bay House", "tourism": "hotel"}}, {"type": "node", "id": 3034051288, "lat": 40.3685271, "lon": 49.8372629, "tags": {"name": "Butik Palace", "tourism": "hotel"}}, {"type": "node", "id": 3034051289, "lat": 40.3666923, "lon": 49.8369908, "tags": {"amenity": "restaurant", "name": "Karvansara Restaurant (Buxara side)", "name:az": "Karvansara Restoran (Buxara t\u0259r\u0259fi)", "name:en": "Karvansara Restaurant (Buxara side)", "wikimedia_commons": "Category:Bukhara Caravanserai"}}, {"type": "node", "id": 3034051290, "lat": 40.3659505, "lon": 49.8341217, "tags": {"name": "King Palace", "tourism": "hotel"}}, {"type": "node", "id": 3034051291, "lat": 40.3678357, "lon": 49.8340459, "tags": {"name": "Kichik Gala Boutique Hotel", "tourism": "hotel"}}, {"type": "node", "id": 3034051292, "lat": 40.3652858, "lon": 49.8345681, "tags": {"name": "Maiden Tower 3", "tourism": "hotel"}}, {"type": "node", "id": 3034051293, "lat": 40.3656572, "lon": 49.8367287, "tags": {"amenity": "restaurant", "description": "12th Century Historic Traditional Restaurant", "name": "Mugam Club Restaurant", "name:az": "Mu\u011fam Klub Restoran", "name:en": "Mugam Club Restaurant", "opening_hours": "Mo-Su 09:00-00:00", "website": "https://www.instagram.com/mugamrestaurant/?hl=en", "wikimedia_commons": "Category:Two floory carvansarai in Baku"}}, {"type": "node", "id": 3034051294, "lat": 40.3670598, "lon": 49.8353368, "tags": {"name": "Old Bake Otel", "tourism": "hotel"}}, {"type": "node", "id": 3034051297, "lat": 40.3651604, "lon": 49.8343, "tags": {"internet_access": "wlan", "name": "Q\u0131z Qalas\u0131 Otel", "opening_hours": "24/7", "tourism": "hotel"}}, {"type": "node", "id": 3034051298, "lat": 40.3663325, "lon": 49.836644, "tags": {"historic": "archaeological_site", "name": "Q\u0259dim Bazar", "name:fa": "\u0628\u0627\u0632\u0627\u0631 \u0628\u0627\u0633\u062a\u0627\u0646\u06cc"}}, {"type": "node", "id": 3034051299, "lat": 40.3676081, "lon": 49.8366506, "tags": {"name": "\u015eirvan Otel", "tourism": "hotel"}}, {"type": "node", "id": 3034135291, "lat": 40.3687047, "lon": 49.834464, "tags": {"historic": "memorial", "memorial": "statue", "name": "Mirz\u0259 \u018fl\u0259kb\u0259r Sabir Tahirzad\u0259", "name:fa": "\u0645\u06cc\u0631\u0632\u0627 \u0627\u0644\u0627\u06a9\u0628\u0631 \u0635\u0627\u0628\u0631 \u0637\u0627\u0647\u0631\u0632\u0627\u062f\u0647"}}, {"type": "node", "id": 3034448214, "lat": 40.3668872, "lon": 49.8372898, "tags": {"amenity": "restaurant", "name": "Karavansara Restaurant (Multani side)", "name:az": "Karvansara Restoran (Multan\u0131 t\u0259r\u0259fi)", "name:en": "Karavansara Restaurant (Multani side)", "wikimedia_commons": "Category:Multani Caravanserai"}}, {"type": "node", "id": 3034495926, "lat": 40.3783534, "lon": 49.844021, "tags": {"designation": "Heyd\u0259r \u018fliyev heyk\u0259li (Heydar Aliyev monument)", "height": "5.2", "historic": "memorial", "material": "granite", "memorial": "statue", "name": "Heyd\u0259r \u018fliyev", "name:de": "Heidar Alijew", "name:en": "Heydar Aliyev", "name:fa": "\u062d\u06cc\u062f\u0631 \u0639\u0644\u06cc\u200c\u0627\u0641", "name:ja": "\u30d8\u30a4\u30c0\u30eb\u30fb\u30a2\u30ea\u30a8\u30d5", "name:ru": "\u0413\u0435\u0439\u0434\u0430\u0440 \u0410\u043b\u0438\u0435\u0432", "name:tr": "Haydar Aliyev", "source": "Baku City Administration", "subject:wikidata": "Q157451"}}, {"type": "node", "id": 3034550354, "lat": 40.3754589, "lon": 49.8319542, "tags": {"historic": "memorial", "memorial": "statue", "name": "M\u0259h\u0259mm\u0259d F\u00fczuli heyk\u0259li", "name:az": "M\u0259h\u0259mm\u0259d F\u00fczuli heyk\u0259li", "name:en": "Fuzuli statue", "name:fa": "\u0645\u062c\u0633\u0645\u0647 \u0645\u062d\u0645\u062f \u0641\u0636\u0648\u0644\u06cc", "wikidata": "Q178379", "wikimedia_commons": "Category:Fuzuli", "wikipedia": "en:Fuzuli (poet)"}}, {"type": "node", "id": 3036632817, "lat": 40.3681382, "lon": 49.8298002, "tags": {"historic": "memorial", "name": "Mirz\u0259 F\u0259t\u0259li Axundovun heyk\u0259li", "name:ru": "\u0421\u0442\u0430\u0442\u0443\u044f \u0410\u0445\u0443\u043d\u0434\u043e\u0432\u0430"}}, {"type": "node", "id": 3254778979, "lat": 40.3714435, "lon": 49.8487046, "tags": {"addr:housenumber": "1", "addr:street": "Azadl\u0131q", "amenity": "restaurant", "cuisine": "asian", "name": "Eleven Restaurant & Lounge", "opening_hours": "Mo-Su 18:00-24:00", "phone": "+994515100011", "website": "https://facebook.com/elevenbaku"}}, {"type": "node", "id": 3254788676, "lat": 40.3725138, "lon": 49.8425649, "tags": {"amenity": "restaurant", "name": "The Crown Pub & Restaurant"}}, {"type": "node", "id": 3320806262, "lat": 40.3881485, "lon": 49.811534, "tags": {"amenity": "cafe"}}, {"type": "node", "id": 3320806263, "lat": 40.3882221, "lon": 49.8125908, "tags": {"amenity": "cafe"}}, {"type": "node", "id": 3335881766, "lat": 40.3977346, "lon": 49.8361697, "tags": {"amenity": "cafe", "name": "211 Club", "source": "Unresolved note #300215 Description 211 Club Created by Denurade 26 days ago"}}, {"type": "node", "id": 3386656570, "lat": 40.3704913, "lon": 49.8377065, "tags": {"addr:housenumber": "14", "addr:street": "Nizami k\u00fc\u00e7.", "amenity": "restaurant", "cuisine": "mexican;local;regional;pizza", "diet:vegetarian": "yes", "level": "-1", "name": "Firuz\u0259", "name:en": "Firuze Restaurant", "name:ru": "\u0420\u0435\u0441\u0442\u043e\u0440\u0430\u043d \u0424\u0438\u0440\u0443\u0437\u0435", "opening_hours": "Mo-Sa 11:00-02:00; Su 11:00-00:00", "phone": "+994124939634", "smoking": "separated"}}, {"type": "node", "id": 3409506037, "lat": 40.3579347, "lon": 49.8301969, "tags": {"historic": "boundary_stone", "name": "Pirv\u0259nz\u0259ra da\u015flar\u0131"}}, {"type": "node", "id": 3409522231, "lat": 40.3632074, "lon": 49.8279411, "tags": {"name": "\u015e\u0259lal\u0259 Park\u0131", "tourism": "viewpoint"}}, {"type": "node", "id": 3409542404, "lat": 40.3786903, "lon": 49.8085812, "tags": {"name": "Heyd\u0259r \u018fliyev M\u0259kt\u0259b Muzeyi \\ Musab\u0259yov", "tourism": "museum"}}, {"type": "node", "id": 3409542405, "lat": 40.3779874, "lon": 49.8182875, "tags": {"name": "Kaspian Terras", "tourism": "hotel"}}, {"type": "node", "id": 3409542407, "lat": 40.3784389, "lon": 49.8195459, "tags": {"name": "Qafqaz Point", "tourism": "hotel"}}, {"type": "node", "id": 3423674493, "lat": 40.3665714, "lon": 49.8363453, "tags": {"addr:city": "Bak\u0131", "addr:housenumber": "3", "addr:postcode": "AZ 1095", "addr:street": "Gazi Mahammad Str.", "name": "Museum Inn Boutique Hotel", "phone": "+994124971522", "tourism": "hotel", "website": "https://www.museuminn.az/"}}, {"type": "node", "id": 3455162527, "lat": 40.3702324, "lon": 49.8390984, "tags": {"amenity": "restaurant", "cuisine": "burger", "name": "Sunset Cafe", "smoking": "isolated"}}, {"type": "node", "id": 3455168807, "lat": 40.3710007, "lon": 49.8409974, "tags": {"amenity": "restaurant", "brand": "Vapiano", "brand:wikidata": "Q506252", "cuisine": "italian", "name": "Vapiano", "smoking": "yes", "takeaway": "yes"}}, {"type": "node", "id": 3455175195, "lat": 40.3701826, "lon": 49.8324638, "tags": {"amenity": "restaurant", "cuisine": "german;steak", "name": "Pauls Baku Restoran", "smoking": "yes"}}, {"type": "node", "id": 3521471034, "lat": 40.3735904, "lon": 49.8472946, "tags": {"amenity": "restaurant", "cuisine": "japanese;pizza;burger;sushi", "designation": "Coffee shop", "name": "Sushi House Baku", "phone": "+994554690655"}}, {"type": "node", "id": 3521471820, "lat": 40.3796671, "lon": 49.8428942, "tags": {"designation": "Hotel", "name": "Diplomat Hotel", "source": "diplomathotelbaku.com", "tourism": "hotel", "website": "http://aksenthotel.az/"}}, {"type": "node", "id": 3536032500, "lat": 40.3675736, "lon": 49.8301975, "tags": {"amenity": "restaurant", "name": "London"}}, {"type": "node", "id": 3536034119, "lat": 40.3670537, "lon": 49.8276083, "tags": {"amenity": "restaurant", "name": "Paris"}}, {"type": "node", "id": 3536035874, "lat": 40.3831478, "lon": 49.8264239, "tags": {"amenity": "restaurant", "cuisine": "sushi", "name": "Sushi Home by Fereh", "wheelchair": "no"}}, {"type": "node", "id": 3536036361, "lat": 40.3841722, "lon": 49.8237131, "tags": {"addr:street": "\u0130n\u015faat\u00e7\u0131lar pr.", "amenity": "cafe", "contact:email": "five@cafecity.az", "contact:facebook": "https://www.facebook.com/kafesiti/", "contact:instagram": "https://www.instagram.com/cafecitybaku/", "contact:phone": "+994 12 436 78 25;+994 50 436 78 25", "contact:website": "https://cafecity.az/restaurant/cafecity-five", "cuisine": "mediterranean;diner;russian;pasta;oriental;beef_bowl;international", "internet_access": "wlan", "name": "CafeCity Five", "opening_hours": "Mo-Th,Su 09:00-00:00; Fr-Sa 09:00-02:00"}}, {"type": "node", "id": 3536037249, "lat": 40.3869022, "lon": 49.8291906, "tags": {"amenity": "restaurant", "cuisine": "chinese", "name": "Jasmin \u00c7in Restoran\u0131"}}, {"type": "node", "id": 3549087354, "lat": 40.3759646, "lon": 49.8311508, "tags": {"name": "Grand Hotel", "tourism": "hotel"}}, {"type": "node", "id": 3550417769, "lat": 40.3874806, "lon": 49.8378986, "tags": {"name": "Tayfa \u0259yl\u0259nc\u0259 m\u0259rk\u0259zi", "tourism": "theme_park"}}, {"type": "node", "id": 3585824793, "lat": 40.3816903, "lon": 49.8295056, "tags": {"addr:city": "Baku", "addr:housenumber": "59", "addr:postcode": "AZ1065", "addr:street": "\u0130brahim \u018fbilov k\u00fc\u00e7\u0259si", "internet_access": "wlan", "internet_access:fee": "no", "name": "Amber Otel", "stars": "5", "tourism": "hotel"}}, {"type": "node", "id": 3587325174, "lat": 40.3727937, "lon": 49.8405849, "tags": {"addr:housenumber": "58", "addr:street": "Nizami k\u00fc\u00e7\u0259si", "name": "Austin Hotel", "tourism": "guest_house", "website": "https://austin.az/"}}, {"type": "node", "id": 3587329728, "lat": 40.3863944, "lon": 49.8475536, "tags": {"name": "Avand Otel", "tourism": "guest_house"}}, {"type": "node", "id": 3587361001, "lat": 40.3709377, "lon": 49.835343, "tags": {"check_date": "2025-06-11", "name": "Azcot", "tourism": "guest_house", "website": "https://www.azcothotel.com/index.php"}}, {"type": "node", "id": 3602651943, "lat": 40.3676432, "lon": 49.8359562, "tags": {"name": "Baleva Otel", "tourism": "hotel"}}, {"type": "node", "id": 3602653731, "lat": 40.3704858, "lon": 49.8384421, "tags": {"name": "Balion Otel", "tourism": "hotel"}}, {"type": "node", "id": 3602661620, "lat": 40.3666849, "lon": 49.8354281, "tags": {"name": "B\u00f6y\u00fck Qala Otel", "tourism": "hotel"}}, {"type": "node", "id": 3602665410, "lat": 40.369376, "lon": 49.8375174, "tags": {"name": "Bristol Otel", "tourism": "hotel"}}, {"type": "node", "id": 3620067214, "lat": 40.3736353, "lon": 49.805191, "tags": {"addr:city": "Baku", "addr:street": "Abbas Mirz\u0259 \u015e\u0259rifzad\u0259", "amenity": "restaurant", "name": "Q\u0259dim Q\u0259b\u0259l\u0259"}}, {"type": "node", "id": 3648179395, "lat": 40.3604368, "lon": 49.8336616, "tags": {"historic": "monument", "name": "B\u0259hram Gur", "name:en": "Behram Gur", "wikidata": "Q12837953", "wikimedia_commons": "Category:Statue of Bahram Gur", "wikipedia": "az:B\u0259hram Gurun heyk\u0259li"}}, {"type": "node", "id": 3678139444, "lat": 40.3594368, "lon": 49.8267722, "tags": {"brand": "Fairmont", "brand:wikidata": "Q1393345", "name": "Fairmont Hotel", "tourism": "hotel"}}, {"type": "node", "id": 3678139445, "lat": 40.3687686, "lon": 49.8180598, "tags": {"amenity": "cafe", "name": "Fincan"}}, {"type": "node", "id": 3678139452, "lat": 40.3625909, "lon": 49.8214107, "tags": {"amenity": "cafe", "name": "Sultan"}}, {"type": "node", "id": 3678139454, "lat": 40.3782191, "lon": 49.8116799, "tags": {"amenity": "cafe", "name": "T\u0259rs Lal\u0259"}}, {"type": "node", "id": 3678139455, "lat": 40.3706952, "lon": 49.8220293, "tags": {"name": "Wellington Heights Hotel / Vellinqton Otel", "tourism": "hotel"}}, {"type": "node", "id": 3678139456, "lat": 40.3676572, "lon": 49.8185591, "tags": {"amenity": "cafe", "name": "X\u0131rdalan Kafesi"}}, {"type": "node", "id": 3678139463, "lat": 40.3665659, "lon": 49.8156747, "tags": {"addr:housenumber": "6", "addr:street": "Suleyman Dada\u015fov", "amenity": "cafe", "name": "1001 Gec\u0259", "name:ru": "1001 \u041d\u043e\u0447\u044c"}}, {"type": "node", "id": 3755614407, "lat": 40.361751, "lon": 49.8199905, "tags": {"historic": "memorial", "name": "HEYD\u018fR \u018fL\u0130YEV", "name:en": "Heydar Aliyev mafia boss grave", "name:ru": "\u041c\u043e\u0433\u0438\u043b\u0430 \u0413\u0435\u0439\u0434\u0430\u0440\u0430 \u0410\u043b\u0438\u0435\u0432\u0430"}}, {"type": "node", "id": 3755614408, "lat": 40.3618414, "lon": 49.8200862, "tags": {"historic": "memorial", "name": "Z\u018fR\u0130F\u018f \u018fL\u0130YEVA", "name:en": "Zarifa Aliyeva grave"}}, {"type": "node", "id": 3812557465, "lat": 40.3897304, "lon": 49.8210612, "tags": {"alt_name:az": "Rus Kils\u0259si", "amenity": "place_of_worship", "building": "church", "denomination": "russian_orthodox", "historic": "yes", "name": "M\u00fcq\u0259dd\u0259s M\u00fcrda\u015f\u0131yan Z\u0259n\u0259nl\u0259r Ba\u015fkils\u0259si", "name:ru": "\u041a\u0430\u0444\u0435\u0434\u0440\u0430\u043b\u044c\u043d\u044b\u0439 \u0421\u043e\u0431\u043e\u0440 \u0421\u0432\u044f\u0442\u044b\u0445 \u0416\u0451\u043d-\u041c\u0438\u0440\u043e\u043d\u043e\u0441\u0438\u0446", "religion": "christian", "tourism": "attraction", "wikidata": "Q2511638", "wikimedia_commons": "Category:Holy Myrrhbearers Cathedral (Baku)", "wikipedia": "en:Holy_Myrrhbearers_Cathedral"}}, {"type": "node", "id": 3926691487, "lat": 40.3927374, "lon": 49.8467297, "tags": {"historic": "memorial", "name": "D\u0259d\u0259 Qorqud park\u0131"}}, {"type": "node", "id": 4023158894, "lat": 40.3917692, "lon": 49.842515, "tags": {"historic": "memorial", "memorial": "statue", "name": "Koro\u011flu heyk\u0259li", "name:en": "Koroglu monument", "name:ru": "\u041f\u0430\u043c\u044f\u0442\u043d\u0438\u043a \u041a\u0451\u0440-\u043e\u0433\u043b\u044b", "wikidata": "Q12841045", "wikimedia_commons": "Category:Statue of Koroglu", "wikipedia": "az:Koro\u011flu heyk\u0259li (Bak\u0131)"}}, {"type": "node", "id": 4025621767, "lat": 40.3894702, "lon": 49.8367876, "tags": {"historic": "memorial", "memorial": "statue", "name": "Atat\u00fcrk heyk\u0259li", "name:en": "Ataturk monument", "name:ru": "\u041f\u0430\u043c\u044f\u0442\u043d\u0438\u043a \u0410\u0442\u0430\u0442\u044e\u0440\u043a\u0430"}}, {"type": "node", "id": 4025673414, "lat": 40.389627, "lon": 49.8423524, "tags": {"historic": "memorial", "memorial": "statue", "name": "Taras \u015eev\u00e7enkonun heyk\u0259li", "name:az": "Taras \u015eev\u00e7enkonun heyk\u0259li", "name:en": "Taras Shevchenko Memorial", "name:ru": "\u041f\u0430\u043c\u044f\u0442\u043d\u0438\u043a \u0422\u0430\u0440\u0430\u0441\u0443 \u0428\u0435\u0432\u0447\u0435\u043d\u043a\u043e", "name:uk": "\u041f\u0430\u043c'\u044f\u0442\u043d\u0438\u043a \u0422\u0430\u0440\u0430\u0441\u043e\u0432\u0456 \u0428\u0435\u0432\u0447\u0435\u043d\u043a\u0443", "wikidata": "Q12138418", "wikipedia": "az:Taras \u015eev\u00e7enkonun heyk\u0259li (Bak\u0131)"}}, {"type": "node", "id": 4100387389, "lat": 40.3727897, "lon": 49.8348973, "tags": {"addr:housenumber": "25a", "addr:street": "\u0130slam S\u0259f\u0259rli k\u00fc\u00e7\u0259si", "amenity": "cafe", "cuisine": "cake;coffee_shop", "internet_access": "wlan", "name": "Il Futuro book cafe", "name:en": "Aden", "opening_hours": "24/7"}}, {"type": "node", "id": 4102409595, "lat": 40.3839142, "lon": 49.8221709, "tags": {"addr:housenumber": "241", "addr:street": "Abdulla \u015eaiq", "amenity": "restaurant", "cuisine": "russian;kebab;international;fish_and_chips;fish;coffee_shop;bavarian;barbecue", "internet_access": "wlan", "name": "Beer Hall", "opening_hours": "Mo-Su 12:00-00:00", "phone": "0125384727 0502273010"}}, {"type": "node", "id": 4112303595, "lat": 40.3670141, "lon": 49.8376484, "tags": {"amenity": "restaurant", "name": "Qaraca \u0130sk\u0259nd\u0259r"}}, {"type": "node", "id": 4121024989, "lat": 40.3912322, "lon": 49.8145413, "tags": {"tourism": "picnic_site"}}, {"type": "node", "id": 4143917289, "lat": 40.3868128, "lon": 49.8311463, "tags": {"addr:housenumber": "98", "addr:street": "C\u0259lil M\u0259mm\u0259dquluzad\u0259", "amenity": "restaurant", "internet_access": "wlan", "name": "\u0414\u043e\u043c"}}, {"type": "node", "id": 4155951491, "lat": 40.3775213, "lon": 49.8459995, "tags": {"amenity": "restaurant", "name": "Sakura", "phone": "(012) 598 20 15"}}, {"type": "node", "id": 4161164490, "lat": 40.368593, "lon": 49.835643, "tags": {"addr:street": "Ki\u00e7ik Qala", "amenity": "cafe", "name": "Qutab house"}}, {"type": "node", "id": 4161263990, "lat": 40.3681943, "lon": 49.8356476, "tags": {"addr:street": "Mirz\u0259 \u018fl\u0259kb\u0259r Sabir", "name": "\u0426\u0438\u0433\u0435\u043b\u044c \u0426\u0438\u0433\u0435\u043b\u044c. \u0411\u0440\u0438\u043b\u043b\u0438\u0430\u043d\u0442\u043e\u0432\u0430\u044f \u0440\u0443\u043a\u0430", "tourism": "attraction"}}, {"type": "node", "id": 4161263991, "lat": 40.3686898, "lon": 49.8356592, "tags": {"addr:street": "Ki\u00e7ik Qala", "amenity": "restaurant", "check_date": "2024-10-09", "name": "Mangal"}}, {"type": "node", "id": 4161318789, "lat": 40.3640898, "lon": 49.8332689, "tags": {"addr:housenumber": "8", "addr:street": "Ki\u00e7ik Qala", "amenity": "restaurant", "check_date": "2024-10-09", "name": "\u0410\u043f\u0442\u0435\u043a\u0430. \u0411\u0440\u0438\u043b\u043b\u0438\u0430\u043d\u0442\u043e\u0432\u0430\u044f \u0440\u0443\u043a\u0430.", "tourism": "attraction"}}, {"type": "node", "id": 4161593989, "lat": 40.3685134, "lon": 49.835393, "tags": {"amenity": "restaurant", "name": "Qazmaq"}}, {"type": "node", "id": 4162641689, "lat": 40.3567525, "lon": 49.830217, "tags": {"amenity": "restaurant", "internet_access": "wlan", "name": "M\u0259nz\u0259r\u0259 Kafesi", "name:en": "Manzara Restaurant", "opening_hours": "Mo-Su 09:00-00:00"}}, {"type": "node", "id": 4162648690, "lat": 40.3656076, "lon": 49.8364884, "tags": {"addr:street": "As\u0259f Zeynall\u0131", "amenity": "restaurant", "cuisine": "local", "internet_access": "wlan", "name": "Hanimeli"}}, {"type": "node", "id": 4162728789, "lat": 40.3655228, "lon": 49.8363484, "tags": {"addr:street": "As\u0259f Zeynall\u0131", "amenity": "restaurant", "internet_access": "wlan", "name": "Rast"}}, {"type": "node", "id": 4167928291, "lat": 40.3825003, "lon": 49.8412297, "tags": {"name": "Abu Park", "tourism": "viewpoint"}}, {"type": "node", "id": 4208415992, "lat": 40.3680314, "lon": 49.8361981, "tags": {"addr:city": "Bak\u0131", "addr:housenumber": "47", "addr:postcode": "AZ1000", "addr:street": "B\u00f6y\u00fck Qala k\u00fc\u00e7\u0259si", "contact:instagram": "shahpalace_baku", "contact:phone": "+994 12 497 04 05;+994 55 201 03 22", "contact:whatsapp": "994552010322", "email": "info@shahpalace.az", "internet_access": "wlan", "internet_access:fee": "customers", "name": "Shah Palace Hotel Baku", "opening_hours": "24/7", "tourism": "hotel", "website": "https://www.shahpalacehotel.com/"}}, {"type": "node", "id": 4209639189, "lat": 40.3719629, "lon": 49.8384999, "tags": {"amenity": "restaurant", "internet_access": "wlan", "internet_access:fee": "no", "name": "Mado", "smoking": "outside"}}, {"type": "node", "id": 4214350599, "lat": 40.3883879, "lon": 49.8296361, "tags": {"addr:street": "A. Nasibov, 5", "amenity": "restaurant", "name": "Flo Tu Dar Es Salam"}}, {"type": "node", "id": 4245584790, "lat": 40.371284, "lon": 49.8333416, "tags": {"name": "Passage Hotel", "tourism": "hotel"}}, {"type": "node", "id": 4252255301, "lat": 40.3794189, "lon": 49.8337376, "tags": {"amenity": "restaurant", "cuisine": "regional", "name": "Sirvansah Muzey"}}, {"type": "node", "id": 4293144158, "lat": 40.3946697, "lon": 49.8024488, "tags": {"amenity": "cafe", "cuisine": "regional,_azerbaijanina,_turkish,_european", "internet_access": "no", "name": "Cafe Park", "smoking": "isolated"}}, {"type": "node", "id": 4303016323, "lat": 40.3754046, "lon": 49.8408384, "tags": {"amenity": "restaurant", "cuisine": "russian", "name": "Barin", "name:en": "Barin - rus m\u04d9tb\u04d9xti"}}, {"type": "node", "id": 4303019965, "lat": 40.3722525, "lon": 49.8413664, "tags": {"amenity": "cafe", "name": "\"Buta\" \u00c7ay evi"}}, {"type": "node", "id": 4303024311, "lat": 40.3722, "lon": 49.8412281, "tags": {"amenity": "cafe", "name": "\"Lik\" \u00c7ay Club"}}, {"type": "node", "id": 4303054193, "lat": 40.3722617, "lon": 49.8382955, "tags": {"name": "Sapphire Hotel", "tourism": "hotel"}}, {"type": "node", "id": 4303060091, "lat": 40.3723215, "lon": 49.8371803, "tags": {"amenity": "cafe", "name": "Cafe Plaza"}}, {"type": "node", "id": 4303093601, "lat": 40.3724721, "lon": 49.8416448, "tags": {"amenity": "cafe", "cuisine": "italian", "name": "Choco Cafe"}}, {"type": "node", "id": 4316752653, "lat": 40.3796166, "lon": 49.8078163, "tags": {"addr:postcode": "AZ1100", "addr:street": "Nazim Hikm\u0259t k\u00fc\u00e7.", "amenity": "cafe", "cuisine": "pizza;chicken;tea;turkish;friture;coffee_shop;local", "email": "office@cafepark.az", "internet_access": "wlan", "name": "Kafe Park Musab\u0259yov", "opening_hours": "Mo-Su 08:00-01:00", "phone": "+994552660907", "website": "https://www.cafepark.az/"}}, {"type": "node", "id": 4318556091, "lat": 40.3772365, "lon": 49.8433085, "tags": {"addr:street": "Dilar\u0259 \u018fliyeva", "amenity": "cafe", "internet_access": "wlan", "name": "Morug", "opening_hours": "24/7"}}, {"type": "node", "id": 4321297489, "lat": 40.3722256, "lon": 49.8449417, "tags": {"addr:housenumber": "44a", "addr:street": "\u00dczeyir Hac\u0131b\u0259yov", "amenity": "restaurant", "cuisine": "turkish", "name": "Bo\u011fazi\u00e7i Restoran"}}, {"type": "node", "id": 4328295610, "lat": 40.376747, "lon": 49.8452096, "tags": {"amenity": "restaurant", "name": "Fayton Resturant"}}, {"type": "node", "id": 4329713189, "lat": 40.3679443, "lon": 49.8382592, "tags": {"addr:housenumber": "1/4", "addr:postcode": "1010", "addr:street": "Z\u0259rif\u0259 \u018fliyeva k\u00fc\u00e7\u0259si", "air_conditioning": "yes", "amenity": "restaurant", "check_date": "2024-08-26", "cuisine": "french", "internet_access": "wlan", "name": "Paris Bistro", "name:de": "Paris Bistro", "name:en": "Paris Bistro", "opening_hours": "24/7", "operator": "www.saffron.az", "outdoor_seating": "yes", "phone": "(012) 404 82 15", "toilets": "yes", "website": "https://parisbistro.az/en/about"}}, {"type": "node", "id": 4332119789, "lat": 40.3674488, "lon": 49.8365206, "tags": {"name": "Baku Old City", "tourism": "hostel"}}, {"type": "node", "id": 4333299890, "lat": 40.3788424, "lon": 49.8473684, "tags": {"amenity": "cafe", "contact:email": "28mall@cafecity.az", "contact:facebook": "https://www.facebook.com/kafesiti/", "contact:instagram": "https://www.instagram.com/cafecitybaku/", "contact:phone": "+994 12 499 87 35;+994 50 401 28 28", "contact:website": "https://cafecity.az/restaurant/cafecity-28-mall", "name": "CafeCity", "opening_hours": "Mo-Su 10:00-00:00"}}, {"type": "node", "id": 4335470990, "lat": 40.3658603, "lon": 49.8326315, "tags": {"internet_access": "wlan", "name": "Baku hostel on Gesr", "phone": "0507777775", "tourism": "hostel"}}, {"type": "node", "id": 4335582089, "lat": 40.3757732, "lon": 49.8410947, "tags": {"addr:housenumber": "25", "addr:street": "S\u0259m\u0259d Vur\u011fun", "amenity": "restaurant", "cuisine": "steak_house", "delivery": "no", "email": "info@beat.az", "internet_access": "wlan", "level": "0", "name": "M'eat Steak House", "name:ru": "Meat Steak House", "opening_hours": "Mo-Su 12:00-00:00", "phone": "+994123101919", "takeaway": "yes", "website": "https://beat.az/"}}, {"type": "node", "id": 4340817793, "lat": 40.3911804, "lon": 49.8469988, "tags": {"amenity": "restaurant", "cuisine": "kebab;local;pizza", "internet_access": "wlan", "name": "Qosha Qala Kafe", "name:en": "DuaEt", "phone": "+994507908888", "website": "http://qoshaqala.az"}}, {"type": "node", "id": 4348216489, "lat": 40.3703386, "lon": 49.838562, "tags": {"tourism": "motel"}}, {"type": "node", "id": 4348216490, "lat": 40.3726256, "lon": 49.8355136, "tags": {"name": "NEMI Hotel", "tourism": "hotel"}}, {"type": "node", "id": 4350863453, "lat": 40.3722683, "lon": 49.8385046, "tags": {"addr:housenumber": "64", "addr:street": "Nizami k\u00fc\u00e7\u0259si", "amenity": "restaurant", "cuisine": "local;italian_pizza;burger", "internet_access": "wlan", "name": "Buona Sera", "name:en": "Buona Sera", "phone": "0124982324", "website": "https://m.facebook.com/Buona-Sera-213483482393739/"}}, {"type": "node", "id": 4352826894, "lat": 40.3791221, "lon": 49.8466476, "tags": {"addr:street": "Azadl\u0131q pr.", "amenity": "cafe", "brand": "Starbucks", "brand:wikidata": "Q37158", "brand:wikipedia": "en:Starbucks", "cuisine": "coffee_shop", "internet_access": "wlan", "name": "Starbucks", "name:ru": "\u0421\u0442\u0430\u0440\u0431\u0430\u043a\u0441 \u041a\u043e\u0444\u0435", "official_name": "Starbucks Coffee", "takeaway": "yes"}}, {"type": "node", "id": 4353668301, "lat": 40.3975644, "lon": 49.8152046, "tags": {"amenity": "restaurant", "name": "Avaz Dining and Lounge"}}, {"type": "node", "id": 4370076903, "lat": 40.3852403, "lon": 49.845151, "tags": {"name": "Ev", "tourism": "motel"}}, {"type": "node", "id": 4387273536, "lat": 40.3637041, "lon": 49.819612, "tags": {"addr:city": "Bak\u0131", "addr:housenumber": "8a", "addr:street": "Parlament prospekti", "amenity": "restaurant", "cuisine": "local;burger;regional", "name": "Nax\u00e7\u0131van Restoran\u0131", "name:az": "Nax\u00e7\u0131van Restoran\u0131", "name:en": "Nakhchivan", "name:ru": "\u041d\u0430\u0445\u0447\u0438\u0432\u0430\u043d", "opening_hours": "Mo-Su 12:00-00:00", "phone": "+994 12 310 29 29", "website": "https://beat.az/en/restaurants/nakhchivan/"}}, {"type": "node", "id": 4394144989, "lat": 40.381254, "lon": 49.8113226, "tags": {"addr:street": "Akademik Zahid X\u0259lilov k\u00fc\u00e7.", "amenity": "restaurant", "name:en": "Hayat Kebab Restaurant", "name:ru": "\u0420\u0435\u0441\u0442\u043e\u0440\u0430\u043d Hayat Kebab"}}, {"type": "node", "id": 4396623056, "lat": 40.376342, "lon": 49.8355502, "tags": {"addr:city": "Bak\u0131", "addr:street": "F\u00fczuli k\u00fc\u00e7.", "amenity": "cafe", "name": "Palid Kafe"}}, {"type": "node", "id": 4396623057, "lat": 40.3762658, "lon": 49.8367399, "tags": {"addr:city": "Bak\u0131", "addr:street": "\u015e\u0259msi B\u0259d\u0259lb\u0259yli k\u00fc\u00e7.", "amenity": "cafe", "name": "\u0130nnab Cafe Lounge"}}, {"type": "node", "id": 4396623058, "lat": 40.3771345, "lon": 49.8384826, "tags": {"addr:city": "Bak\u0131", "addr:street": "F\u00fczuli k\u00fc\u00e7.", "amenity": "cafe", "name": "Zanbaq Cafe & Restaurant", "website": "http://zanbaq.cafe/"}}, {"type": "node", "id": 4401310491, "lat": 40.3707669, "lon": 49.8395138, "tags": {"name:tr": "Sihirli Kuklalar Alemi", "opening_hours": "Mo-Su 10:00-20:00", "tourism": "museum"}}, {"type": "node", "id": 4405275389, "lat": 40.3910308, "lon": 49.8465654, "tags": {"name": "Kiray\u0259 M\u0259nzil \u0130raq", "name:ar": "\u0634\u0642\u0647 \u0644\u0644\u0627\u064a\u062c\u0627\u0631 \u0639\u0631\u0627\u0642\u064a\u0647", "tourism": "motel"}}, {"type": "node", "id": 4407680908, "lat": 40.3753072, "lon": 49.8409267, "tags": {"amenity": "cafe", "name:en": "Kafe"}}, {"type": "node", "id": 4407964189, "lat": 40.3693733, "lon": 49.8384392, "tags": {"name:en": "Bulvevard Guest House", "name:ru": "\u0411\u0443\u043b\u044c\u0432\u0430\u0440 \u0433\u043e\u0441\u0442\u0435\u0432\u043e\u0439 \u0434\u043e\u043c", "tourism": "guest_house"}}, {"type": "node", "id": 4411472902, "lat": 40.3699021, "lon": 49.8379463, "tags": {"addr:housenumber": "9", "addr:street": "T\u0259rlan \u018fliyarb\u0259yov", "email": "zaur-agayev72@mail.ru", "internet_access": "wlan", "name:en": "Apartament Fontan square", "name:ru": "Apartment Aliyarbekova 9, Fontan Square", "name:tr": "Apartman Fontanlar meydan", "operator": "Zaur", "phone": "+994502094029", "tourism": "guest_house"}}, {"type": "node", "id": 4414892699, "lat": 40.3984764, "lon": 49.8311776, "tags": {"addr:street": "H\u0259s\u0259n \u018fliyev", "name": "6 sayl\u0131 Yataqxana Tibb", "tourism": "hostel"}}, {"type": "node", "id": 4419185189, "lat": 40.3733671, "lon": 49.8411739, "tags": {"amenity": "cafe", "name:en": "Kolorit"}}, {"type": "node", "id": 4421755489, "lat": 40.375247, "lon": 49.8394939, "tags": {"amenity": "cafe", "name:en": "El viento art&crafts cafe"}}, {"type": "node", "id": 4423296191, "lat": 40.3618394, "lon": 49.8358653, "tags": {"addr:street": "Mikay\u0131l Useynov pr", "amenity": "restaurant", "name": "Ki\u00e7ik Venesiya", "name:ar": "\u0641\u064a\u0646\u064a\u0633\u064a\u0627 \u0627\u0644\u0645\u0635\u063a\u0631\u0629", "name:en": "Little Venice", "name:ru": "\u041c\u0430\u043b\u0430\u044f \u0412\u0435\u043d\u0435\u0446\u0438\u044f"}}, {"type": "node", "id": 4423341591, "lat": 40.3839751, "lon": 49.8309578, "tags": {"addr:city": "Bak\u0131", "addr:housenumber": "26", "addr:postcode": "AZ1000", "addr:state": "\u018flibaba Abdullayev", "addr:street": "Elibaba Abdullayev", "name": "Baygan hostel", "phone": "+994555400795", "tourism": "hostel"}}, {"type": "node", "id": 4423457491, "lat": 40.3733915, "lon": 49.8412367, "tags": {"amenity": "restaurant", "indoor_seating": "yes", "internet_access": "wlan", "name:en": "Kolorit", "outdoor_seating": "yes"}}, {"type": "node", "id": 4423486790, "lat": 40.3713596, "lon": 49.836067, "tags": {"amenity": "restaurant", "name:en": "Fisincan"}}, {"type": "node", "id": 4423493392, "lat": 40.3731019, "lon": 49.8413889, "tags": {"addr:housenumber": "82e", "addr:street": "Nizami k\u00fc\u00e7.", "amenity": "restaurant", "cuisine": "pizza"}}, {"type": "node", "id": 4423542596, "lat": 40.3696219, "lon": 49.8457418, "tags": {"addr:city": "Bak\u0131", "addr:housenumber": "34a", "addr:street": "Neft\u00e7il\u0259r Prospekti", "amenity": "restaurant", "name": "Pasifico", "name:en": "Pasific disco"}}, {"type": "node", "id": 4423542597, "lat": 40.3679325, "lon": 49.8420234, "tags": {"amenity": "cafe", "name:en": "Delfin Kaf\u00e9"}}, {"type": "node", "id": 4423571096, "lat": 40.3696826, "lon": 49.8458151, "tags": {"addr:city": "Bak\u0131", "addr:housenumber": "34a", "addr:street": "Neft\u00e7il\u0259r Prospekti", "amenity": "restaurant", "contact:phone": "+994 12 404 82 12", "cuisine": "pizza;burger;sandwich", "internet_access": "wlan", "name": "Zazu", "name:en": "Zazu", "phone": "+99450 285 00 23", "website": "https://www.instagram.com/zazubaku/?hl=en"}}, {"type": "node", "id": 4423571492, "lat": 40.3685181, "lon": 49.8450522, "tags": {"amenity": "cafe", "internet_access": "wlan", "name:en": "Sam Bulvar"}}, {"type": "node", "id": 4423743192, "lat": 40.3686392, "lon": 49.8354751, "tags": {"amenity": "restaurant", "name": "Sehirli Tendir", "name:en": "Sehirli Tendir"}}, {"type": "node", "id": 4423993596, "lat": 40.3852506, "lon": 49.8349677, "tags": {"amenity": "cafe", "name:en": "Tea Cups"}}, {"type": "node", "id": 4423999391, "lat": 40.3862618, "lon": 49.8458421, "tags": {"amenity": "restaurant", "cuisine": "kebab", "name:en": "Kabab House"}}, {"type": "node", "id": 4423999392, "lat": 40.3868151, "lon": 49.8458276, "tags": {"amenity": "restaurant", "cuisine": "georgian", "internet_access": "wlan", "name:en": "Batumi Cafe"}}, {"type": "node", "id": 4425354896, "lat": 40.3816375, "lon": 49.8308166, "tags": {"amenity": "restaurant", "name:en": "S\u0259bzi"}}, {"type": "node", "id": 4425427290, "lat": 40.381801, "lon": 49.8307251, "tags": {"amenity": "cafe", "name:en": "El\u015fen"}}, {"type": "node", "id": 4425427789, "lat": 40.3795404, "lon": 49.8315835, "tags": {"amenity": "restaurant", "name:en": "Mix\u0259k"}}, {"type": "node", "id": 4426405292, "lat": 40.3762335, "lon": 49.8430046, "tags": {"amenity": "restaurant", "name:en": "Pizza Lahmacun"}}, {"type": "node", "id": 4427623989, "lat": 40.3759927, "lon": 49.8325373, "tags": {"amenity": "restaurant", "name:en": "Kafe L\u0259ziz"}}, {"type": "node", "id": 4427692190, "lat": 40.3677341, "lon": 49.8338648, "tags": {"amenity": "restaurant", "name:en": "Old House"}}, {"type": "node", "id": 4427697790, "lat": 40.3598142, "lon": 49.8357821, "tags": {"addr:street": "Mikay\u0131l Useynov pr", "amenity": "restaurant", "name": "Xal\u00e7a Restoran\u0131", "name:en": "Carpet Restaurant", "opening_hours": "Mo-Fr 16:00-24:00; Sa,Su 00:00-02:00,16:00-24:00"}}, {"type": "node", "id": 4427697889, "lat": 40.3683307, "lon": 49.8350787, "tags": {"addr:housenumber": "118", "addr:street": "Ki\u00e7ik Qala", "amenity": "restaurant", "internet_access": "wlan", "name": "Cizz-Bizz", "name:en": "Royal Garden"}}, {"type": "node", "id": 4427697989, "lat": 40.3677852, "lon": 49.8338146, "tags": {"amenity": "restaurant", "name:en": "Qadimi ev"}}, {"type": "node", "id": 4427698089, "lat": 40.3663731, "lon": 49.8326143, "tags": {"addr:housenumber": "67", "fee": "no", "name": "Miniat\u00fcr kitab muzeyi", "name:en": "Museum of miniature books", "name:nl": "Miniatuurboekenmuseum", "name:ru": "\u041c\u0443\u0437\u0435\u0439 \u043c\u0438\u043d\u0438\u0430\u0442\u044e\u0440\u043d\u044b\u0445 \u043a\u043d\u0438\u0433", "opening_hours": "Tu-We, Fr-Su 11:00-17:00", "tourism": "museum", "wheelchair": "no", "wikidata": "Q2559058", "wikimedia_commons": "Category:Baku Museum of Miniature Books", "wikipedia": "en:Baku Museum of Miniature Books"}}, {"type": "node", "id": 4427698091, "lat": 40.3645836, "lon": 49.8351055, "tags": {"amenity": "cafe", "name:en": "Merci Baku"}}, {"type": "node", "id": 4427698092, "lat": 40.3643709, "lon": 49.8355075, "tags": {"amenity": "restaurant", "name:en": "Old City"}}, {"type": "node", "id": 4427917713, "lat": 40.3644515, "lon": 49.8341397, "tags": {"amenity": "restaurant", "internet_access": "wlan", "name:en": "Old Sheki"}}, {"type": "node", "id": 4427963296, "lat": 40.3500005, "lon": 49.8350683, "tags": {"amenity": "restaurant", "internet_access": "wlan", "name": "Riviera Restoran \\ Bay\u0131l"}}, {"type": "node", "id": 4427993598, "lat": 40.3970409, "lon": 49.8025182, "tags": {"addr:housenumber": "41A", "addr:postcode": "1000", "addr:street": "General H\u0259midov", "amenity": "restaurant", "cuisine": "fish;chicken;diner;kebab;seafood;tea;local", "internet_access": "wlan", "name:en": "Naringi cafe&lounge", "opening_hours": "Mo-Su 09:00-00:00", "phone": "0554040066"}}, {"type": "node", "id": 4428000195, "lat": 40.3512285, "lon": 49.848002, "tags": {"amenity": "restaurant", "internet_access": "wlan", "name": "Ruby Restoran\u0131", "name:ru": "\u041c\u0430\u044f\u043a", "opening_hours": "Mo-Su 13:00-23:30", "phone": "0776052525"}}, {"type": "node", "id": 4428001591, "lat": 40.3624169, "lon": 49.8329526, "tags": {"amenity": "cafe", "name:en": "Organic"}}, {"type": "node", "id": 4428002392, "lat": 40.3627128, "lon": 49.8330803, "tags": {"amenity": "cafe", "name:en": "Cafe Park"}}, {"type": "node", "id": 4428061589, "lat": 40.3665989, "lon": 49.8347159, "tags": {"name": "Tahir Salahovun ev muzeyi", "tourism": "museum", "wikidata": "Q30119475", "wikimedia_commons": "Category:House-museum of Tahir Salahov", "wikipedia": "az:Tahir Salahovun ev-muzeyi"}}, {"type": "node", "id": 4428659289, "lat": 40.3835334, "lon": 49.8379239, "tags": {"addr:housenumber": "107/109", "addr:street": "S\u0259m\u0259d Vur\u011fun", "amenity": "cafe", "internet_access": "wlan", "name:en": "Mood Cafe", "phone": "+994125975058"}}, {"type": "node", "id": 4434296191, "lat": 40.3844122, "lon": 49.8490073, "tags": {"name:en": "tiagrus", "name:tr": "tiagrus", "tourism": "artwork"}}, {"type": "node", "id": 4439003090, "lat": 40.3697388, "lon": 49.8370288, "tags": {"air_conditioning": "yes", "amenity": "cafe", "brand": "Starbucks", "brand:wikidata": "Q37158", "cuisine": "coffee_shop", "internet_access": "wlan", "name": "Starbucks", "name:en": "Starbucks coffee", "official_name": "Starbucks Coffee", "takeaway": "yes", "toilets": "yes"}}, {"type": "node", "id": 4439055391, "lat": 40.3676561, "lon": 49.8369011, "tags": {"amenity": "cafe", "name:en": "Old Baku teahouse"}}, {"type": "node", "id": 4439074290, "lat": 40.3695622, "lon": 49.8375543, "tags": {"addr:street": "Natavan Dongasi", "amenity": "cafe", "name:en": "Shaurmaniya", "name:ru": "\u0428\u0430\u0443\u0440\u043c\u0430\u043d\u0438\u044f"}}, {"type": "node", "id": 4439320989, "lat": 40.3694833, "lon": 49.8368547, "tags": {"amenity": "restaurant", "name": "K\u00fcnefe Kafe"}}, {"type": "node", "id": 4440388473, "lat": 40.3736958, "lon": 49.844006, "tags": {"tourism": "information"}}, {"type": "node", "id": 4440388482, "lat": 40.3655884, "lon": 49.8323056, "tags": {"name": "\u0130\u00e7\u0259ri \u015e\u0259h\u0259r Hotel", "name:en": "Icheri Sheher Hotel", "tourism": "hotel"}}, {"type": "node", "id": 4440388483, "lat": 40.3654995, "lon": 49.8324732, "tags": {"addr:housenumber": "32", "addr:postcode": "0001", "addr:street": "Boyuk Gala street", "name": "Hostel Land of Fire", "phone": "+994504500500", "tourism": "hostel"}}, {"type": "node", "id": 4445153806, "lat": 40.3658243, "lon": 49.8373374, "tags": {"amenity": "cafe", "name": "The Nest Cafe"}}, {"type": "node", "id": 4445999711, "lat": 40.3636533, "lon": 49.8196886, "tags": {"amenity": "restaurant", "name:az": "Birba\u015fa Restoran", "name:en": "BeerBasha Restaurant", "opening_hours": "Mo-Su 12:00-01:00", "website": "https://beat.az/en/restaurants/beerbasa/"}}, {"type": "node", "id": 4449726791, "lat": 40.3721218, "lon": 49.8399886, "tags": {"addr:housenumber": "3", "addr:postcode": "AZ1000", "addr:street": "Xaqani k\u00fc\u00e7.", "email": "info@centrumhostelbaku.com", "internet_access": "wlan", "name:en": "Centrum", "name:ru": "\u0426\u0435\u043d\u0442\u0440\u0443\u043c", "opening_hours": "24/7", "operator": "Ziya Mammadov", "phone": "+994503160096", "tourism": "hostel", "website": "https://www.centrumhostelbaku.com/"}}, {"type": "node", "id": 4452275415, "lat": 40.3729566, "lon": 49.8496137, "tags": {"addr:city": "Bak\u0131", "addr:housenumber": "93", "addr:street": "Z\u0259rif\u0259 \u018fliyeva k\u00fc\u00e7\u0259si", "amenity": "restaurant", "cuisine": "russian", "mobile": "+994 502 564 429", "name": "Mari Vanna Restoran\u0131", "name:az": "Mari Vanna Restoran\u0131", "opening_hours": "Mo-Fr 12:00-00:00; Sa-Su 10:00-00:00", "phone": "+994 12 404 9595", "website": "marivanna.az"}}, {"type": "node", "id": 4452302333, "lat": 40.3727987, "lon": 49.8427016, "tags": {"amenity": "cafe", "name": "Cook Zone"}}, {"type": "node", "id": 4452302341, "lat": 40.3698045, "lon": 49.8364744, "tags": {"name": "Nizami G\u0259nc\u0259vi ad\u0131na Milli Az\u0259rbaycan \u018fd\u0259biyyat\u0131 muzeyi", "name:az": "Nizami G\u0259nc\u0259vi ad\u0131na Milli Az\u0259rbaycan \u018fd\u0259biyyat\u0131 muzeyi", "name:en": "Nizami Ganjavi Museum", "name:pl": "Narodowe Muzeum Literatury", "name:ru": "\u041c\u0443\u0437\u0435\u0439 \u041d\u0438\u0437\u0430\u043c\u0438 \u0413\u044f\u043d\u0434\u0436\u0430\u0432\u0438", "tourism": "museum", "wikidata": "Q2500152", "wikimedia_commons": "Category:Nizami Museum of Azerbaijan Literature", "wikipedia": "az:Nizami G\u0259nc\u0259vi ad\u0131na Milli Az\u0259rbaycan \u018fd\u0259biyyat\u0131 Muzeyi"}}, {"type": "node", "id": 4463502190, "lat": 40.370989, "lon": 49.8400533, "tags": {"amenity": "cafe", "name:en": "Pappa Roti coffee & buns"}}, {"type": "node", "id": 4479391491, "lat": 40.3735425, "lon": 49.8489178, "tags": {"name": "Bak\u0131 Turizm M\u0259lumat M\u0259rk\u0259zi", "name:az": "Bak\u0131 Turizm M\u0259lumat M\u0259rk\u0259zi", "name:en": "Baku Tourism Information Center", "opening_hours": "Mo-Fr 09:00-18:00", "phone": "+994125985519", "tourism": "information", "website": "http://baku.azerbaijan.travel/"}}, {"type": "node", "id": 4479449792, "lat": 40.3656044, "lon": 49.832368, "tags": {"amenity": "cafe", "name": "Muse Kafe", "outdoor_seating": "yes"}}, {"type": "node", "id": 4479449793, "lat": 40.3686844, "lon": 49.8358396, "tags": {"amenity": "cafe", "name": "Buta"}}, {"type": "node", "id": 4479449795, "lat": 40.3661071, "lon": 49.8323433, "tags": {"historic": "memorial", "name": "\u018flia\u011fa Vahid", "name:en": "Aliagha Vahid", "wikidata": "Q65275518", "wikimedia_commons": "Category:Monument of Aliagha Vahid", "wikipedia": "az:\u018flia\u011fa Vahidin heyk\u0259li"}}, {"type": "node", "id": 4479476189, "lat": 40.3666115, "lon": 49.8359961, "tags": {"name:en": "Seven Rooms Boutiq Hotel", "tourism": "hotel"}}, {"type": "node", "id": 4483423793, "lat": 40.3996752, "lon": 49.8012069, "tags": {"amenity": "restaurant", "name": "Ayli gece"}}, {"type": "node", "id": 4483443289, "lat": 40.3995266, "lon": 49.8011951, "tags": {"amenity": "restaurant", "name": "K\u00fcr"}}, {"type": "node", "id": 4483539789, "lat": 40.3622749, "lon": 49.8119969, "tags": {"historic": "memorial", "inscription:ru": "\u0412\u0435\u0447\u043d\u0430\u044f \u0441\u043b\u0430\u0432\u0430 \u0433\u0435\u0440\u043e\u044f\u043c, \u043f\u0430\u0432\u0448\u0438\u043c \u0432 \u0431\u043e\u044f\u0445 \u0437\u0430 \u0441\u0432\u043e\u0431\u043e\u0434\u0443 \u0438 \u043d\u0435\u0437\u0430\u0432\u0438\u0441\u0438\u043c\u043e\u0441\u0442\u044c \u043d\u0430\u0448\u0435\u0439 \u0420\u043e\u0434\u0438\u043d\u044b."}}, {"type": "node", "id": 4483608389, "lat": 40.3549438, "lon": 49.8102851, "tags": {"amenity": "cafe", "name": "Qaya kafe"}}, {"type": "node", "id": 4484176090, "lat": 40.3514214, "lon": 49.820648, "tags": {"amenity": "restaurant", "name:en": "Flame"}}, {"type": "node", "id": 4484180191, "lat": 40.3527949, "lon": 49.8237488, "tags": {"tourism": "viewpoint"}}, {"type": "node", "id": 4486488996, "lat": 40.3569449, "lon": 49.8160169, "tags": {"historic": "memorial", "memorial": "bust", "name:ru": "\u0411\u044e\u0441\u0442 \u041a\u043e\u043c\u0430\u0440\u043e\u0432\u0430 \u0412.\u0410."}}, {"type": "node", "id": 4486488997, "lat": 40.3567953, "lon": 49.8158705, "tags": {"historic": "memorial", "name": "H.B. Zerdabi"}}, {"type": "node", "id": 4486492895, "lat": 40.3566604, "lon": 49.815866, "tags": {"historic": "memorial", "name": "A.A. Qrossheyam"}}, {"type": "node", "id": 4486492896, "lat": 40.3574386, "lon": 49.8143335, "tags": {"name:ru": "\u041f\u0440\u043e\u0432\u043e\u043b\u043e\u0447\u043d\u043e\u0435 \u0434\u0435\u0440\u0435\u0432\u043e", "tourism": "artwork"}}, {"type": "node", "id": 4486493091, "lat": 40.3569183, "lon": 49.8145538, "tags": {"name:ru": "\u0413\u043b\u043e\u0431\u0443\u0441 \u0441 \u0434\u0435\u0440\u0435\u0432\u043e\u043c", "tourism": "artwork"}}, {"type": "node", "id": 4486584689, "lat": 40.356163, "lon": 49.8135109, "tags": {"name:ru": "\u0420\u043e\u0437\u043e\u0432\u044b\u0439 \u0441\u0430\u0434", "tourism": "attraction"}}, {"type": "node", "id": 4486706494, "lat": 40.3619746, "lon": 49.8208963, "tags": {"historic": "memorial", "name": "M\u00fcsl\u00fcm Maqomayev q\u0259bri", "name:ru": "\u041c\u043e\u0433\u0438\u043b\u0430 \u041c\u0443\u0441\u043b\u0438\u043c\u0430 \u041c\u0430\u0433\u043e\u043c\u0430\u0435\u0432\u0430", "tourism": "attraction"}}, {"type": "node", "id": 4486947290, "lat": 40.3608738, "lon": 49.8220794, "tags": {"historic": "memorial", "name": "L\u0259tif K\u0259rimov", "name:ru": "\u041c\u043e\u0433\u0438\u043b\u0430 \u041b\u044f\u0442\u0438\u0444\u0430 \u041a\u0435\u0440\u0438\u043c\u043e\u0432\u0430"}}, {"type": "node", "id": 4487070146, "lat": 40.3747796, "lon": 49.84253, "tags": {"addr:city": "Baku", "addr:housenumber": "88d", "addr:street": "H\u0259zi Aslanov", "amenity": "cafe", "cuisine": "hookah_and_tea", "internet_access": "wlan", "name": "Downtown", "phone": "+994 51 349 43 10"}}, {"type": "node", "id": 4490217790, "lat": 40.3755526, "lon": 49.8139518, "tags": {"amenity": "restaurant", "name": "B\u00fcy\u00fckfirat"}}, {"type": "node", "id": 4493146495, "lat": 40.3707148, "lon": 49.8492987, "tags": {"amenity": "cafe", "name": "\u0428\u043e\u043a\u043e\u043b\u0430\u0434\u043d\u0438\u0446\u0430"}}, {"type": "node", "id": 4511135289, "lat": 40.3688281, "lon": 49.8106908, "tags": {"tourism": "guest_house"}}, {"type": "node", "id": 4517244991, "lat": 40.3883333, "lon": 49.8294004, "tags": {"amenity": "restaurant", "cuisine": "georgian", "internet_access": "wlan", "name": "Baku-Tbilisi Restoran\u0131", "opening_hours": "Mo-Su 15:00-23:00", "phone": "+994125965204"}}, {"type": "node", "id": 4518474190, "lat": 40.3787868, "lon": 49.8472794, "tags": {"amenity": "cafe", "brand": "Second Cup", "brand:wikidata": "Q862180", "cuisine": "coffee_shop", "internet_access": "wlan", "name": "Second Cup", "name:en": "Second Cup", "opening_hours": "Mo-Su 10:00-22:00", "outdoor_seating": "no", "takeaway": "yes"}}, {"type": "node", "id": 4535424492, "lat": 40.3697649, "lon": 49.8378888, "tags": {"tourism": "artwork"}}, {"type": "node", "id": 4535844613, "lat": 40.3841691, "lon": 49.8231236, "tags": {"amenity": "restaurant", "name": "Mado Restoran"}}, {"type": "node", "id": 4536321293, "lat": 40.3812862, "lon": 49.821321, "tags": {"addr:street": "\u0130n\u015faat\u00e7\u0131lar pr.", "amenity": "restaurant"}}, {"type": "node", "id": 4536324994, "lat": 40.38213, "lon": 49.8228088, "tags": {"historic": "memorial", "memorial": "bust", "name": "Mikay\u0131l M\u00fc\u015ffiq"}}, {"type": "node", "id": 4539367892, "lat": 40.3718535, "lon": 49.8352741, "tags": {"addr:housenumber": "9", "addr:street": "\u0418\u0441\u043b\u0430\u043c \u0421\u0430\u0444\u0430\u0440\u043b\u0438", "amenity": "cafe", "internet_access": "wlan", "name:en": "Gurman", "name:ru": "\u0413\u0443\u0440\u043c\u0430\u043d", "opening_hours": "Mo-Su 09:00-22:00"}}, {"type": "node", "id": 4540883889, "lat": 40.3787761, "lon": 49.8312985, "tags": {"access": "yes", "description": "Azad edilmi\u015f qad\u0131n\u0131n abid\u0259 Abid\u0259 \u015e\u0259rq qad\u0131nlar\u0131n\u0131n sosial qeyri-b\u0259rab\u0259rlikd\u0259n azad edilm\u0259sini \u0259ks etdirir. \u00c7adran\u0131 \u00f6z\u00fcnd\u0259n \u00e7\u0131xaran g\u0259nc qad\u0131n\u0131n fiquru \u015f\u0259klind\u0259 ifa edilmi\u015fdir. A\u00e7\u0131q 1960-c\u0131 ild\u0259. M\u00fc\u0259llif Heyk\u0259lt\u0259ra\u015f: F. \u0259bd\u00fcr\u0259hmanov; memar: M. Useynov.", "historic": "monument", "name": "Azad Qad\u0131n", "name:en": "Liberated Woman", "wikidata": "Q12836308", "wikimedia_commons": "Category:Statue of a Liberated Woman", "wikipedia": "az:Azad qad\u0131n (heyk\u0259l)"}}, {"type": "node", "id": 4542903191, "lat": 40.3709205, "lon": 49.810328, "tags": {"amenity": "cafe", "name": "Gentle Flowers & Wine"}}, {"type": "node", "id": 4544776297, "lat": 40.3776285, "lon": 49.8478362, "tags": {"addr:housenumber": "220", "addr:street": "Dilar\u0259 \u018fliyeva", "amenity": "cafe", "cuisine": "cake;coffee_shop;sandwich;tea;breakfast", "email": "lika@entree.az", "internet_access": "wlan", "name:en": "Entree", "opening_hours": "Mo-Su 08:00-22:00", "phone": "+994555059501"}}, {"type": "node", "id": 4546962401, "lat": 40.3766407, "lon": 49.844561, "tags": {"addr:housenumber": "206", "addr:street": "Dilar\u0259 \u018fliyeva", "amenity": "restaurant", "cuisine": "burger", "name:en": "Topkimi", "phone": "+994554930440", "website": "http://www.topkimi.az"}}, {"type": "node", "id": 4548563656, "lat": 40.3756884, "lon": 49.8410299, "tags": {"addr:housenumber": "25", "addr:street": "S\u0259m\u0259d Vur\u011fun", "amenity": "restaurant", "cuisine": "georgian", "name": "Evd\u0259", "opening_hours": "Mo-Su 12:00-23:00", "website": "https://beat.az/"}}, {"type": "node", "id": 4555582290, "lat": 40.3834484, "lon": 49.8260207, "tags": {"addr:housenumber": "15", "addr:street": "M\u0259h\u0259mm\u0259d Nax\u00e7ivani", "amenity": "restaurant", "name:en": "Xingal house", "name:ru": "\u0425\u0438\u043d\u043a\u0430\u043b\u0438 \u0445\u0430\u0443\u0441", "phone": "+994 51 330 83 86"}}, {"type": "node", "id": 4562408490, "lat": 40.384422, "lon": 49.810542, "tags": {"amenity": "restaurant", "internet_access": "wlan", "name:en": "Dar\u00e7in", "name:ru": "\u0414\u0430\u0440\u0447\u044b\u043d"}}, {"type": "node", "id": 4562417289, "lat": 40.3778876, "lon": 49.8048224, "tags": {"addr:street": "Abbas Mirz\u0259 \u015e\u0259rifzad\u0259 k\u00fc\u00e7.", "amenity": "cafe", "cuisine": "kebab;oriental;irish;local;malagasy;lao", "name:en": "Tea house, kafe and pub \"HERO\"", "name:ru": "\u0427\u0430\u0439\u0445\u0430\u043d\u0430, \u041a\u0430\u0444\u0435, \u041f\u0430\u0431 \"\u0413\u044f\u0445\u0440\u0430\u043c\u0430\u043d\"", "name:tr": "Q\u00e4xinin \u00e7ayxanasi", "opening_hours": "Mo-Su 09:00-01:00", "operator": "Hero Corporational"}}, {"type": "node", "id": 4562417689, "lat": 40.3839797, "lon": 49.8106753, "tags": {"amenity": "restaurant", "cuisine": "local", "internet_access": "wlan", "name:en": "VIP Restoran", "name:ru": "\u0420\u0435\u0441\u0442\u043e\u0440\u0430\u043d VIP"}}, {"type": "node", "id": 4562417690, "lat": 40.3860758, "lon": 49.8083473, "tags": {"addr:postcode": "AZ1000", "addr:street": "\u0417\u0430\u0440\u0434\u0430\u0431\u0438 \u0413\u0430\u0441\u0430\u043d\u0431\u0435\u043a\u0430 593/72, \u0422\u0440\u0438 \u041a\u043e\u0440\u043e\u043d\u044b", "amenity": "restaurant", "cuisine": "georgian", "internet_access": "wlan", "name": "Mziuri Restoran \\ \u00dc\u00e7 Tac", "name:ru": "\u041c\u0437\u0438\u0443\u0440\u0438", "opening_hours": "Mo-Su 11:00-23:00", "phone": "0125331900"}}, {"type": "node", "id": 4563051990, "lat": 40.3843324, "lon": 49.814033, "tags": {"amenity": "cafe"}}, {"type": "node", "id": 4563082389, "lat": 40.3838247, "lon": 49.8145194, "tags": {"amenity": "cafe", "name:en": "Chaykovskiy"}}, {"type": "node", "id": 4564208989, "lat": 40.3698213, "lon": 49.807139, "tags": {"amenity": "restaurant", "name": "Filiz Palace"}}, {"type": "node", "id": 4564521598, "lat": 40.371292, "lon": 49.8386907, "tags": {"amenity": "restaurant", "name:en": "Arabesk"}}, {"type": "node", "id": 4565733390, "lat": 40.3858454, "lon": 49.8086014, "tags": {"amenity": "cafe", "cuisine": "local", "name:en": "Qutab evi", "name:ru": "\u041a\u0443\u0442\u0430\u0431\u044b"}}, {"type": "node", "id": 4570937093, "lat": 40.3674173, "lon": 49.8222872, "tags": {"name:en": "MGP (M- Group production)", "name:ru": "MGP (M- Group production)", "tourism": "artwork"}}, {"type": "node", "id": 4577151402, "lat": 40.3914423, "lon": 49.8402859, "tags": {"amenity": "cafe", "cuisine": "regional"}}, {"type": "node", "id": 4577151403, "lat": 40.3878227, "lon": 49.8420599, "tags": {"addr:city": "Bak\u0131", "addr:street": "S\u00fcleyman R\u00fcst\u0259m k\u00fc\u00e7\u0259si", "amenity": "restaurant", "name": "\u0418\u043b\u0438\u0441\u0443, \u043f\u0438\u0432\u043e, \u043a\u0430\u0444\u0435", "name:en": "\u0130lisu kafe"}}, {"type": "node", "id": 4580266993, "lat": 40.3855941, "lon": 49.8157665, "tags": {"amenity": "cafe", "name": "H\u0259m\u015f\u0259ri Lahmacun"}}, {"type": "node", "id": 4580287293, "lat": 40.3853413, "lon": 49.8220201, "tags": {"amenity": "restaurant", "name": "Qorodok", "name:ru": "\u0413\u043e\u0440\u043e\u0434\u043e\u043a"}}, {"type": "node", "id": 4580331189, "lat": 40.3855154, "lon": 49.8221242, "tags": {"amenity": "restaurant", "name": "Pencere", "name:en": "Pencere"}}, {"type": "node", "id": 4580594292, "lat": 40.38971, "lon": 49.8467393, "tags": {"addr:housenumber": "761", "addr:street": "C\u0259yhunb\u0259y Hac\u0131b\u0259yli", "amenity": "restaurant", "cuisine": "turkish", "internet_access": "wlan", "name": "\u0130stanbul Meyhane", "name:en": "Istanbul Meyhane", "name:tr": "\u0130stanbul Meyhane", "opening_hours": "Mo-Su 10:00-01:00", "phone": "+994554550525"}}, {"type": "node", "id": 4584957698, "lat": 40.3857155, "lon": 49.8125018, "tags": {"amenity": "restaurant", "name:en": "Araz"}}, {"type": "node", "id": 4586562589, "lat": 40.37983, "lon": 49.84552, "tags": {"amenity": "cafe", "name:en": "Pityhana", "name:ru": "\u041f\u0438\u0442\u0438\u0445\u0430\u043d\u0430"}}, {"type": "node", "id": 4609905891, "lat": 40.3753447, "lon": 49.8122121, "tags": {"amenity": "cafe", "name": "\u015eeraton kafe", "name:en": "Sheraton kafe", "takeaway": "yes"}}, {"type": "node", "id": 4612422000, "lat": 40.3758963, "lon": 49.8431166, "tags": {"addr:housenumber": "36B", "addr:street": "B\u00fclb\u00fcl", "amenity": "restaurant", "cuisine": "turkish", "internet_access": "wlan", "name": "\u018fjdaha d\u00f6n\u0259r. B\u00fclbul"}}, {"type": "node", "id": 4618962458, "lat": 40.3693478, "lon": 49.8400713, "tags": {"addr:city": "Bak\u0131", "addr:housenumber": "4", "addr:street": "Zeynalabdin Ta\u011f\u0131yev k\u00fc\u00e7\u0259si", "name": "Milli Az\u0259rbaycan Tarixi Muzeyi", "name:en": "The National History Museum of Azerbaijan", "name:pl": "Muzeum Historii Azerbejd\u017canu", "name:ru": "\u041d\u0430\u0446\u0438\u043e\u043d\u0430\u043b\u044c\u043d\u044b\u0439 \u043c\u0443\u0437\u0435\u0439 \u0438\u0441\u0442\u043e\u0440\u0438\u0438 \u0410\u0437\u0435\u0440\u0431\u0430\u0439\u0434\u0436\u0430\u043d\u0430", "opening_hours": "Tu-Su 10:00-17:00", "phone": "+994124932387", "tourism": "museum", "website": "https://azhistorymuseum.gov.az/", "wikidata": "Q2664428", "wikimedia_commons": "Category:National Museum of History of Azerbaijan", "wikipedia": "en:National Museum of History of Azerbaijan"}}, {"type": "node", "id": 4618962459, "lat": 40.3694389, "lon": 49.8399693, "tags": {"addr:housenumber": "4", "addr:street": "Zeynalabdin Ta\u011f\u0131yev k\u00fc\u00e7\u0259si", "name": "Hac\u0131 Zeynal Abdin Ta\u011f\u0131yevin ev muzeyi", "name:az": "Hac\u0131 Zeynal Abdin Ta\u011f\u0131yevin ev muzeyi", "name:en": "Memorial House-Museum of Haji Zeynalabdin Taghiyev", "name:ru": "\u0414\u043e\u043c \u043c\u0443\u0437\u0435\u0439 \u0413\u0430\u0434\u0436\u0438 \u0417\u0435\u0439\u043d\u0430\u043b\u0430\u0431\u0434\u0438\u043d \u0422\u0430\u0433\u0438\u0435\u0432\u0430", "opening_hours": "Mo-Sa 11:00-18:00", "phone": "+994124932387", "tourism": "museum", "website": "http://www.azhistorymuseum.az"}}, {"type": "node", "id": 4623181689, "lat": 40.3833509, "lon": 49.8259065, "tags": {"addr:street": "Murtuza Muxtarov", "amenity": "restaurant", "internet_access": "wlan", "name:en": "40 D\u0259r\u0259c\u0259", "name:ru": "40 D\u0259r\u0259c\u0259"}}, {"type": "node", "id": 4629196997, "lat": 40.3696829, "lon": 49.845642, "tags": {"addr:city": "Bak\u0131", "addr:housenumber": "34a", "addr:street": "Neft\u00e7il\u0259r Prospekti", "amenity": "restaurant", "contact:phone": "+994 50 285 0022", "cuisine": "local", "level": "1", "name": "Sahil Bar & Restaurant", "source": "survey", "website": "https://www.sahilbaku.az/"}}, {"type": "node", "id": 4639476389, "lat": 40.3756338, "lon": 49.8442512, "tags": {"historic": "memorial", "name:tr": "Qara qarayev"}}, {"type": "node", "id": 4645815291, "lat": 40.3888646, "lon": 49.8402244, "tags": {"addr:postcode": "AZ1000", "addr:street": "N\u0259c\u0259f b\u0259y V\u0259zirov", "amenity": "cafe", "cuisine": "tea;international", "internet_access": "wlan", "name:en": "East Lounge", "name:fa": "East Lounge", "name:ru": "East Lounge", "name:tr": "East Lounge", "opening_hours": "Mo-Su 12:00-00:00", "operator": "Mr. Gafarli", "phone": "+994556684866", "website": "https://www.fb.com/eastloungebaku"}}, {"type": "node", "id": 4672021890, "lat": 40.3664082, "lon": 49.8364863, "tags": {"amenity": "cafe", "internet_access": "wlan", "name": "\u00c7ay Ba\u011f\u0131"}}, {"type": "node", "id": 4679529790, "lat": 40.3839799, "lon": 49.8127478, "tags": {"amenity": "cafe"}}, {"type": "node", "id": 4682084593, "lat": 40.3824977, "lon": 49.8199084, "tags": {"amenity": "cafe", "name:en": "Cafe 503"}}, {"type": "node", "id": 4686324295, "lat": 40.3724309, "lon": 49.8207185, "tags": {"name:en": "911 azerin evi", "tourism": "artwork"}}, {"type": "node", "id": 4686324298, "lat": 40.3673642, "lon": 49.8244076, "tags": {"name:en": "911 aromeks", "tourism": "artwork"}}, {"type": "node", "id": 4686327290, "lat": 40.3737652, "lon": 49.8346311, "tags": {"amenity": "cafe", "name:en": "90-lar kafe"}}, {"type": "node", "id": 4690489492, "lat": 40.3733627, "lon": 49.8400999, "tags": {"addr:housenumber": "7", "addr:street": "Qoqol k\u00fc\u00e7.", "amenity": "cafe", "cuisine": "turkish", "email": "simit.sarayi.baku@gmail.com", "internet_access": "wlan", "name:en": "Simit Sarayi", "name:ru": "\u0421\u0438\u043c\u0438\u0442 \u0421\u0430\u0440\u0430\u0438", "name:tr": "Simit Sarayi", "opening_hours": "Mo-Su 08:00-00:00", "operator": "Simit Sarai", "phone": "+994502873636", "website": "http://www.simitsarayi.az"}}, {"type": "node", "id": 4690587791, "lat": 40.363939, "lon": 49.8339628, "tags": {"amenity": "restaurant", "name": "T\u0259ndir Restoran"}}, {"type": "node", "id": 4690624090, "lat": 40.3711434, "lon": 49.8387899, "tags": {"addr:housenumber": "23b", "addr:street": "Yusif M\u0259mm\u0259d\u0259liyev k\u00fc\u00e7\u0259si", "amenity": "cafe", "contact:instagram": "ormadokaffeehausbaku", "cuisine": "coffee_shop;tea", "internet_access": "wlan", "internet_access:fee": "customers", "name": "Ormado Kaffeehaus Baku", "name:en": "Ormado", "website": "ormado.de"}}, {"type": "node", "id": 4690625789, "lat": 40.3685094, "lon": 49.8351393, "tags": {"amenity": "cafe", "name:en": "Qala Divari"}}, {"type": "node", "id": 4692446892, "lat": 40.3809732, "lon": 49.8474555, "tags": {"access": "yes", "historic": "monument", "material": "granite", "name": "Nikola Tesla", "name:en": "Nikola Tesla", "name:ru": "\u041d\u0438\u043a\u043e\u043b\u0430 \u0422\u0435\u0441\u043b\u0430", "name:sr": "\u041d\u0438\u043a\u043e\u043b\u0430 \u0422\u0435\u0441\u043b\u0430", "subject:wikidata": "Q9036", "wikidata": "Q16271045", "wikimedia_commons": "Category:Monument to Nikola Tesla (Baku)", "wikipedia": "az:Nikola Teslan\u0131n heyk\u0259li (Bak\u0131)"}}, {"type": "node", "id": 4692451990, "lat": 40.3746662, "lon": 49.8467174, "tags": {"historic": "memorial", "material": "granite", "memorial": "statue", "name": "R\u0259\u015fid Behbudov", "name:az": "R\u0259\u015fid Behbudov", "name:en": "Rashid Behbudov"}}, {"type": "node", "id": 4695487769, "lat": 40.3576567, "lon": 49.830319, "tags": {"description": "views of the Caspian Sea, the buildings of Baku and  a beautiful view of the Caspian Sea can be seen from the top of the hill.", "direction": "270-180", "name": "Bak\u0131 panorama", "name:az": "Bak\u0131 panorama", "name:en": "Panorama of Baku", "tourism": "viewpoint", "wikimedia_commons": "File:Panorama_of_Baku_2022.jpg"}}, {"type": "node", "id": 4714655391, "lat": 40.380578, "lon": 49.8044239, "tags": {"amenity": "cafe", "name:en": "Doner"}}, {"type": "node", "id": 4714655692, "lat": 40.3866725, "lon": 49.8126419, "tags": {"amenity": "cafe"}}, {"type": "node", "id": 4714657789, "lat": 40.3846919, "lon": 49.8039208, "tags": {"amenity": "cafe", "cuisine": "local"}}, {"type": "node", "id": 4715274894, "lat": 40.3735157, "lon": 49.802496, "tags": {"addr:street": "X\u0131d\u0131r Mustafayev", "name:en": "Az\u0259rbaycan D\u00f6vl\u0259t Memarl\u0131q v\u0259 \u0130n\u015faat Universitetinin yataqxanas\u0131", "tourism": "hostel"}}, {"type": "node", "id": 4715288890, "lat": 40.3730535, "lon": 49.8024185, "tags": {"name:en": "SABAH yataqxanas\u0131", "tourism": "hostel"}}, {"type": "node", "id": 4717753289, "lat": 40.3972379, "lon": 49.8202863, "tags": {"tourism": "guest_house"}}, {"type": "node", "id": 4720927490, "lat": 40.3685653, "lon": 49.8440045, "tags": {"addr:city": "Bak\u0131", "addr:street": "Neft\u00e7il\u0259r prospekti", "height": "75", "man_made": "tower", "name": "Para\u015f\u00fct Q\u00fcll\u0259si", "name:az": "Para\u015f\u00fct Q\u00fcll\u0259si", "name:en": "Parachute tower", "name:ru": "\u041f\u0430\u0440\u0430\u0448\u044e\u0442\u043d\u0430\u044f \u0432\u044b\u0448\u043a\u0430", "opening_hours": "24/7", "tourism": "attraction", "tower:type": "parachute_tower", "wikidata": "Q4345043", "wikimedia_commons": "Category:Baku Parachute Tower", "wikipedia": "ru:\u041f\u0430\u0440\u0430\u0448\u044e\u0442\u043d\u0430\u044f \u0432\u044b\u0448\u043a\u0430 \u0432 \u0411\u0430\u043a\u0443"}}, {"type": "node", "id": 4723375792, "lat": 40.366274, "lon": 49.8378377, "tags": {"addr:housenumber": "103", "addr:street": "Neft\u00e7il\u0259r prospekti", "building": "architecture", "historic": "building", "name": "Hac\u0131nskinin Evi", "name:az": "Hac\u0131nskinin Evi", "name:en": "Hajinski Home", "name:ru": "\u0414\u043e\u043c \u0413\u0430\u0434\u0436\u0438\u043d\u0441\u043a\u043e\u0433\u043e", "tourism": "historic_house", "wikidata": "Q41692531", "wikimedia_commons": "Category:House of Hajinsky", "wikipedia": "en:Isa bek Hajinski House", "wikipedia:az": "az:\u0130sa_b\u0259y_Hac\u0131nskinin_evi_(\u0130\u00e7\u0259ri\u015f\u0259h\u0259r)", "wikipedia:en": "en:Isa_bek_Hajinski_House"}}, {"type": "node", "id": 4754018723, "lat": 40.3937254, "lon": 49.8062038, "tags": {"name:en": "911 zerdabi 87men 90", "tourism": "attraction"}}, {"type": "node", "id": 4754018724, "lat": 40.3837222, "lon": 49.806739, "tags": {"name:en": "911 m.seyidov men 19", "tourism": "attraction"}}, {"type": "node", "id": 4756765526, "lat": 40.3812119, "lon": 49.8448239, "tags": {"amenity": "restaurant", "name:en": "50 Qepik", "name:tr": "50 qepik"}}, {"type": "node", "id": 4759378049, "lat": 40.3693099, "lon": 49.8374721, "tags": {"amenity": "restaurant"}}, {"type": "node", "id": 4770739553, "lat": 40.3701941, "lon": 49.838084, "tags": {"name": "City Center Hotel", "tourism": "hotel"}}, {"type": "node", "id": 4782725522, "lat": 40.3814879, "lon": 49.8408522, "tags": {"addr:housenumber": "63", "addr:street": "B\u00fclb\u00fcl prospekti", "name": "Lal\u04d9 Apartman \\ Bak\u0131", "tourism": "guest_house"}}, {"type": "node", "id": 4782860621, "lat": 40.3792716, "lon": 49.8396635, "tags": {"information": "office", "name": "Luks travel", "tourism": "information"}}, {"type": "node", "id": 4786465243, "lat": 40.372916, "lon": 49.8396613, "tags": {"addr:housenumber": "78", "addr:street": "Nizami k\u00fc\u00e7\u0259si", "description": "stairs to the right, apartment at the other end of the open terrace", "description:payment": "AZN50", "internet_access": "wlan", "name": "Baku City Center Guest House", "tourism": "guest_house"}}, {"type": "node", "id": 4787718942, "lat": 40.399323, "lon": 49.8421015, "tags": {"amenity": "restaurant", "name": "Qab\u0131r\u011fa Kabab", "name:ru": "\u0428\u0430\u0448\u043b\u044b\u0447\u043d\u0430\u044f. \u041e\u0447\u0435\u043d\u044c \u0432\u043a\u0443\u0441\u043d\u043e."}}, {"type": "node", "id": 4789388725, "lat": 40.3908025, "lon": 49.837837, "tags": {"addr:street": "Vaqif prospekti", "amenity": "cafe", "cuisine": "coffee_shop;tea", "name": "Tea Station", "name:az": "Tea Station", "name:en": "Tea Station", "name:ru": "Tea Station", "opening_hours": "11:00-02:00", "outdoor_seating": "yes", "payment:cash": "yes", "payment:mastercard": "yes", "payment:visa": "yes", "phone": "+994503938060"}}, {"type": "node", "id": 4789393525, "lat": 40.3956381, "lon": 49.8418556, "tags": {"amenity": "cafe"}}, {"type": "node", "id": 4791522124, "lat": 40.3767044, "lon": 49.8419365, "tags": {"amenity": "cafe", "name:en": "espressamente illy"}}, {"type": "node", "id": 4791817152, "lat": 40.370134, "lon": 49.8358141, "tags": {"addr:housenumber": "2", "addr:street": "Az\u0259rbaycan prospekti", "amenity": "restaurant", "brand": "Pizza Hut", "brand:wikidata": "Q191615", "cuisine": "pizza", "internet_access": "wlan", "name": "Pizza Hut", "name:en": "Pizza Hut", "opening_hours": "Mo-Su 09:00-23:00", "website": "http://www.pizzahut.az"}}, {"type": "node", "id": 4792445022, "lat": 40.3742169, "lon": 49.83681, "tags": {"name:en": "Art Vitrage Studio", "name:fr": "Art Vitrail Studio", "name:ru": "\u0410\u0440\u0442 \u0412\u0438\u0442\u0440\u0430\u0436 \u0421\u0442\u0443\u0434\u0438\u043e", "tourism": "artwork"}}, {"type": "node", "id": 4795688322, "lat": 40.3949068, "lon": 49.8423659, "tags": {"addr:street": "Mir\u0259li Qa\u015fqay", "amenity": "cafe", "name:en": "Parviz kafe"}}, {"type": "node", "id": 4795724521, "lat": 40.3968843, "lon": 49.8414691, "tags": {"addr:street": "Mir\u0259li Qa\u015fqay", "amenity": "restaurant", "name:en": "ovqat", "name:ru": "\u043e\u0432\u0433\u0430\u0442"}}, {"type": "node", "id": 4795724621, "lat": 40.3942097, "lon": 49.8424429, "tags": {"addr:street": "Mir\u0259li Qa\u015fqay", "amenity": "restaurant", "name:en": "zogal", "name:ru": "zogal"}}, {"type": "node", "id": 4796611226, "lat": 40.377822, "lon": 49.8312652, "tags": {"amenity": "restaurant", "name:en": "Respect Lounge"}}, {"type": "node", "id": 4798438021, "lat": 40.3954437, "lon": 49.8398639, "tags": {"addr:street": "Akademik Mir\u0259s\u0259dulla Mirqas\u0131mov k\u00fc\u00e7\u0259si", "amenity": "restaurant", "check_date": "2023-07-05", "name": "Manqal D\u00f6n\u0259r", "name:az": "Manqal D\u00f6n\u04d9r", "name:en": "Mangal Doner"}}, {"type": "node", "id": 4799886828, "lat": 40.3689964, "lon": 49.8385198, "tags": {"amenity": "restaurant", "check_date": "2023-07-22", "name": "\u018fri\u015ft\u0259", "name:en": "Arishta", "name:ru": "\u0410\u0440\u0438\u0448\u0442\u0430"}}, {"type": "node", "id": 4803011221, "lat": 40.3795123, "lon": 49.8440345, "tags": {"addr:housenumber": "25", "addr:street": "R\u0259\u015fid Behbudov k\u00fc\u00e7\u0259si", "amenity": "restaurant", "name:en": "KababIstan", "opening_hours": "Mo-Su 09:00-23:00", "phone": "0125958407"}}, {"type": "node", "id": 4820560721, "lat": 40.3734962, "lon": 49.8473501, "tags": {"amenity": "restaurant", "name": "Saperavi G\u00fcrc\u00fc M\u0259tb\u0259xi", "name:az": "Saperavi G\u00fcrc\u00fc M\u0259tb\u0259xi", "name:en": "Saperavi Georgian cuisine"}}, {"type": "node", "id": 4827120023, "lat": 40.3687649, "lon": 49.836296, "tags": {"historic": "castle", "name": "Qo\u015fa Qala (Gates)", "name:az": "Qo\u015fa Qala", "name:de": "Doppeltor", "name:en": "Gosha Gala Gates / Double Gates", "name:es": "Puerta doble", "name:ru": "\u041f\u0430\u0440\u043d\u044b\u0435 \u041a\u0440\u0435\u043f\u043e\u0441\u0442\u043d\u044b\u0435 \u0412\u043e\u0440\u043e\u0442\u0430", "tourism": "attraction", "wikidata": "Q30694329", "wikimedia_commons": "Category:Shamakhy Gate of Baku Fortress", "wikipedia": "az:Qo\u015fa qala qap\u0131lar\u0131", "wikipedia:az": "az:Qo\u015fa qala qap\u0131lar\u0131", "wikipedia:en": "en:Paired Fortress Gates"}}, {"type": "node", "id": 4837607921, "lat": 40.3846509, "lon": 49.8349208, "tags": {"addr:city": "Bak\u0131", "addr:street": "Abay dongesi", "amenity": "restaurant", "cuisine": "barbecue;beef_bowl;burger;chicken;fine_dining;fish;friture", "diet:vegetarian": "yes", "name:en": "Lunch Chef Baku", "name:ru": "\u041b\u0430\u043d\u0446 \u0428\u0435\u0444 \u0411\u0430\u043a\u0443", "name:tr": "Lunch Chef Bak\u00fc", "opening_hours": "Mo-Sa 09:00-18:00", "phone": "+994 12 480 11 68"}}, {"type": "node", "id": 4839668616, "lat": 40.377104, "lon": 49.8449878, "tags": {"addr:housenumber": "41", "addr:street": "R\u0259\u015fid Behbudov k\u00fc\u00e7\u0259si", "amenity": "restaurant", "name": "\u015eur Musiqi Klubu", "name:az": "\u015eur Musiqi Klubu"}}, {"type": "node", "id": 4839694023, "lat": 40.3792921, "lon": 49.8440469, "tags": {"amenity": "restaurant", "name:en": "Ramzes"}}, {"type": "node", "id": 4843511321, "lat": 40.3907604, "lon": 49.8438189, "tags": {"addr:housenumber": "61", "addr:street": "Mir\u0259li Qa\u015fqay k\u00fc\u00e7\u0259si", "air_conditioning": "yes", "amenity": "restaurant", "branch": "Drujba", "branch:en": "Druzhba", "contact:instagram": "soloha_baku", "cuisine": "ukrainian", "internet_access": "wlan", "name": "Soloha", "opening_hours": "Mo-Su 12:00-23:00", "payment:cash": "yes", "payment:mastercard": "yes", "payment:visa": "yes", "toilets": "yes", "website": "https://linktr.ee/soloha"}}, {"type": "node", "id": 4853095421, "lat": 40.3911947, "lon": 49.8494635, "tags": {"amenity": "cafe", "name": "Amazon kafe"}}, {"type": "node", "id": 4869228322, "lat": 40.3985315, "lon": 49.8422697, "tags": {"name": "Fidem office", "tourism": "viewpoint"}}, {"type": "node", "id": 4920292521, "lat": 40.3719532, "lon": 49.8390248, "tags": {"addr:city": "Bak\u0131", "addr:housenumber": "26G", "addr:street": "Nigar R\u0259fib\u0259yli", "amenity": "cafe", "branch": "Sahil", "contact:instagram": "entree_az", "internet_access": "wlan", "internet_access:fee": "customers", "name:de": "Entr\u00e9e", "name:en": "Entr\u00e9e", "opening_hours": "Mo-Su 08:00-23:00", "outdoor_seating": "no", "phone": "+994 55 5059 591", "website": "https://www.entree.ge/"}}, {"type": "node", "id": 4931189922, "lat": 40.3740539, "lon": 49.8474094, "tags": {"amenity": "restaurant", "name:en": "Kaizen"}}, {"type": "node", "id": 4931955321, "lat": 40.3742478, "lon": 49.8338198, "tags": {"amenity": "restaurant", "cuisine": "local", "name:en": "Cheap kafe"}}, {"type": "node", "id": 4931967321, "lat": 40.3611009, "lon": 49.8348675, "tags": {"addr:street": "Neft\u00e7il\u0259r prospekti", "amenity": "restaurant", "internet_access": "wlan", "name": "UD Caf\u00e9", "name:en": "UD Cafe", "opening_hours": "Mo-Su 10:00-24:00", "phone": "+994124978983"}}, {"type": "node", "id": 4932327922, "lat": 40.3721446, "lon": 49.8409455, "tags": {"addr:housenumber": "2", "addr:street": "Xaqani k\u00fc\u00e7\u0259si", "amenity": "cafe", "cuisine": "ice_cream", "name:de": "Senior Mansimo Eiscaf\u00e9", "name:en": "Senior Mansimo Premium Gelato", "website": "https://m.facebook.com/profile.php?id=820705284745088&__tn__=C"}}, {"type": "node", "id": 4935303823, "lat": 40.3718949, "lon": 49.8409485, "tags": {"addr:street": "Qoqol k\u00fc\u00e7\u0259si", "amenity": "restaurant", "cuisine": "kebab;turkish", "name:en": "Kebab Express", "opening_hours": "Mo-Su 10:00-23:00"}}, {"type": "node", "id": 4935941622, "lat": 40.3726229, "lon": 49.8403968, "tags": {"addr:housenumber": "3", "addr:street": "M\u0259rd\u0259nov qarda\u015flar\u0131 k\u00fc\u00e7\u0259si", "amenity": "restaurant", "cuisine": "kebab;turkish", "email": "office@namlikebapbaku.az", "name:en": "Namli", "opening_hours": "Mo-Su 08:00-02:00", "phone": "+994 (50) 206-46-44", "website": "http://namlikebapbaku.az"}}, {"type": "node", "id": 4945514624, "lat": 40.3959145, "lon": 49.84295, "tags": {"amenity": "restaurant", "name:en": "Beersheher"}}, {"type": "node", "id": 4949509521, "lat": 40.3768562, "lon": 49.8428637, "tags": {"amenity": "restaurant", "name:en": "Kubar restoran"}}, {"type": "node", "id": 4952436722, "lat": 40.3947775, "lon": 49.8271964, "tags": {"name:en": "Baku Inn hotel", "tourism": "hotel"}}, {"type": "node", "id": 4953470721, "lat": 40.3731477, "lon": 49.841438, "tags": {"addr:housenumber": "60", "addr:postcode": "1000", "addr:street": "Nizami k\u00fc\u00e7\u0259si", "amenity": "restaurant", "cuisine": "pizza", "name:en": "Albatross", "phone": "050 307 00 08"}}, {"type": "node", "id": 4954339821, "lat": 40.368134, "lon": 49.83863, "tags": {"addr:street": "Z\u0259rif\u0259 \u018fliyeva k\u00fc\u00e7\u0259si", "amenity": "cafe", "brand": "Lavazza", "brand:wikidata": "Q543750", "cuisine": "coffee_shop", "name": "Lavazza", "name:en": "Lavazza", "opening_hours": "Mo-Su 10:00-23:00", "takeaway": "yes"}}, {"type": "node", "id": 4958234324, "lat": 40.3650657, "lon": 49.8357144, "tags": {"amenity": "restaurant", "name": "Art Garden Restoran", "name:az": "Art Garden Restoran", "name:en": "Art Garden Restaurant", "wikimedia_commons": "File:Baku KhanCaravanserai 004 1309.jpg"}}, {"type": "node", "id": 4958257122, "lat": 40.3644822, "lon": 49.8337137, "tags": {"amenity": "cafe", "name:en": "Art club"}}, {"type": "node", "id": 4959426926, "lat": 40.3743516, "lon": 49.8409951, "tags": {"amenity": "cafe", "name:en": "Boho tea room"}}, {"type": "node", "id": 4960077421, "lat": 40.3872223, "lon": 49.8073144, "tags": {"name:en": "Trikarona", "tourism": "hotel"}}, {"type": "node", "id": 4960420722, "lat": 40.3724551, "lon": 49.8421766, "tags": {"addr:street": "Xaqani k\u00fc\u00e7\u0259si", "amenity": "restaurant", "name:en": "Barista & Chef", "opening_hours": "Mo-Su 11:00-23:00", "phone": "0125111133", "website": "https://m.facebook.com/pg/baristachefaz/about/?mt_nav=1"}}, {"type": "node", "id": 4963211822, "lat": 40.3730421, "lon": 49.8432488, "tags": {"addr:housenumber": "19", "addr:street": "Xaqani k\u00fc\u00e7\u0259si", "amenity": "restaurant", "cuisine": "georgian", "name:en": "Tsinandali", "opening_hours": "Mo-Su 10:00-01:00", "phone": "(012) 498 10 32", "website": "https://www.facebook.com/tsinandali.baku/"}}, {"type": "node", "id": 4963294421, "lat": 40.3639874, "lon": 49.8373516, "tags": {"amenity": "cafe", "cuisine": "local", "opening_hours": "Mo-Su 11:00-23:00"}}, {"type": "node", "id": 4973454821, "lat": 40.3825161, "lon": 49.8428341, "tags": {"amenity": "cafe", "name:en": "Sahil"}}, {"type": "node", "id": 4973541822, "lat": 40.3677902, "lon": 49.8336199, "tags": {"amenity": "restaurant", "name": "b\u00fcrc qala", "name:en": "Burc Qala"}}, {"type": "node", "id": 4973541824, "lat": 40.3678487, "lon": 49.8389702, "tags": {"air_conditioning": "yes", "amenity": "cafe", "brand": "Gloria Jean's", "brand:wikidata": "Q2666365", "cuisine": "coffee_shop", "name": "Gloria Jean's", "official_name": "Gloria Jean's Coffees", "takeaway": "yes", "toilets": "yes"}}, {"type": "node", "id": 4973541825, "lat": 40.3692081, "lon": 49.8344446, "tags": {"amenity": "cafe", "branch": "4 Kafe", "brand": "Gloria Jean's", "brand:wikidata": "Q2666365", "cuisine": "coffee_shop", "indoor_seating": "yes", "name": "Gloria Jean's", "official_name": "Gloria Jean's Coffees", "opening_hours": "Mo-Su,PH 08:30-23:00", "outdoor_seating": "no", "takeaway": "yes"}}, {"type": "node", "id": 4973542921, "lat": 40.3791101, "lon": 49.8466938, "tags": {"amenity": "cafe", "brand": "Gloria Jean's", "brand:wikidata": "Q2666365", "cuisine": "coffee_shop", "name": "Gloria Jean's", "official_name": "Gloria Jean's Coffees", "takeaway": "yes"}}, {"type": "node", "id": 4973606423, "lat": 40.3699141, "lon": 49.8369454, "tags": {"amenity": "restaurant", "level": "-1", "name": "Dolma Restaurant", "name:en": "Dolma"}}, {"type": "node", "id": 4973650622, "lat": 40.3710262, "lon": 49.8381216, "tags": {"amenity": "cafe", "name:en": "Yoshi Sushi Bar"}}, {"type": "node", "id": 4974484122, "lat": 40.3746893, "lon": 49.8489748, "tags": {"amenity": "cafe", "name:en": "Nori Sushi bar"}}, {"type": "node", "id": 4976750321, "lat": 40.3645214, "lon": 49.8357742, "tags": {"addr:housenumber": "87", "addr:street": "Neft\u00e7il\u0259r prospekti", "amenity": "restaurant", "cuisine": "italian", "email": "antinoribaku@gmail.com", "name": "Cantinetta Antinori", "phone": "+994 12 497 56 46", "website": "http://cantinettaantinori.az/"}}, {"type": "node", "id": 4990196525, "lat": 40.3723076, "lon": 49.841636, "tags": {"addr:housenumber": "14A", "addr:street": "Xaqani k\u00fc\u00e7\u0259si", "amenity": "restaurant", "cuisine": "steak_house", "name:en": "Prive Baku", "phone": "(012) 598 05 55", "website": "https://m.facebook.com/privebaku/"}}, {"type": "node", "id": 4996661521, "lat": 40.3684272, "lon": 49.8380584, "tags": {"addr:city": "Bak\u0131", "addr:housenumber": "5", "addr:street": "M\u0259h\u0259mm\u0259d \u018fmin R\u0259sulzad\u0259 k\u00fc\u00e7.", "air_conditioning": "yes", "amenity": "cafe", "contact:instagram": "coffeebar.baku", "cuisine": "coffee_shop", "internet_access": "wlan", "internet_access:fee": "customers", "name": "CoffeeBar 2", "opening_hours": "Mo-Su 09:00-01:00", "outdoor_seating": "yes", "phone": "+994556110040", "toilets": "yes"}}, {"type": "node", "id": 5003346222, "lat": 40.3747789, "lon": 49.8485457, "tags": {"addr:housenumber": "39", "addr:street": "Xaqani k\u00fc\u00e7\u0259si", "amenity": "cafe", "cuisine": "coffee_shop", "name": "CoffeeLea"}}, {"type": "node", "id": 5009220021, "lat": 40.3697469, "lon": 49.8378213, "tags": {"name:en": "\u0634\u0648\u0642\u06d5\u0645\u0627\u0646", "tourism": "guest_house"}}, {"type": "node", "id": 5012206823, "lat": 40.3701, "lon": 49.8378509, "tags": {"addr:street": "T\u0259rlan \u018fliyarb\u0259yov k\u00fc\u00e7\u0259si", "amenity": "restaurant", "cuisine": "sandwich", "diet:vegetarian": "yes", "internet_access": "wlan", "name:en": "My Sandwich"}}, {"type": "node", "id": 5019133222, "lat": 40.3726546, "lon": 49.8385182, "tags": {"amenity": "restaurant", "name:en": "Central Baku"}}, {"type": "node", "id": 5019544621, "lat": 40.3749884, "lon": 49.8418521, "tags": {"name:en": "Boutique Hotel Baku", "tourism": "hotel"}}, {"type": "node", "id": 5022602023, "lat": 40.3659817, "lon": 49.8358611, "tags": {"addr:housenumber": "9", "addr:postcode": "AZ1001", "addr:street": "9 Mirza Shafi Street", "email": "office@denizinn.az", "internet_access": "wlan", "name:en": "Deniz Inn Boutique Hotel", "opening_hours": "24/7", "phone": "0124972082", "tourism": "hotel", "website": "https://denizinn.az/"}}, {"type": "node", "id": 5026723422, "lat": 40.3796639, "lon": 49.8426587, "tags": {"addr:street": "S\u00fcleyman R\u0259himov k\u00fc\u00e7\u0259si", "amenity": "cafe", "cuisine": "tea", "internet_access": "wlan", "name": "Pi Art Kafe", "opening_hours": "Mo-Su 09:00-00:00", "phone": "+994514282839", "website": "https://m.facebook.com/piartcafe/"}}, {"type": "node", "id": 5028732522, "lat": 40.3690823, "lon": 49.8341319, "tags": {"addr:housenumber": "71", "addr:street": "\u0130stiqlaliyy\u0259t k\u00fc\u00e7\u0259si", "amenity": "cafe", "internet_access": "wlan", "name:en": "The LaParte"}}, {"type": "node", "id": 5037009121, "lat": 40.3679418, "lon": 49.8417457, "tags": {"addr:street": "Neft\u00e7il\u0259r prospekti", "amenity": "cafe", "cuisine": "burger;ice_cream;steak_house;kebab;crepe;friture;pasta;barbecue;cake;pizza;sandwich;russian;hot_dog;sausage;chicken;turkish;greek;tea;grill", "internet_access": "wlan", "name:en": "Palma Cafe", "name:tr": "Palma Kafe", "opening_hours": "24/7"}}, {"type": "node", "id": 5060520825, "lat": 40.3705579, "lon": 49.8356062, "tags": {"amenity": "restaurant", "name:en": "Meating Point"}}, {"type": "node", "id": 5064340222, "lat": 40.3776678, "lon": 49.8118114, "tags": {"addr:street": "Akademik Zahid X\u0259lilov k\u00fc\u00e7\u0259si", "amenity": "restaurant", "name:en": "Elbara"}}, {"type": "node", "id": 5064600921, "lat": 40.3842232, "lon": 49.8138416, "tags": {"amenity": "cafe", "name:en": "Jale"}}, {"type": "node", "id": 5078759783, "lat": 40.3834591, "lon": 49.8417824, "tags": {"addr:city": "Bak\u0131", "addr:street": "\u015e\u00f6vqiyar Abdullayev k\u00fc\u00e7\u0259si", "amenity": "restaurant", "name": "Restoran 44 Club", "name:az": "Restoran 44 Club"}}, {"type": "node", "id": 5079055319, "lat": 40.3842087, "lon": 49.8275703, "tags": {"addr:city": "Bak\u0131", "addr:street": "B\u0259sti Ba\u011f\u0131rova k\u00fc\u00e7.", "amenity": "restaurant", "name": "Moko Rooms Restoran\u0131", "name:az": "Moko Rooms Restoran\u0131"}}, {"type": "node", "id": 5084576022, "lat": 40.3658862, "lon": 49.8361866, "tags": {"addr:housenumber": "9", "addr:postcode": "AZ 1001", "addr:street": "Mirza Shafi 9", "email": "office@denizinn.az", "internet_access": "wlan", "name:en": "Deniz \u0130nn Boutique Hotel", "opening_hours": "24/7", "operator": "Mr. Samad and Mr. Jabir", "phone": "+994124972082", "tourism": "hotel", "website": "https://denizinn.az/"}}, {"type": "node", "id": 5087976975, "lat": 40.3744263, "lon": 49.8437798, "tags": {"addr:city": "Bak\u0131", "addr:street": "B\u00fclb\u00fcl prospekti", "amenity": "cafe", "name": "Status Club, B\u00fclb\u00fcl prospekti", "name:ar": "\u062f\u064a\u0633\u0643\u0648 \u0633\u062a\u0627\u062a\u0648\u0633", "name:az": "Status Club, B\u00fclb\u00fcl prospekti", "name:en": "Status Club, Bulbul avenue"}}, {"type": "node", "id": 5088737021, "lat": 40.3673433, "lon": 49.8331746, "tags": {"addr:housenumber": "84", "name": "\u018fli \u015e\u0259msi Emalatxanas\u0131", "name:az": "\u018fli \u015e\u0259msi Emalatxanas\u0131", "name:en": "Ali Shamsi Studio", "name:ru": "\u041c\u0430\u0441\u0442\u0435\u0440\u0441\u043a\u0430\u044f \u0410\u043b\u0438 \u0428\u0430\u043c\u0441\u0438 (\u0434\u043e\u043c 84)", "tourism": "gallery"}}, {"type": "node", "id": 5099937421, "lat": 40.3758081, "lon": 49.837605, "tags": {"addr:city": "Bak\u0131", "addr:housenumber": "157", "addr:street": "\u00c7ingiz Mustafayev k\u00fc\u00e7\u0259si", "name": "Winter Park Hotel Baku", "tourism": "hotel"}}, {"type": "node", "id": 5108432021, "lat": 40.350243, "lon": 49.8349805, "tags": {"addr:housenumber": "1", "addr:postcode": "AZ1003", "addr:street": "Qurban Abbasov k\u00fc\u00e7\u0259si", "email": "info@riviera.az", "internet_access": "wlan", "name": "Riviera Hotel - Rivyera Otel \\ Bay\u0131l", "opening_hours": "24/7", "phone": "+994124911010", "tourism": "hotel", "website": "https://riviera.az/"}}, {"type": "node", "id": 5110144021, "lat": 40.396174, "lon": 49.841907, "tags": {"addr:street": "Mir\u0259li Qa\u015fqay", "amenity": "restaurant", "internet_access": "wlan", "name": "G\u00f6y G\u00f6l Kafe"}}, {"type": "node", "id": 5110144223, "lat": 40.3893552, "lon": 49.8428394, "tags": {"addr:street": "Azadl\u0131q prospekti", "amenity": "restaurant", "name:en": "SIM-SIM", "name:ru": "SIM-SIM"}},