{"version": 0.6, "generator": "Overpass API 0.7.62.8 e802775f", "osm3s": {"timestamp_osm_base": "2025-11-23T09:47:30Z", "copyright": "The data included in this document is from www.openstreetmap.org. The data is made available under ODbL."}, "elements": [{"type": "node", "id": 1386077239, "lat": 41.2010097, "lon": 47.1940758, "tags": {"internet_access": "wlan", "internet_access:fee": "no", "name": "Karvansara Hotel \\ \u015e\u0259ki", "smoking": "yes", "stars": "3", "tourism": "hotel"}}, {"type": "node", "id": 1386077243, "lat": 41.2029003, "lon": 47.1785494, "tags": {"addr:city": "\u015e\u0259ki", "addr:country": "AZ", "addr:housenumber": "187", "addr:postcode": "AZ5500", "addr:street": "R\u0259sulzad\u0259 k\u00fc\u00e7.", "name": "\u015e\u0259ki Saray Otel \\ \u015e\u0259ki", "name:en": "Sheki Saray Hotel", "note": "Make a reservation: http://www.booking.com/hotel/az/sheki-saray.html", "phone": "+994242448181", "stars": "4", "tourism": "hotel", "website": "https://www.shekisaray.az/", "wheelchair": "yes"}}, {"type": "node", "id": 1391224687, "lat": 41.2030217, "lon": 47.179497, "tags": {"amenity": "restaurant", "cuisine": "regional", "name": "\u00c7\u0259l\u0259bi Xan Restoran\u0131 \\ \u015e\u0259ki", "name:en": "Chalabi Xan"}}, {"type": "node", "id": 1391224705, "lat": 41.2038592, "lon": 47.1966469, "tags": {"amenity": "restaurant", "name": "Sahin Kafesi", "name:en": "Xan Bagi"}}, {"type": "node", "id": 2523807113, "lat": 41.2025361, "lon": 47.1800466, "tags": {"name": "\u015e\u0259ki Otel", "name:en": "Shaki Hotel", "stars": "3", "tourism": "hotel"}}, {"type": "node", "id": 3303227547, "lat": 41.2490039, "lon": 47.1932787, "tags": {"addr:city": "Ki\u015f", "amenity": "place_of_worship", "building": "church", "historic": "yes", "int_name": "Church of Saint Elishe", "name": "M\u00fcq\u0259dd\u0259s Yelisey kils\u0259si \\ Ki\u015f", "name:az": "M\u00fcq\u0259dd\u0259s Yelisey kils\u0259si \\ Ki\u015f", "name:en": "Church of Saint Elishe \\ Kish", "name:pl": "Ko\u015bci\u00f3\u0142 \u015bw. Elizeusza \\ Kisz", "religion": "christian", "tourism": "attraction", "wikipedia": "en:Church_of_Kish"}}, {"type": "node", "id": 4325151699, "lat": 41.2041319, "lon": 47.1848991, "tags": {"internet_access": "wlan", "name": "Ayli Qonaq Evi", "name:en": "Aylin Guest House", "tourism": "guest_house"}}, {"type": "node", "id": 4341051290, "lat": 41.200495, "lon": 47.1957392, "tags": {"amenity": "restaurant", "name": "Qaqarin restoran\u0131 \\ \u015e\u0259ki", "name:az": "Qaqarin restoran\u0131 \\ \u015e\u0259ki", "name:ru": "\u0420\u0435\u0441\u0442\u043e\u0440\u0430\u043d \u0413\u0430\u0433\u0430\u0440\u0438\u043d \u0428\u0435\u043a\u0438"}}, {"type": "node", "id": 4341306322, "lat": 41.2005732, "lon": 47.1864608, "tags": {"amenity": "restaurant", "check_date": "2023-07-18", "cuisine": "regional", "internet_access": "wlan", "name": "Ov\u00e7ular M\u0259kan\u0131 \\ \u015e\u0259ki", "name:en": "Hunters corner", "opening_hours": "24/7", "wheelchair": "no"}}, {"type": "node", "id": 4383019789, "lat": 41.2446858, "lon": 47.1979255, "tags": {"amenity": "restaurant", "name:ru": "C\u0259nn\u0259t Ba\u011f\u0131 \\ Ki\u015f"}}, {"type": "node", "id": 4434357098, "lat": 41.2014023, "lon": 47.1760421, "tags": {"amenity": "cafe", "internet_access": "wlan", "name:en": "Taxta cai evi"}}, {"type": "node", "id": 4434357903, "lat": 41.2023206, "lon": 47.1672896, "tags": {"amenity": "cafe", "name:en": "Kafe Bagdad"}}, {"type": "node", "id": 4434661294, "lat": 41.2025535, "lon": 47.1799134, "tags": {"amenity": "restaurant", "cuisine": "turkish", "internet_access": "wlan", "name:en": "Bizim Ail\u0259"}}, {"type": "node", "id": 4434691492, "lat": 41.2004767, "lon": 47.1877656, "tags": {"addr:door": "161", "amenity": "place_of_worship", "building": "mosque", "check_date": "2023-07-18", "historic": "yes", "name": "\u00d6m\u0259r \u018ff\u0259ndi m\u0259scidi", "name:en": "Omar Efendi Mosque", "religion": "muslim", "tourism": "attraction", "wikipedia": "en:Omar_Efendi_Mosque", "wikipedia:en": "en:Omar_Efendi_Mosque"}}, {"type": "node", "id": 4434725389, "lat": 41.2019426, "lon": 47.1766895, "tags": {"amenity": "cafe", "name:en": "Bahar Kafe \\ \u015e\u0259ki"}}, {"type": "node", "id": 4436108089, "lat": 41.2028828, "lon": 47.1964905, "tags": {"name:en": "Sheki tourism information centre", "tourism": "information"}}, {"type": "node", "id": 4436578702, "lat": 41.2009011, "lon": 47.175582, "tags": {"amenity": "cafe", "internet_access": "wlan", "name:en": "Q\u0259dim \u015e\u0259ki"}}, {"type": "node", "id": 4453807690, "lat": 41.2048759, "lon": 47.1842668, "tags": {"addr:housenumber": "32", "name": "Kiray\u0259 Ev", "opening_hours": "24/7", "operator": "N\u00fcsr\u0259t", "phone": "+994 556348504", "tourism": "guest_house"}}, {"type": "node", "id": 4979746123, "lat": 41.2022406, "lon": 47.1800297, "tags": {"amenity": "restaurant", "name": "Qrand \u015fadl\u0131q saray\u0131"}}, {"type": "node", "id": 5010907722, "lat": 41.2009941, "lon": 47.1975266, "tags": {"addr:housenumber": "0242441845", "addr:street": "Azadliq", "email": "nushaba98@gmail.com", "internet_access": "wlan", "name:en": "Shaki Azerbaijan", "name:tr": "El\u00f6vs\u0259t Hostels", "opening_hours": "24/7", "operator": "elofset", "phone": "+994552697085", "tourism": "hotel", "website": "http://nushaba98@gmail.com"}}, {"type": "node", "id": 5084206122, "lat": 41.2008462, "lon": 47.166324, "tags": {"addr:street": "Mikay\u0131l M\u00fcsfiq k\u00fc\u00e7.", "amenity": "marketplace", "name": "Taza Bazar \\ \u015e\u0259ki", "name:en": "Taza Bazar (Local Market)"}}, {"type": "node", "id": 5084207722, "lat": 41.2003514, "lon": 47.1918958, "tags": {"addr:housenumber": "81", "addr:street": "Mirz\u0259 F\u0259t\u0259li Axundzad\u0259 prospekti", "amenity": "cafe", "internet_access": "wlan", "name": "VMF kafe", "name:en": "Sheki Art Club Cafe", "website": "https://www.vmfkafe.com/"}}, {"type": "node", "id": 5088734123, "lat": 41.202646, "lon": 47.1903088, "tags": {"castle_type": "palace", "historic": "castle", "name": "\u015e\u0259kixanovlar Ev Muzeyi", "name:en": "Shakikhanov (Winter) Palace \\ \u015e\u0259ki", "name:ru": "\u0414\u043e\u043c \u0428\u0435\u043a\u0438\u0445\u0430\u043d\u043e\u0432\u044b\u0445", "wikipedia": "az: \u015e\u0259kixanovlar\u0131n_evi", "wikipedia:az": "az:\u015e\u0259kixanovlar\u0131n_evi", "wikipedia:en": "en:Shakikhanovs%27_Palace"}}, {"type": "node", "id": 5091682724, "lat": 41.2494829, "lon": 47.193733, "tags": {"email": "ilhame633@mail.ru", "name": "Qonaq Evi \\ Ki\u015f", "name:en": "Kish Guesthouse", "operator": "Huseynova Ilhama Qanira Qizi", "phone": "0506310246", "tourism": "guest_house"}}, {"type": "node", "id": 5142511621, "lat": 41.2003948, "lon": 47.1768564, "tags": {"amenity": "cafe", "internet_access": "wlan", "name": "Mu\u011fan kafe"}}, {"type": "node", "id": 5193921127, "lat": 41.2001762, "lon": 47.1894068, "tags": {"amenity": "restaurant", "cuisine": "regional", "internet_access": "wlan", "name": "Dadl\u0131lar Kafe"}}, {"type": "node", "id": 5500564021, "lat": 41.2051937, "lon": 47.1820226, "tags": {"amenity": "restaurant", "name": "Qafqaz Restoran\u0131"}}, {"type": "node", "id": 5791245356, "lat": 41.2430217, "lon": 47.1897899, "tags": {"name": "Kempinq", "name:az": "Kempinq", "name:en": "Camp", "name:ru": "\u041c\u0435\u0441\u0442\u043e \u0434\u043b\u044f \u043f\u0430\u043b\u0430\u0442\u043a\u0438", "tourism": "camp_site"}}, {"type": "node", "id": 5840157288, "lat": 41.2028656, "lon": 47.1958896, "tags": {"amenity": "cafe", "name:en": "Tandir \u00e7\u00f6rayi"}}, {"type": "node", "id": 5840157893, "lat": 41.2028321, "lon": 47.1965773, "tags": {"name": "Elxan Art", "tourism": "artwork"}}, {"type": "node", "id": 5840171685, "lat": 41.2492479, "lon": 47.1932393, "tags": {"amenity": "restaurant", "cuisine": "local", "name": "Q\u0259dim Ki\u015f Restoran"}}, {"type": "node", "id": 5844266487, "lat": 41.2006172, "lon": 47.1972397, "tags": {"addr:street": "28 May k\u00fc\u00e7\u0259si", "name:en": "Kiray\u0259 ev (M\u0259hpur\u0259)", "name:ru": "Guest House (Mahpura)", "opening_hours": "Mo-Su 08:00-00:00", "phone": "+994558994102", "tourism": "guest_house"}}, {"type": "node", "id": 5867003585, "lat": 41.2035523, "lon": 47.1782997, "tags": {"historic": "monument", "name": "Axundov heyk\u0259li \\ \u015e\u0259ki", "name:en": "Mirza Fatali Akhundov monument"}}, {"type": "node", "id": 5908017586, "lat": 41.2006219, "lon": 47.197458, "tags": {"addr:street": "28 May K\u00fc\u00e7\u0259si", "name:en": "Mahpura\u2019s Guest House", "opening_hours": "24/7", "phone": "+994558994182", "tourism": "guest_house"}}, {"type": "node", "id": 6008070090, "lat": 41.2287591, "lon": 47.1803324, "tags": {"name": "M\u0259kan Motel \\ \u015e\u0259ki", "tourism": "guest_house"}}, {"type": "node", "id": 6008070092, "lat": 41.2491319, "lon": 47.193497, "tags": {"historic": "memorial", "name": "Tur Heyerdal \\ Ki\u015f", "name:en": "Thor Heyerdhal"}}, {"type": "node", "id": 6008070093, "lat": 41.2022655, "lon": 47.1921748, "tags": {"amenity": "cafe"}}, {"type": "node", "id": 6008089689, "lat": 41.2027043, "lon": 47.196025, "tags": {"name:en": "Great sunset viewpoint", "tourism": "viewpoint", "wikimedia_commons": "File:Sheki.jpg"}}, {"type": "node", "id": 6010366988, "lat": 41.2037205, "lon": 47.1957332, "tags": {"name": "\u015e\u0259ki Tarix-Diyar\u015f\u00fcnasl\u0131q Muzeyi", "name:en": "Shaki Museum of History and Local Lore", "name:pl": "Muzeum Regionalne", "tourism": "museum", "wikidata": "Q47536155", "wikimedia_commons": "File:Sheki Museum of History and Local Lore.jpg", "wikipedia": "en:Shaki Museum of History and Local Lore"}}, {"type": "node", "id": 6010366989, "lat": 41.2034674, "lon": 47.1953165, "tags": {"name": "\u015e\u0259ki D\u00f6vl\u0259t R\u0259sm Qalereyas\u0131", "name:en": "Sheki State Art Gallery", "name:pl": "Pa\u0144stwowa Galeria Sztuki", "tourism": "museum", "wikimedia_commons": "File:Sheki State Art Gallery.jpg"}}, {"type": "node", "id": 6047933485, "lat": 41.2029091, "lon": 47.1805462, "tags": {"amenity": "cafe", "name": "Kafe M\u0259rk\u0259zi Park \\ \u015e\u0259ki"}}, {"type": "node", "id": 6052332286, "lat": 41.204392, "lon": 47.1977322, "tags": {"historic": "castle", "name:be": "\u041f\u0430\u043b\u0430\u0446 \u0428\u044d\u043a\u0456\u043d\u0441\u043a\u0456\u0445 \u0445\u0430\u043d\u0430\u045e", "name:en": "\u015eeki Khan Palace", "name:ru": "\u0414\u0432\u043e\u0440\u0435\u0446 \u0428\u0435\u043a\u0438\u043d\u0441\u043a\u0438\u0445 \u0445\u0430\u043d\u043e\u0432", "opening_hours": "Mo-Su 10:00-18:00", "phone": "+994516185973"}}, {"type": "node", "id": 6447718085, "lat": 41.2042131, "lon": 47.1768381, "tags": {"amenity": "restaurant", "name": "\u018fli M\u0259mm\u0259d Pitisi", "name:en": "Ali Mammadin Piti House", "opening_hours": "Mo-Su 10:00-17:00"}}, {"type": "node", "id": 6473001685, "lat": 41.2034625, "lon": 47.1825324, "tags": {"addr:city": "\u015e\u0259ki", "addr:housenumber": "1", "addr:postcode": "AZ5500", "addr:street": "S\u00fcleyman Eldarov k\u00fc\u00e7.", "air_conditioning": "yes", "email": "canal.hostel.sheki@gmail.com", "guest_house": "hostel", "internet_access": "yes", "internet_access:fee": "yes", "internet_access:ssid": "Canal Hostel", "name": "Canal Hostel", "name:en": "Canal Hostel", "payment:cash": "yes", "payment:credit_cards": "yes", "payment:debit_cards": "yes", "payment:maestro": "yes", "payment:mastercard": "yes", "payment:visa": "yes", "payment:visa_electron": "yes", "phone": "+994773112017", "rooms": "6", "smoking": "outside", "tourism": "hostel"}}, {"type": "node", "id": 6565749185, "lat": 41.2007454, "lon": 47.1930882, "tags": {"amenity": "cafe", "internet_access": "wlan", "name": "\u0130lli Espresso", "name:en": "Espresso House"}}, {"type": "node", "id": 6617248585, "lat": 41.2028996, "lon": 47.1674873, "tags": {"amenity": "restaurant", "name": "Xan \u00c7inar", "name:en": "Khan Chinar", "operator": "Kamil"}}, {"type": "node", "id": 6906505386, "lat": 41.2014582, "lon": 47.1822447, "tags": {"amenity": "restaurant", "name": "Ev x\u00f6r\u0259kl\u0259ri", "name:en": "Restaurant with local food"}}, {"type": "node", "id": 6906505586, "lat": 41.2023959, "lon": 47.1750191, "tags": {"amenity": "cafe", "name:en": "Local cafe"}}, {"type": "node", "id": 7494486909, "lat": 41.2051626, "lon": 47.1675742, "tags": {"amenity": "restaurant", "name": "K\u0259rpic"}}, {"type": "node", "id": 7494486910, "lat": 41.2064519, "lon": 47.1678545, "tags": {"amenity": "restaurant", "name": "Milli M\u0259tb\u0259xt \\ \u015e\u0259ki"}}, {"type": "node", "id": 7494486911, "lat": 41.2061191, "lon": 47.1665318, "tags": {"amenity": "restaurant", "name": "L\u0259ziz Restoran\u0131 \\ \u015e\u0259ki"}}, {"type": "node", "id": 7973913437, "lat": 41.2006521, "lon": 47.1951077, "tags": {"amenity": "restaurant", "name": "\u015e\u0259ki Palace Restoran"}}, {"type": "node", "id": 7976541514, "lat": 41.2009548, "lon": 47.1940617, "tags": {"historic": "manor", "name": "Yuxar\u0131 Karvansara \\ \u015e\u0259ki", "name:az": "Yuxar\u0131 Karvansara \\ \u015e\u0259ki", "name:en": "Upper Caravanserai", "tourism": "attraction", "wikidata": "Q4522517", "wikimedia_commons": "Category:Upper Caravanserai", "wikipedia": "en:Shaki_Caravanserai", "wikipedia:az": "az:Yuxar\u0131_Karvansara_(\u015e\u0259ki)", "wikipedia:en": "en:Shaki_Caravanserai"}}, {"type": "node", "id": 7976541515, "lat": 41.2006531, "lon": 47.1917537, "tags": {"heritage": "yes", "heritage:operator": "az", "historic": "manor", "name": "A\u015fa\u011f\u0131 Karvansaray \\ \u015e\u0259ki", "name:az": "A\u015fa\u011f\u0131 Karvansaray \\ \u015e\u0259ki", "name:en": "Lower Caravanserai", "tourism": "attraction", "wikidata": "Q16417458", "wikimedia_commons": "Category:Lower Caravanserai", "wikipedia": "en:Ashaghy caravanserai", "wikipedia:az": "az:A\u015fa\u011f\u0131_Karvansara_(\u015e\u0259ki)", "wikipedia:en": "en:Ashaghy_caravanserai"}}, {"type": "node", "id": 7982512242, "lat": 41.2090075, "lon": 47.179158, "tags": {"amenity": "shower", "name": "Abdulxalq Hamam\u0131 \\ \u015e\u0259ki", "tourism": "attraction"}}, {"type": "node", "id": 7982513809, "lat": 41.2305043, "lon": 47.1763658, "tags": {"amenity": "restaurant", "name": "Ail\u0259vi restoran"}}, {"type": "node", "id": 7982513810, "lat": 41.2312668, "lon": 47.1779135, "tags": {"amenity": "cafe", "name": "Kafe"}}, {"type": "node", "id": 7982513816, "lat": 41.2338487, "lon": 47.1794075, "tags": {"amenity": "cafe", "name": "\u015eirniyat Kafe"}}, {"type": "node", "id": 7982559830, "lat": 41.2015229, "lon": 47.1820253, "tags": {"amenity": "restaurant", "name": "Qurcana"}}, {"type": "node", "id": 7982559831, "lat": 41.2030909, "lon": 47.1782354, "tags": {"addr:city": "\u015e\u0259ki", "name": "\u015eah Palace Otel \\ \u015e\u0259ki", "tourism": "hotel"}}, {"type": "node", "id": 7982559841, "lat": 41.204328, "lon": 47.1778625, "tags": {"name": "Yaffle Inn Otel", "tourism": "hotel"}}, {"type": "node", "id": 7982613735, "lat": 41.2005976, "lon": 47.1947752, "tags": {"name": "\u015e\u0259ki Palace Otel", "tourism": "hotel"}}, {"type": "node", "id": 7982613742, "lat": 41.2008045, "lon": 47.192663, "tags": {"amenity": "restaurant", "name": "Sultan"}}, {"type": "node", "id": 7985795436, "lat": 41.2001526, "lon": 47.1672195, "tags": {"information": "office", "name": "D\u0259miryol Kassa \\ \u015e\u0259ki", "tourism": "information"}}, {"type": "node", "id": 7985795445, "lat": 41.2004735, "lon": 47.167882, "tags": {"amenity": "restaurant", "name": "\u0130stambul Restoran\u0131 \\ \u015e\u0259ki"}}, {"type": "node", "id": 7985800237, "lat": 41.2037478, "lon": 47.1815948, "tags": {"historic": "memorial", "name": "Heyd\u0259r \u018fliyev abid\u0259si \\ \u015e\u0259ki"}}, {"type": "node", "id": 7985800241, "lat": 41.2023584, "lon": 47.1800673, "tags": {"amenity": "restaurant", "name": "Mersin Restoran"}}, {"type": "node", "id": 7985800278, "lat": 41.2003867, "lon": 47.1756202, "tags": {"name": "Qonaq Evi \u015eah \u0130smay\u0131l", "tourism": "hotel"}}, {"type": "node", "id": 7985817429, "lat": 41.2024825, "lon": 47.1640009, "tags": {"name": "Sahil Motel \\ \u015e\u0259ki", "tourism": "motel"}}, {"type": "node", "id": 7985837842, "lat": 41.2014139, "lon": 47.1673805, "tags": {"information": "office", "name": "Aviakassa \\ \u015e\u0259ki", "tourism": "information"}}, {"type": "node", "id": 7985837843, "lat": 41.2018185, "lon": 47.167878, "tags": {"amenity": "restaurant", "name": "G\u0259nclik Restoran \\ \u015e\u0259ki"}}, {"type": "node", "id": 7993080900, "lat": 41.2048042, "lon": 47.1667555, "tags": {"historic": "memorial", "name": "Axundov heyk\u0259li \\ \u015e\u0259ki"}}, {"type": "node", "id": 7993237123, "lat": 41.2439031, "lon": 47.1993403, "tags": {"amenity": "cafe"}}, {"type": "node", "id": 7993237483, "lat": 41.2413488, "lon": 47.1866561, "tags": {"amenity": "restaurant", "name": "Soyuq Bulaq restoran"}}, {"type": "node", "id": 7995694085, "lat": 41.2434796, "lon": 47.1884868, "tags": {"amenity": "restaurant", "name": "Ki\u015f Qap\u0131s\u0131"}}, {"type": "node", "id": 7995694086, "lat": 41.244851, "lon": 47.1897608, "tags": {"amenity": "restaurant", "name": "Ki\u015f Adas\u0131"}}, {"type": "node", "id": 7995755950, "lat": 41.2488189, "lon": 47.1929908, "tags": {"amenity": "cafe", "name": "\u0130lham\u0259 \u00c7ay \\ Ki\u015f"}}, {"type": "node", "id": 7995765482, "lat": 41.2443418, "lon": 47.1996219, "tags": {"amenity": "restaurant", "name": "Piti House"}}, {"type": "node", "id": 7995783085, "lat": 41.2304478, "lon": 47.1801062, "tags": {"name": "Villa Butik", "tourism": "motel"}}, {"type": "node", "id": 7995783123, "lat": 41.2083578, "lon": 47.1608439, "tags": {"amenity": "restaurant", "name": "S\u0259ma Restoran\u0131"}}, {"type": "node", "id": 7995783130, "lat": 41.2085576, "lon": 47.1561594, "tags": {"amenity": "restaurant", "name": "A\u011f Qaya restoran \\ Qoxmuq"}}, {"type": "node", "id": 7997938199, "lat": 41.2103514, "lon": 47.1596637, "tags": {"historic": "memorial", "name": "Heyd\u0259r \u018fliyev heyk\u0259li"}}, {"type": "node", "id": 8312827199, "lat": 41.2030123, "lon": 47.1811751, "tags": {"historic": "manor", "name": "Yeralt\u0131 hamam 19-cu \u0259sr \\ \u015e\u0259ki", "name:en": "Underground bath 19th century"}}, {"type": "node", "id": 8312827200, "lat": 41.2004896, "lon": 47.1895168, "tags": {"historic": "manor", "name": "Albanlar hamam\u0131 19-cu \u0259sr \\ \u015e\u0259ki", "name:az": "A\u011fvanlar hamam\u0131 19-cu \u0259sr \\ \u015e\u0259ki", "name:en": "Aghvan's hammam 19th c.", "tourism": "attraction", "wikimedia_commons": "Category:Aghvanlar Bathhouse"}}, {"type": "node", "id": 9951543932, "lat": 41.2023665, "lon": 47.1639767, "tags": {"amenity": "restaurant", "name": "Firuz\u0259 \u015eadl\u0131q Saray\u0131 \\ \u015e\u0259ki"}}, {"type": "node", "id": 11019605405, "lat": 41.2029334, "lon": 47.1811323, "tags": {"name:en": "Hamam XIX \u0259sr \\ \u015e\u0259ki", "tourism": "museum"}}, {"type": "node", "id": 11053543184, "lat": 41.2005585, "lon": 47.1867628, "tags": {"amenity": "restaurant", "check_date": "2025-07-24", "internet_access": "wlan", "internet_access:fee": "customers", "level": "0", "name": "Old Town", "payment:cash": "yes", "payment:mastercard": "yes", "payment:visa": "yes", "tourism": "hotel", "wheelchair": "yes"}}, {"type": "node", "id": 11288732869, "lat": 41.2042246, "lon": 47.1744982, "tags": {"addr:housenumber": "1", "addr:postcode": "AZ5500", "addr:street": "\u015e\u0259hriyar k\u00fc\u00e7.", "email": "sheki@macaraclub.az", "internet_access": "wlan", "name:en": "Macara Sheki City Hotel", "opening_hours": "24/7", "phone": "+994702061177", "tourism": "hotel", "website": "https://sheki.macaraclub.az/"}}, {"type": "node", "id": 11771258969, "lat": 41.202725, "lon": 47.1757827, "tags": {"addr:housenumber": "64", "addr:street": "\u015e\u0259hriyar k\u00fc\u00e7.", "name:en": "Beaming House", "tourism": "hotel"}}, {"type": "node", "id": 11813733586, "lat": 41.2039454, "lon": 47.1792441, "tags": {"name": "Central Hostel", "tourism": "hostel"}}, {"type": "node", "id": 11813733587, "lat": 41.2040069, "lon": 47.1791737, "tags": {"amenity": "cafe", "name": "Cafe Central"}}, {"type": "node", "id": 12141830797, "lat": 41.2044179, "lon": 47.1967427, "tags": {"description": "Sheki Fortress Map", "information": "map", "map_size": "site", "map_type": "scheme", "tourism": "information"}}, {"type": "node", "id": 12888213201, "lat": 41.2155446, "lon": 47.1995482, "tags": {"tourism": "viewpoint"}}, {"type": "node", "id": 12888449601, "lat": 41.2109267, "lon": 47.1873639, "tags": {"name:fr": "Ancienne fontaine", "tourism": "attraction"}}, {"type": "node", "id": 13089009501, "lat": 41.201067, "lon": 47.1931445, "tags": {"amenity": "restaurant", "name": "Restoran Karavanasay"}}, {"type": "way", "id": 239166720, "nodes": [2469779666, 7977708241, 7977708240, 7977708239, 7977708242, 2469779667, 2469779668, 7978760403, 2469779669, 2469779666], "tags": {"leisure": "park", "name": "Vahabzad\u0259 Park\u0131 \\ \u015e\u0259ki"}}, {"type": "way", "id": 272592237, "nodes": [2775370213, 2775370214, 2775370216, 12624100440, 2775370217, 2775370213], "tags": {"access": "permissive", "building": "yes", "castle_type": "palace", "historic": "castle", "name": "\u015e\u0259ki Xan Saray\u0131", "name:az": "\u015e\u0259ki Xan Saray\u0131", "name:en": "Shaki Khan Palace", "name:ru": "\u0414\u0432\u043e\u0440\u0435\u0446 \u0428\u0435\u043a\u0438\u043d\u0441\u043a\u0438\u0445 \u0425\u0430\u043d\u043e\u0432", "tourism": "attraction", "wikidata": "Q1740560", "wikimedia_commons": "File:039palas.jpg", "wikipedia": "en:Palace_of_Shaki_Khans", "wikipedia:az": "az:\u015e\u0259ki_xan_saray\u0131", "wikipedia:en": "en:Palace_of_Shaki_Khans"}}, {"type": "way", "id": 272598341, "nodes": [2775428369, 2775428370, 2847984542, 2847984541, 3653043685, 2847984550, 3653043684, 2847984539, 2775428377, 2775428378, 2847984540, 3653043683, 2847984549, 3653043682, 2847984544, 2847984543, 2775428385, 2847984545, 3653043689, 2847984547, 3653043688, 2847984546, 3653043687, 2847984548, 3653043686, 2775428369], "tags": {"addr:city": "\u015e\u0259ki", "amenity": "muse", "building": "church", "historic": "yes", "name": "Three Saints Church in Sheki Fortress", "name:en": "Three Saints Church in Sheki Fortress", "religion": "christian", "tourism": "attraction", "wikidata": "Q12838419", "wikimedia_commons": "File:Three Saints Church in Shaki.jpg"}}, {"type": "way", "id": 330907263, "nodes": [3379425876, 3379425877, 3379425878, 3379425879, 3379425880, 3379425881, 3379425882, 3379425864, 3379425865, 3379425868, 3379425869, 3379425870, 3379425871, 3379425872, 3379425873, 3379425874, 3379425875, 3379425866, 3379425867, 3379425876], "tags": {"landuse": "grass", "name": "\u015e\u0259ki K\u00f6rp\u00fc dair\u0259si", "tourism": "attraction"}}, {"type": "way", "id": 360750484, "nodes": [3268564619, 2912911626, 3268564620, 3268564621, 2775370210, 3268564622, 2912911625, 3268564623, 3268564624, 2775370208, 3268564625, 2775370207, 3268564626, 2912911627, 3268564627, 3268564628, 7973663252, 7973663249, 7973663250, 7973663251, 2775370200, 7973663253, 7973663254, 7973663255, 2775370197, 2775370195, 2775370191, 3268571115, 3268571128, 3268571127, 3268571126, 3268571125, 3268571124, 3268571123, 2775370185, 3268571122, 3268571121, 3268571120, 3268571119, 3268571118, 3268571117, 3268571116, 7973906358, 7973906359, 2775370184, 2775370180, 3268570196, 3268570198, 3268570199, 3268570200, 3268570201, 3268570202, 2775370178, 3268570203, 3268570204, 3268570205, 3268570206, 3268570207, 3268570208, 3268570197, 7973663256, 2775370173, 2775370171, 2775370166, 3268570996, 3268571008, 3268571007, 3268571006, 3268571005, 3268571004, 3268571003, 2775370159, 3268571002, 3268571001, 3268571000, 3268570999, 3268570998, 3268570997, 2775370157, 2775370156, 3268570995, 3268570994, 3268570993, 3268570992, 2775370152, 3268570991, 3268570990, 3268570989, 3268570988, 2775370149, 3268570987, 3268570986, 3268570985, 2775370146, 3268570972, 3268570984, 3268570983, 3268570982, 3268570981, 3268570980, 3268570979, 2775370142, 3268570978, 3268570977, 3268570976, 3268570975, 3268570974, 3268570973, 3268570971, 3268570970, 3268570969, 3268570963, 3268570968, 3268570967, 3268570966, 3268570962, 3268570965, 3268570964, 7973992323, 2775370131, 2775370129, 3268570191, 3268570190, 3268570189, 3268570188, 2775370127, 3268570187, 3268570186, 3268570185, 3268570184, 2775370125, 2775370123, 3268570183, 3268570182, 3268570181, 3268570180, 3268570175, 3268570179, 3268570178, 3268570177, 3268570176, 2775370121, 3268570174, 2775370118, 3268570169, 3268570170, 3268570171, 3268570172, 3268570163, 3268570164, 3268570165, 3268570166, 3268570167, 3268570168, 3268570162, 3268570173, 2775370114, 3268564611, 3268564617, 2775370109, 3268570161, 3268564616, 3268570060, 3268564610, 3268570059, 3268564615, 3268570058, 3268564609, 3268570057, 3268564614, 3268570056, 2775370107, 2775370041, 7973663246, 7973663244, 7973663245, 7973663247, 3268564619], "tags": {"name": "\u015e\u0259ki Qalas\u0131", "name:az": "\u015e\u0259ki Qalas\u0131", "name:en": "Sheki fortress", "name:ru": "\u0428\u0435\u043a\u0438\u043d\u0441\u043a\u0430\u044f \u041a\u0440\u0435\u043f\u043e\u0441\u0442\u044c", "tourism": "attraction", "wikimedia_commons": "File:Shaki fortress.JPG"}}, {"type": "way", "id": 446831728, "nodes": [4440520593, 4440560389, 4440520694, 4440560689, 4440520593], "tags": {"addr:city": "\u015e\u0259ki", "amenity": "place_of_worship", "building": "church", "construction": "abandoned", "denomination": "armenian_apostolic", "name": "Alban kils\u0259si Cal\u011fal\u0131 bulaq", "name:en": "Albanian Church from XIX century", "name:pl": "Ko\u015bci\u00f3\u0142 alba\u0144ski XIX w.", "religion": "christian", "tourism": "attraction"}}, {"type": "way", "id": 604886715, "nodes": [5738491942, 7982389969, 7494478277, 7494478275, 5738491944, 13159808099, 7982398300, 5738491945, 5738491946, 7982389934, 5738491947, 5738491949, 7982398291, 7982398288, 5738491950, 7993080898, 7993080897, 13159808127, 13159808131, 13159808132, 5738491952, 7993080891, 7993080895, 7993080899, 5738491953, 5738491954, 5738491955, 5738491956, 7969017046, 5738491957, 5738491958, 9951543984, 5738491942], "tags": {"leisure": "park", "name": "Axundov Park\u0131 \\ \u015e\u0259ki"}}, {"type": "way", "id": 638585464, "nodes": [6018292564, 6018292565, 6018292566, 7985795455, 7985795454, 7985795453, 7985795452, 7985795456, 6018292567, 6018292564], "tags": {"addr:city": "\u015e\u0259ki", "amenity": "marketplace", "name": "T\u0259z\u0259 Bazar \\ \u015e\u0259ki", "shop": "farm"}}, {"type": "way", "id": 801306973, "nodes": [7494369511, 7494369512, 7494369513, 7494369514, 7494369511], "tags": {"addr:city": "\u015e\u0259ki", "addr:housenumber": "5500", "addr:street": "Heyd\u0259r \u018fliyev", "amenity": "restaurant", "building": "yes", "building:levels": "1", "cuisine": "azerbaijani", "name": "K\u00f6rp\u00fc Restoranl", "opening_hours": "09:00-00:00"}}, {"type": "way", "id": 854965244, "nodes": [7973663236, 7973663235, 7973663234, 7973663233, 7973663236], "tags": {"building": "yes", "building:levels": "1", "historic": "building", "name": "Ke\u00e7mi\u015f \u0259sg\u0259r yataqxanas\u0131", "name:en": "Historical Soldiers' hostel", "wikimedia_commons": "File:Shaki KhanPalaceGarden 004 3725.jpg"}}, {"type": "way", "id": 855008305, "nodes": [7973992351, 7973992336, 7973992350, 7973992337, 7973992349, 7973992348, 7973992339, 7973992347, 7973992351], "tags": {"leisure": "park"}}, {"type": "way", "id": 855347681, "nodes": [7976648373, 7976648372, 13159796593, 13159796594, 13159796595, 7976648371, 2841857404, 2841857410, 7976648370, 7976648369, 7976648368, 7976648373], "tags": {"leisure": "park"}}, {"type": "way", "id": 855420705, "nodes": [7977296400, 7977296399, 12624125729, 7977296398, 7977296397, 7977296396, 7977296400], "tags": {"leisure": "park"}}, {"type": "way", "id": 855928005, "nodes": [7981443291, 7981443290, 13171248652, 7981443289, 7981443288, 7981443287, 7981443286, 7981443285, 7981418784, 7981418783, 7981418782, 7981418781, 7981418780, 7981418779, 7981418778, 7981418777, 7981418776, 7981418775, 7981418774, 7981443291], "tags": {"leisure": "park", "name": "F\u00fczuli Park\u0131 \\ \u015e\u0259ki"}}, {"type": "way", "id": 856071563, "nodes": [7982349386, 7982349385, 7982349384, 7982349383, 7982349386], "tags": {"leisure": "park", "name": "\u0130stirah\u0259t M\u0259rk\u0259zi \\ \u015e\u0259ki", "tourism": "motel"}}, {"type": "way", "id": 857300709, "nodes": [7992870726, 7992870725, 7992870724, 7992870723, 7992870722, 7992870721, 7992870720, 7992870719, 7992870718, 7992870717, 7992870716, 7985795458, 7985795457, 7992870726], "tags": {"amenity": "marketplace", "name": "Simsim Bazar\u0131 \\ \u015e\u0259ki", "shop": "mall"}}, {"type": "way", "id": 857315334, "nodes": [7993080895, 7993080894, 7993080893, 7993080892, 7993080891, 7993080895], "tags": {"leisure": "park"}}, {"type": "way", "id": 857329502, "nodes": [7993235962, 7993235961, 7993235960, 7993235964, 7993235965, 7993237095, 7993237096, 7993237097, 7993237098, 7993237099, 7993237100, 7993235962], "tags": {"amenity": "restaurant", "leisure": "park", "name": "\u00dcmid \u0130stirah\u0259t \u015e\u0259ki"}}, {"type": "way", "id": 857329503, "nodes": [7993235967, 7993235966, 7993235965, 7993235964, 7993235963, 7993235967], "tags": {"amenity": "restaurant", "leisure": "park"}}, {"type": "way", "id": 857329508, "nodes": [7993237101, 7993237086, 7993237100, 7993237099, 7993237098, 7993237097, 7993237096, 7993237095, 7993237094, 7993237093, 7993237092, 7993237091, 7993237090, 7993237089, 7993237088, 7993237087, 7993237101], "tags": {"leisure": "park", "name": "C\u0259nn\u0259t Ba\u011f\u0131 \u015e\u0259ki", "tourism": "hotel"}}, {"type": "way", "id": 857329541, "nodes": [7993237408, 7993237407, 7993237417, 7993237416, 7993237456, 7993237408], "tags": {"leisure": "park", "name": "Ki\u015f Adas\u0131 \u0130stirah\u0259t"}}, {"type": "way", "id": 857329542, "nodes": [7993237415, 7993237414, 7993237413, 7993237412, 7993237411, 7993237410, 7993237409, 7993237415], "tags": {"leisure": "park", "name": "Ki\u015f Qap\u0131s\u0131 \u0130stirah\u0259t"}}, {"type": "way", "id": 857620442, "nodes": [7995783091, 7995783090, 7995783089, 7995783088, 7995783091], "tags": {"amenity": "restaurant", "landuse": "grass", "name": "\u018fhm\u0259d Haradad\u0131r Redtoran \\ \u015e\u0259ki"}}, {"type": "way", "id": 857620445, "nodes": [7995783108, 7995783107, 7995783106, 7995783105, 7995783108], "tags": {"name": "Garden Hotel \u015e\u0259ki", "tourism": "hotel"}}, {"type": "way", "id": 857889164, "nodes": [7997920091, 7997920090, 7997920089, 7997920088, 7997920087, 7997920086, 7997920091], "tags": {"leisure": "park", "name": "Bayraq Meydan\u0131 \u015e\u0259ki", "tourism": "attraction"}}, {"type": "way", "id": 894369906, "nodes": [8312902253, 8312902252, 8312902251, 8312902250, 8312902253], "tags": {"name": "Mirz\u0259 F\u0259t\u0259li Axundovun Ev Muzeyi", "name:en": "Mirza Fatali Akhundov's House Museum", "tourism": "museum", "wikidata": "Q20931780", "wikimedia_commons": "Category:House-museum of Mirza Fatali Akhundov", "wikipedia": "az:Mirz\u0259 F\u0259t\u0259li Axundovun ev-muzeyi"}}, {"type": "way", "id": 894371874, "nodes": [8312930020, 8312930019, 8312930018, 8312930017, 8312930020], "tags": {"name": "Sabit R\u0259hman\u0131n Ev Muzei", "name:en": "Sabit Rahman's House Museum", "tourism": "museum"}}, {"type": "way", "id": 1086073772, "nodes": [9951543944, 9951543940, 9951543939, 9951543938, 9951543937, 9951543943, 9951543944], "tags": {"leisure": "park"}}, {"type": "way", "id": 1311762025, "nodes": [12141967954, 12141967947, 12141967960, 12141967953, 12141967963, 12141967954], "tags": {"air_conditioning": "yes", "amenity": "restaurant", "bar": "no", "building": "hotel", "internet_access": "wlan", "name": "MinAli", "swimming_pool": "no", "toilets": "yes", "tourism": "hotel"}}, {"type": "way", "id": 1363415156, "nodes": [12624125724, 12624125723, 12624125722, 12624125721, 12624125720, 12624125719, 12624125718, 12624125717, 12624125716, 12624125715, 12624125714, 12624125713, 12624125712, 12624125724], "tags": {"leisure": "park"}}, {"type": "way", "id": 1363415189, "nodes": [12624125912, 12624125911, 12624125910, 12624125909, 12624125908, 12624125912], "tags": {"leisure": "park"}}, {"type": "way", "id": 1431706967, "nodes": [13159855122, 13159855118, 13159855124, 13159855123, 13159855122], "tags": {"leisure": "park"}}, {"type": "node", "id": 7992870716, "lat": 41.1983988, "lon": 47.1638212}, {"type": "node", "id": 7992870717, "lat": 41.1987258, "lon": 47.1622199}, {"type": "node", "id": 7992870718, "lat": 41.1991617, "lon": 47.1623969}, {"type": "node", "id": 7997920089, "lat": 41.2090701, "lon": 47.1595377}, {"type": "node", "id": 7997920090, "lat": 41.2092598, "lon": 47.1581054}, {"type": "node", "id": 7997920091, "lat": 41.2114794, "lon": 47.157982}, {"type": "node", "id": 5738491950, "lat": 41.2031022, "lon": 47.1651415}, {"type": "node", "id": 5738491952, "lat": 41.2043264, "lon": 47.1653813}, {"type": "node", "id": 5738491953, "lat": 41.2057279, "lon": 47.1654634}, {"type": "node", "id": 6018292564, "lat": 41.2020881, "lon": 47.1648138}, {"type": "node", "id": 6018292567, "lat": 41.2010911, "lon": 47.1646582}, {"type": "node", "id": 7985795452, "lat": 41.2009013, "lon": 47.1656397}, {"type": "node", "id": 7985795453, "lat": 41.2007399, "lon": 47.1662459}, {"type": "node", "id": 7985795456, "lat": 41.2008246, "lon": 47.1656021}, {"type": "node", "id": 7985795457, "lat": 41.2014896, "lon": 47.1644393}, {"type": "node", "id": 7985795458, "lat": 41.2005894, "lon": 47.164269}, {"type": "node", "id": 7992870719, "lat": 41.199416, "lon": 47.1613589}, {"type": "node", "id": 7992870720, "lat": 41.1998559, "lon": 47.1602055}, {"type": "node", "id": 7992870721, "lat": 41.2006672, "lon": 47.1609297}, {"type": "node", "id": 7992870722, "lat": 41.2007298, "lon": 47.1608064}, {"type": "node", "id": 7992870723, "lat": 41.2013211, "lon": 47.1613428}, {"type": "node", "id": 7992870724, "lat": 41.2007722, "lon": 47.163958}, {"type": "node", "id": 7992870725, "lat": 41.2015855, "lon": 47.1641162}, {"type": "node", "id": 7992870726, "lat": 41.2015532, "lon": 47.1644542}, {"type": "node", "id": 7993080891, "lat": 41.2044888, "lon": 47.1654261}, {"type": "node", "id": 7993080892, "lat": 41.2044329, "lon": 47.1660742}, {"type": "node", "id": 7993080895, "lat": 41.2049563, "lon": 47.1655031}, {"type": "node", "id": 7993080897, "lat": 41.2039459, "lon": 47.1651452}, {"type": "node", "id": 7993080898, "lat": 41.2039327, "lon": 47.1652822}, {"type": "node", "id": 7993080899, "lat": 41.2056662, "lon": 47.1656201}, {"type": "node", "id": 9951543937, "lat": 41.2022817, "lon": 47.163848}, {"type": "node", "id": 9951543938, "lat": 41.202321, "lon": 47.1635208}, {"type": "node", "id": 9951543939, "lat": 41.2023644, "lon": 47.163506}, {"type": "node", "id": 9951543940, "lat": 41.2026046, "lon": 47.1636039}, {"type": "node", "id": 9951543943, "lat": 41.2023007, "lon": 47.1638645}, {"type": "node", "id": 9951543944, "lat": 41.2025632, "lon": 47.1639244}, {"type": "node", "id": 13159808127, "lat": 41.2041212, "lon": 47.1651745}, {"type": "node", "id": 13159808131, "lat": 41.2041605, "lon": 47.165181}, {"type": "node", "id": 13159808132, "lat": 41.2041786, "lon": 47.16535}, {"type": "node", "id": 5738491944, "lat": 41.2056395, "lon": 47.1679693}, {"type": "node", "id": 5738491945, "lat": 41.2041341, "lon": 47.1669993}, {"type": "node", "id": 5738491946, "lat": 41.2040251, "lon": 47.1674829}, {"type": "node", "id": 5738491947, "lat": 41.203234, "lon": 47.167215}, {"type": "node", "id": 5738491949, "lat": 41.2029063, "lon": 47.1671346}, {"type": "node", "id": 6018292565, "lat": 41.2017127, "lon": 47.1674852}, {"type": "node", "id": 6018292566, "lat": 41.2003152, "lon": 47.1673632}, {"type": "node", "id": 7494478275, "lat": 41.2057364, "lon": 47.1677318}, {"type": "node", "id": 7982389934, "lat": 41.2032902, "lon": 47.1672329}, {"type": "node", "id": 7982398288, "lat": 41.2029987, "lon": 47.1662625}, {"type": "node", "id": 7982398291, "lat": 41.2029812, "lon": 47.1663951}, {"type": "node", "id": 7982398300, "lat": 41.2047982, "lon": 47.1672464}, {"type": "node", "id": 7985795454, "lat": 41.2007217, "lon": 47.1668762}, {"type": "node", "id": 7985795455, "lat": 41.2004715, "lon": 47.1668252}, {"type": "node", "id": 7993080893, "lat": 41.2047195, "lon": 47.1663773}, {"type": "node", "id": 7993080894, "lat": 41.2048325, "lon": 47.1664095}, {"type": "node", "id": 13159808099, "lat": 41.2047598, "lon": 47.1676433}, {"type": "node", "id": 13159855118, "lat": 41.2017489, "lon": 47.1681046}, {"type": "node", "id": 13159855122, "lat": 41.2018327, "lon": 47.1681221}, {"type": "node", "id": 13159855123, "lat": 41.2018428, "lon": 47.1679196}, {"type": "node", "id": 13159855124, "lat": 41.2017752, "lon": 47.1679048}, {"type": "node", "id": 3379425864, "lat": 41.2068171, "lon": 47.1661965}, {"type": "node", "id": 3379425865, "lat": 41.2068633, "lon": 47.1661595}, {"type": "node", "id": 3379425868, "lat": 41.2069161, "lon": 47.1661445}, {"type": "node", "id": 3379425869, "lat": 41.2069696, "lon": 47.166153}, {"type": "node", "id": 3379425870, "lat": 41.2070182, "lon": 47.1661842}, {"type": "node", "id": 3379425871, "lat": 41.2070565, "lon": 47.1662346}, {"type": "node", "id": 3379425882, "lat": 41.2067825, "lon": 47.1662514}, {"type": "node", "id": 5738491954, "lat": 41.206151, "lon": 47.1656515}, {"type": "node", "id": 5738491955, "lat": 41.2064283, "lon": 47.1659065}, {"type": "node", "id": 5738491956, "lat": 41.2064895, "lon": 47.1660163}, {"type": "node", "id": 7494369511, "lat": 41.2074104, "lon": 47.1656074}, {"type": "node", "id": 7494369512, "lat": 41.2072743, "lon": 47.1655645}, {"type": "node", "id": 7494369513, "lat": 41.207314, "lon": 47.165343}, {"type": "node", "id": 7494369514, "lat": 41.2074499, "lon": 47.1653859}, {"type": "node", "id": 7969017046, "lat": 41.2065699, "lon": 47.1662539}, {"type": "node", "id": 7997920086, "lat": 41.2112372, "lon": 47.1601224}, {"type": "node", "id": 7997920087, "lat": 41.2108054, "lon": 47.1606642}, {"type": "node", "id": 7997920088, "lat": 41.2092275, "lon": 47.1603262}, {"type": "node", "id": 3379425866, "lat": 41.2070082, "lon": 47.1665486}, {"type": "node", "id": 3379425867, "lat": 41.206958, "lon": 47.166575}, {"type": "node", "id": 3379425872, "lat": 41.2070804, "lon": 47.1662989}, {"type": "node", "id": 3379425873, "lat": 41.2070874, "lon": 47.16637}, {"type": "node", "id": 3379425874, "lat": 41.2070765, "lon": 47.1664402}, {"type": "node", "id": 3379425875, "lat": 41.2070491, "lon": 47.166502}, {"type": "node", "id": 3379425876, "lat": 41.2069041, "lon": 47.1665783}, {"type": "node", "id": 3379425877, "lat": 41.2068524, "lon": 47.1665581}, {"type": "node", "id": 3379425878, "lat": 41.2068083, "lon": 47.1665167}, {"type": "node", "id": 3379425879, "lat": 41.2067768, "lon": 47.1664586}, {"type": "node", "id": 3379425880, "lat": 41.2067611, "lon": 47.16639}, {"type": "node", "id": 3379425881, "lat": 41.2067631, "lon": 47.1663184}, {"type": "node", "id": 5738491942, "lat": 41.2065344, "lon": 47.167719}, {"type": "node", "id": 5738491957, "lat": 41.2065933, "lon": 47.1664581}, {"type": "node", "id": 5738491958, "lat": 41.2065907, "lon": 47.1668725}, {"type": "node", "id": 7494478277, "lat": 41.2063145, "lon": 47.1679531}, {"type": "node", "id": 7982389969, "lat": 41.2063804, "lon": 47.1676573}, {"type": "node", "id": 9951543984, "lat": 41.2065815, "lon": 47.1673954}, {"type": "node", "id": 2469779666, "lat": 41.2029409, "lon": 47.179311}, {"type": "node", "id": 4440520593, "lat": 41.2022738, "lon": 47.1742809}, {"type": "node", "id": 4440520694, "lat": 41.202181, "lon": 47.174533}, {"type": "node", "id": 4440560389, "lat": 41.2021853, "lon": 47.1742782}, {"type": "node", "id": 4440560689, "lat": 41.2022695, "lon": 47.1745357}, {"type": "node", "id": 7981418774, "lat": 41.202206, "lon": 47.1755277}, {"type": "node", "id": 7981418775, "lat": 41.2021041, "lon": 47.175529}, {"type": "node", "id": 7981418776, "lat": 41.2020819, "lon": 47.175816}, {"type": "node", "id": 7981418777, "lat": 41.2021566, "lon": 47.1758267}, {"type": "node", "id": 7981418778, "lat": 41.2021535, "lon": 47.1760949}, {"type": "node", "id": 7981418779, "lat": 41.2019356, "lon": 47.1761164}, {"type": "node", "id": 7981418780, "lat": 41.2019729, "lon": 47.1766032}, {"type": "node", "id": 7981418781, "lat": 41.201759, "lon": 47.1766059}, {"type": "node", "id": 7981418782, "lat": 41.2017439, "lon": 47.177027}, {"type": "node", "id": 7981418783, "lat": 41.2016147, "lon": 47.177027}, {"type": "node", "id": 7981418784, "lat": 41.2016299, "lon": 47.1766622}, {"type": "node", "id": 7981443285, "lat": 41.2014543, "lon": 47.1765643}, {"type": "node", "id": 7981443286, "lat": 41.2014442, "lon": 47.1761915}, {"type": "node", "id": 7981443287, "lat": 41.2010608, "lon": 47.1761915}, {"type": "node", "id": 7981443288, "lat": 41.2010648, "lon": 47.1756618}, {"type": "node", "id": 7981443289, "lat": 41.2012505, "lon": 47.1756591}, {"type": "node", "id": 7981443290, "lat": 41.2012716, "lon": 47.1752983}, {"type": "node", "id": 7981443291, "lat": 41.2022151, "lon": 47.1753225}, {"type": "node", "id": 12624125712, "lat": 41.203878, "lon": 47.1780221}, {"type": "node", "id": 12624125713, "lat": 41.2038406, "lon": 47.1780087}, {"type": "node", "id": 12624125714, "lat": 41.203771, "lon": 47.1783748}, {"type": "node", "id": 12624125715, "lat": 41.2038749, "lon": 47.1784446}, {"type": "node", "id": 12624125716, "lat": 41.2038114, "lon": 47.1787839}, {"type": "node", "id": 12624125717, "lat": 41.2032463, "lon": 47.1785974}, {"type": "node", "id": 12624125718, "lat": 41.2033169, "lon": 47.1783105}, {"type": "node", "id": 12624125719, "lat": 41.2034562, "lon": 47.1776721}, {"type": "node", "id": 12624125720, "lat": 41.2035763, "lon": 47.1777217}, {"type": "node", "id": 12624125721, "lat": 41.2034723, "lon": 47.1781804}, {"type": "node", "id": 12624125722, "lat": 41.2036711, "lon": 47.1782689}, {"type": "node", "id": 12624125723, "lat": 41.2037902, "lon": 47.1776922}, {"type": "node", "id": 12624125724, "lat": 41.2039284, "lon": 47.1777445}, {"type": "node", "id": 13171248652, "lat": 41.2012703, "lon": 47.1753492}, {"type": "node", "id": 2469779667, "lat": 41.2036662, "lon": 47.1797705}, {"type": "node", "id": 2469779668, "lat": 41.2034869, "lon": 47.1806969}, {"type": "node", "id": 2469779669, "lat": 41.202735, "lon": 47.1804236}, {"type": "node", "id": 7977296396, "lat": 41.2037438, "lon": 47.1818885}, {"type": "node", "id": 7977296397, "lat": 41.2035379, "lon": 47.1818229}, {"type": "node", "id": 7977296398, "lat": 41.2033724, "lon": 47.1815747}, {"type": "node", "id": 7977296399, "lat": 41.2034623, "lon": 47.1812287}, {"type": "node", "id": 7977296400, "lat": 41.2038558, "lon": 47.1813936}, {"type": "node", "id": 7977708239, "lat": 41.2033079, "lon": 47.17972}, {"type": "node", "id": 7977708240, "lat": 41.2030859, "lon": 47.1796489}, {"type": "node", "id": 7977708241, "lat": 41.2031363, "lon": 47.179378}, {"type": "node", "id": 7977708242, "lat": 41.203323, "lon": 47.1796368}, {"type": "node", "id": 7978760403, "lat": 41.2034442, "lon": 47.1806798}, {"type": "node", "id": 12141967947, "lat": 41.2019333, "lon": 47.1826877}, {"type": "node", "id": 12141967953, "lat": 41.2019547, "lon": 47.182481}, {"type": "node", "id": 12141967954, "lat": 41.2018677, "lon": 47.1826095}, {"type": "node", "id": 12141967960, "lat": 41.2020201, "lon": 47.1825591}, {"type": "node", "id": 12141967963, "lat": 41.2019092, "lon": 47.1825485}, {"type": "node", "id": 12624125729, "lat": 41.2034027, "lon": 47.181458}, {"type": "node", "id": 7995783105, "lat": 41.2187329, "lon": 47.1694377}, {"type": "node", "id": 7995783106, "lat": 41.2178855, "lon": 47.1690756}, {"type": "node", "id": 7995783107, "lat": 41.2180086, "lon": 47.168633}, {"type": "node", "id": 7995783108, "lat": 41.2188782, "lon": 47.1690421}, {"type": "node", "id": 7995783088, "lat": 41.2272948, "lon": 47.1734235}, {"type": "node", "id": 7995783089, "lat": 41.2267663, "lon": 47.1731794}, {"type": "node", "id": 7995783090, "lat": 41.2268914, "lon": 47.172828}, {"type": "node", "id": 7995783091, "lat": 41.2274078, "lon": 47.1731338}, {"type": "node", "id": 7982349383, "lat": 41.2352909, "lon": 47.1842515}, {"type": "node", "id": 7982349384, "lat": 41.2338043, "lon": 47.1832806}, {"type": "node", "id": 7982349385, "lat": 41.2349077, "lon": 47.1805313}, {"type": "node", "id": 7982349386, "lat": 41.2362934, "lon": 47.1815318}, {"type": "node", "id": 7976648372, "lat": 41.2021202, "lon": 47.1923465}, {"type": "node", "id": 7976648373, "lat": 41.2021828, "lon": 47.1924591}, {"type": "node", "id": 8312930017, "lat": 41.2017439, "lon": 47.1890447}, {"type": "node", "id": 8312930018, "lat": 41.201534, "lon": 47.1891224}, {"type": "node", "id": 8312930019, "lat": 41.2014977, "lon": 47.1888971}, {"type": "node", "id": 8312930020, "lat": 41.2017045, "lon": 47.188877}, {"type": "node", "id": 13159796593, "lat": 41.2007742, "lon": 47.1923035}, {"type": "node", "id": 2775370041, "lat": 41.2028674, "lon": 47.1957495}, {"type": "node", "id": 2775370107, "lat": 41.2027581, "lon": 47.196012}, {"type": "node", "id": 2775370109, "lat": 41.2026678, "lon": 47.1960374}, {"type": "node", "id": 2775370114, "lat": 41.2027194, "lon": 47.1960966}, {"type": "node", "id": 2775370118, "lat": 41.2024972, "lon": 47.1967212}, {"type": "node", "id": 2775370121, "lat": 41.2026381, "lon": 47.1968391}, {"type": "node", "id": 2775370123, "lat": 41.20268, "lon": 47.1968695}, {"type": "node", "id": 2775370125, "lat": 41.2031854, "lon": 47.1972259}, {"type": "node", "id": 2775370127, "lat": 41.2031968, "lon": 47.1972805}, {"type": "node", "id": 2775370129, "lat": 41.2032335, "lon": 47.1972666}, {"type": "node", "id": 2775370131, "lat": 41.2038563, "lon": 47.1978458}, {"type": "node", "id": 2775370142, "lat": 41.2037586, "lon": 47.1985749}, {"type": "node", "id": 2775370146, "lat": 41.2041531, "lon": 47.1989066}, {"type": "node", "id": 2775370149, "lat": 41.2041213, "lon": 47.1990036}, {"type": "node", "id": 2775370156, "lat": 41.2042494, "lon": 47.1989761}, {"type": "node", "id": 2775370166, "lat": 41.2048905, "lon": 47.1987446}, {"type": "node", "id": 2775370171, "lat": 41.2049889, "lon": 47.1984748}, {"type": "node", "id": 2775370173, "lat": 41.2049983, "lon": 47.1983957}, {"type": "node", "id": 2775370178, "lat": 41.2052533, "lon": 47.197972}, {"type": "node", "id": 2775370180, "lat": 41.2050173, "lon": 47.1977962}, {"type": "node", "id": 2775370184, "lat": 41.205086, "lon": 47.1974799}, {"type": "node", "id": 2775370185, "lat": 41.2057038, "lon": 47.1963898}, {"type": "node", "id": 2775370191, "lat": 41.2051232, "lon": 47.1964617}, {"type": "node", "id": 2775370195, "lat": 41.2047908, "lon": 47.1962995}, {"type": "node", "id": 2775370197, "lat": 41.2044079, "lon": 47.1960145}, {"type": "node", "id": 2775370200, "lat": 41.2043253, "lon": 47.1959868}, {"type": "node", "id": 2775370207, "lat": 41.2035471, "lon": 47.194775}, {"type": "node", "id": 2775370208, "lat": 41.2035195, "lon": 47.1947383}, {"type": "node", "id": 2775370210, "lat": 41.2034209, "lon": 47.1947694}, {"type": "node", "id": 2775370213, "lat": 41.2045002, "lon": 47.1974226}, {"type": "node", "id": 2775370214, "lat": 41.2044117, "lon": 47.197796}, {"type": "node", "id": 2775370216, "lat": 41.2043298, "lon": 47.1977617}, {"type": "node", "id": 2775370217, "lat": 41.2044182, "lon": 47.1973883}, {"type": "node", "id": 2775428369, "lat": 41.203453, "lon": 47.1969195}, {"type": "node", "id": 2775428370, "lat": 41.2035012, "lon": 47.1969209}, {"type": "node", "id": 2775428377, "lat": 41.2034328, "lon": 47.1967062}, {"type": "node", "id": 2775428378, "lat": 41.2033709, "lon": 47.1967082}, {"type": "node", "id": 2775428385, "lat": 41.203302, "lon": 47.1969159}, {"type": "node", "id": 2841857404, "lat": 41.2009765, "lon": 47.1930581}, {"type": "node", "id": 2841857410, "lat": 41.2013658, "lon": 47.1938035}, {"type": "node", "id": 2847984539, "lat": 41.2034342, "lon": 47.1967836}, {"type": "node", "id": 2847984540, "lat": 41.2033714, "lon": 47.1967809}, {"type": "node", "id": 2847984541, "lat": 41.2034659, "lon": 47.1968368}, {"type": "node", "id": 2847984542, "lat": 41.2035027, "lon": 47.196838}, {"type": "node", "id": 2847984543, "lat": 41.2033029, "lon": 47.196833}, {"type": "node", "id": 2847984544, "lat": 41.2033366, "lon": 47.1968336}, {"type": "node", "id": 2847984545, "lat": 41.2033471, "lon": 47.1969167}, {"type": "node", "id": 2847984546, "lat": 41.2033974, "lon": 47.1969519}, {"type": "node", "id": 2847984547, "lat": 41.2033661, "lon": 47.1969393}, {"type": "node", "id": 2847984548, "lat": 41.2034286, "lon": 47.1969442}, {"type": "node", "id": 2847984549, "lat": 41.2033502, "lon": 47.1968022}, {"type": "node", "id": 2847984550, "lat": 41.2034526, "lon": 47.1968039}, {"type": "node", "id": 2912911625, "lat": 41.2034584, "lon": 47.1947309}, {"type": "node", "id": 2912911626, "lat": 41.2034123, "lon": 47.1948558}, {"type": "node", "id": 2912911627, "lat": 41.2035568, "lon": 47.1948322}, {"type": "node", "id": 3268564609, "lat": 41.2027019, "lon": 47.1959778}, {"type": "node", "id": 3268564610, "lat": 41.2026759, "lon": 47.1959954}, {"type": "node", "id": 3268564611, "lat": 41.2026797, "lon": 47.1960651}, {"type": "node", "id": 3268564614, "lat": 41.202716, "lon": 47.19598}, {"type": "node", "id": 3268564615, "lat": 41.202687, "lon": 47.1959836}, {"type": "node", "id": 3268564616, "lat": 41.2026689, "lon": 47.1960122}, {"type": "node", "id": 3268564617, "lat": 41.2026724, "lon": 47.1960534}, {"type": "node", "id": 3268564619, "lat": 41.2034199, "lon": 47.194877}, {"type": "node", "id": 3268564620, "lat": 41.2034084, "lon": 47.1948263}, {"type": "node", "id": 3268564621, "lat": 41.2034114, "lon": 47.1947966}, {"type": "node", "id": 3268564622, "lat": 41.2034373, "lon": 47.1947461}, {"type": "node", "id": 3268564623, "lat": 41.203479, "lon": 47.1947256}, {"type": "node", "id": 3268564624, "lat": 41.2034999, "lon": 47.1947281}, {"type": "node", "id": 3268564625, "lat": 41.2035351, "lon": 47.1947542}, {"type": "node", "id": 3268564626, "lat": 41.2035552, "lon": 47.1948026}, {"type": "node", "id": 3268564627, "lat": 41.2035534, "lon": 47.1948549}, {"type": "node", "id": 3268564628, "lat": 41.2035461, "lon": 47.194876}, {"type": "node", "id": 3268570056, "lat": 41.2027222, "lon": 47.1959834}, {"type": "node", "id": 3268570057, "lat": 41.202709, "lon": 47.195978}, {"type": "node", "id": 3268570058, "lat": 41.2026942, "lon": 47.1959796}, {"type": "node", "id": 3268570059, "lat": 41.202681, "lon": 47.1959888}, {"type": "node", "id": 3268570060, "lat": 41.2026718, "lon": 47.1960034}, {"type": "node", "id": 3268570161, "lat": 41.2026671, "lon": 47.1960247}, {"type": "node", "id": 3268570162, "lat": 41.2024981, "lon": 47.1966442}, {"type": "node", "id": 3268570163, "lat": 41.2024615, "lon": 47.1966868}, {"type": "node", "id": 3268570164, "lat": 41.202462, "lon": 47.1966743}, {"type": "node", "id": 3268570165, "lat": 41.2024654, "lon": 47.1966626}, {"type": "node", "id": 3268570166, "lat": 41.2024715, "lon": 47.1966529}, {"type": "node", "id": 3268570167, "lat": 41.2024795, "lon": 47.1966462}, {"type": "node", "id": 3268570168, "lat": 41.2024887, "lon": 47.1966432}, {"type": "node", "id": 3268570169, "lat": 41.2024873, "lon": 47.1967218}, {"type": "node", "id": 3268570170, "lat": 41.2024778, "lon": 47.196718}, {"type": "node", "id": 3268570171, "lat": 41.2024698, "lon": 47.1967102}, {"type": "node", "id": 3268570172, "lat": 41.2024642, "lon": 47.1966995}, {"type": "node", "id": 3268570173, "lat": 41.2025075, "lon": 47.1966444}, {"type": "node", "id": 3268570174, "lat": 41.2025086, "lon": 47.1967198}, {"type": "node", "id": 3268570175, "lat": 41.2026466, "lon": 47.1968811}, {"type": "node", "id": 3268570176, "lat": 41.2026357, "lon": 47.1968481}, {"type": "node", "id": 3268570177, "lat": 41.2026354, "lon": 47.1968576}, {"type": "node", "id": 3268570178, "lat": 41.2026373, "lon": 47.1968668}, {"type": "node", "id": 3268570179, "lat": 41.2026411, "lon": 47.1968749}, {"type": "node", "id": 3268570180, "lat": 41.2026537, "lon": 47.196885}, {"type": "node", "id": 3268570181, "lat": 41.2026614, "lon": 47.1968857}, {"type": "node", "id": 3268570182, "lat": 41.2026688, "lon": 47.1968831}, {"type": "node", "id": 3268570183, "lat": 41.2026752, "lon": 47.1968775}, {"type": "node", "id": 3268570184, "lat": 41.203182, "lon": 47.1972373}, {"type": "node", "id": 3268570185, "lat": 41.2031814, "lon": 47.19725}, {"type": "node", "id": 3268570186, "lat": 41.2031839, "lon": 47.1972623}, {"type": "node", "id": 3268570187, "lat": 41.2031892, "lon": 47.1972728}, {"type": "node", "id": 3268570188, "lat": 41.203205, "lon": 47.1972843}, {"type": "node", "id": 3268570189, "lat": 41.2032136, "lon": 47.1972848}, {"type": "node", "id": 3268570190, "lat": 41.2032219, "lon": 47.1972819}, {"type": "node", "id": 3268570191, "lat": 41.2032293, "lon": 47.1972759}, {"type": "node", "id": 3268570196, "lat": 41.2051871, "lon": 47.1979523}, {"type": "node", "id": 3268570197, "lat": 41.2052073, "lon": 47.1980423}, {"type": "node", "id": 3268570198, "lat": 41.205198, "lon": 47.1979419}, {"type": "node", "id": 3268570199, "lat": 41.2052109, "lon": 47.197937}, {"type": "node", "id": 3268570200, "lat": 41.2052243, "lon": 47.1979379}, {"type": "node", "id": 3268570201, "lat": 41.2052367, "lon": 47.1979447}, {"type": "node", "id": 3268570202, "lat": 41.2052467, "lon": 47.1979564}, {"type": "node", "id": 3268570203, "lat": 41.2052556, "lon": 47.1979878}, {"type": "node", "id": 3268570204, "lat": 41.2052543, "lon": 47.1980038}, {"type": "node", "id": 3268570205, "lat": 41.2052494, "lon": 47.1980185}, {"type": "node", "id": 3268570206, "lat": 41.2052415, "lon": 47.1980307}, {"type": "node", "id": 3268570207, "lat": 41.2052312, "lon": 47.1980392}, {"type": "node", "id": 3268570208, "lat": 41.2052194, "lon": 47.1980431}, {"type": "node", "id": 3268570962, "lat": 41.2038236, "lon": 47.197892}, {"type": "node", "id": 3268570963, "lat": 41.2038223, "lon": 47.1979466}, {"type": "node", "id": 3268570964, "lat": 41.2038412, "lon": 47.1978756}, {"type": "node", "id": 3268570965, "lat": 41.2038315, "lon": 47.197882}, {"type": "node", "id": 3268570966, "lat": 41.2038184, "lon": 47.1979047}, {"type": "node", "id": 3268570967, "lat": 41.2038164, "lon": 47.197919}, {"type": "node", "id": 3268570968, "lat": 41.2038177, "lon": 47.1979334}, {"type": "node", "id": 3268570969, "lat": 41.2038299, "lon": 47.1979576}, {"type": "node", "id": 3268570970, "lat": 41.2038424, "lon": 47.1979676}, {"type": "node", "id": 3268570971, "lat": 41.2037989, "lon": 47.1985107}, {"type": "node", "id": 3268570972, "lat": 41.2038219, "lon": 47.1985836}, {"type": "node", "id": 3268570973, "lat": 41.203788, "lon": 47.1985101}, {"type": "node", "id": 3268570974, "lat": 41.2037775, "lon": 47.1985139}, {"type": "node", "id": 3268570975, "lat": 41.2037683, "lon": 47.1985217}, {"type": "node", "id": 3268570976, "lat": 41.2037613, "lon": 47.1985329}, {"type": "node", "id": 3268570977, "lat": 41.2037571, "lon": 47.1985463}, {"type": "node", "id": 3268570978, "lat": 41.2037562, "lon": 47.1985608}, {"type": "node", "id": 3268570979, "lat": 41.2037643, "lon": 47.1985877}, {"type": "node", "id": 3268570980, "lat": 41.2037726, "lon": 47.1985975}, {"type": "node", "id": 3268570981, "lat": 41.2037828, "lon": 47.1986035}, {"type": "node", "id": 3268570982, "lat": 41.2037939, "lon": 47.198605}, {"type": "node", "id": 3268570983, "lat": 41.2038048, "lon": 47.198602}, {"type": "node", "id": 3268570984, "lat": 41.2038144, "lon": 47.1985946}, {"type": "node", "id": 3268570985, "lat": 41.2041364, "lon": 47.1989241}, {"type": "node", "id": 3268570986, "lat": 41.2041248, "lon": 47.1989479}, {"type": "node", "id": 3268570987, "lat": 41.2041196, "lon": 47.1989754}, {"type": "node", "id": 3268570994, "lat": 41.2042415, "lon": 47.1990242}, {"type": "node", "id": 3268570995, "lat": 41.2042481, "lon": 47.199001}, {"type": "node", "id": 3268571115, "lat": 41.205597, "lon": 47.196413}, {"type": "node", "id": 3268571116, "lat": 41.2056537, "lon": 47.1965129}, {"type": "node", "id": 3268571117, "lat": 41.2056719, "lon": 47.1965094}, {"type": "node", "id": 3268571118, "lat": 41.2056884, "lon": 47.1964986}, {"type": "node", "id": 3268571119, "lat": 41.2057017, "lon": 47.1964817}, {"type": "node", "id": 3268571120, "lat": 41.2057104, "lon": 47.1964602}, {"type": "node", "id": 3268571121, "lat": 41.2057138, "lon": 47.1964362}, {"type": "node", "id": 3268571122, "lat": 41.2057115, "lon": 47.196412}, {"type": "node", "id": 3268571123, "lat": 41.2056905, "lon": 47.1963711}, {"type": "node", "id": 3268571124, "lat": 41.2056735, "lon": 47.196359}, {"type": "node", "id": 3268571125, "lat": 41.2056544, "lon": 47.1963548}, {"type": "node", "id": 3268571126, "lat": 41.2056354, "lon": 47.1963589}, {"type": "node", "id": 3268571127, "lat": 41.2056183, "lon": 47.196371}, {"type": "node", "id": 3268571128, "lat": 41.205605, "lon": 47.1963897}, {"type": "node", "id": 3653043682, "lat": 41.2033429, "lon": 47.1968155}, {"type": "node", "id": 3653043683, "lat": 41.20336, "lon": 47.1967902}, {"type": "node", "id": 3653043684, "lat": 41.2034441, "lon": 47.1967926}, {"type": "node", "id": 3653043685, "lat": 41.2034605, "lon": 47.1968192}, {"type": "node", "id": 3653043686, "lat": 41.203442, "lon": 47.1969336}, {"type": "node", "id": 3653043687, "lat": 41.2034133, "lon": 47.1969505}, {"type": "node", "id": 3653043688, "lat": 41.2033812, "lon": 47.1969481}, {"type": "node", "id": 3653043689, "lat": 41.2033546, "lon": 47.1969277}, {"type": "node", "id": 7973663233, "lat": 41.2047775, "lon": 47.1975693}, {"type": "node", "id": 7973663234, "lat": 41.2046312, "lon": 47.1975036}, {"type": "node", "id": 7973663235, "lat": 41.2047442, "lon": 47.1970597}, {"type": "node", "id": 7973663236, "lat": 41.2048905, "lon": 47.1971255}, {"type": "node", "id": 7973663244, "lat": 41.2029522, "lon": 47.1954866}, {"type": "node", "id": 7973663245, "lat": 41.2029668, "lon": 47.1954605}, {"type": "node", "id": 7973663246, "lat": 41.2029673, "lon": 47.1955309}, {"type": "node", "id": 7973663247, "lat": 41.2030031, "lon": 47.1954739}, {"type": "node", "id": 7973663249, "lat": 41.2039776, "lon": 47.1953495}, {"type": "node", "id": 7973663250, "lat": 41.2039905, "lon": 47.19537}, {"type": "node", "id": 7973663251, "lat": 41.2039834, "lon": 47.1954089}, {"type": "node", "id": 7973663252, "lat": 41.2039466, "lon": 47.1953552}, {"type": "node", "id": 7973663253, "lat": 41.2043608, "lon": 47.1959487}, {"type": "node", "id": 7973663254, "lat": 41.2043915, "lon": 47.1959487}, {"type": "node", "id": 7973663255, "lat": 41.2044072, "lon": 47.1959694}, {"type": "node", "id": 7973663256, "lat": 41.2050787, "lon": 47.198258}, {"type": "node", "id": 7973906358, "lat": 41.2056384, "lon": 47.1965126}, {"type": "node", "id": 7973906359, "lat": 41.2056218, "lon": 47.1965042}, {"type": "node", "id": 7973992323, "lat": 41.2038527, "lon": 47.1978745}, {"type": "node", "id": 7973992336, "lat": 41.2042464, "lon": 47.1972796}, {"type": "node", "id": 7973992337, "lat": 41.2038751, "lon": 47.1973479}, {"type": "node", "id": 7973992339, "lat": 41.2043233, "lon": 47.1976252}, {"type": "node", "id": 7973992347, "lat": 41.2043597, "lon": 47.1974768}, {"type": "node", "id": 7973992348, "lat": 41.2042902, "lon": 47.1977605}, {"type": "node", "id": 7973992349, "lat": 41.2038235, "lon": 47.1975586}, {"type": "node", "id": 7973992350, "lat": 41.2039258, "lon": 47.1971408}, {"type": "node", "id": 7973992351, "lat": 41.2043925, "lon": 47.1973428}, {"type": "node", "id": 7976648368, "lat": 41.2021041, "lon": 47.1925463}, {"type": "node", "id": 7976648369, "lat": 41.2017186, "lon": 47.1934636}, {"type": "node", "id": 7976648370, "lat": 41.2016137, "lon": 47.1936017}, {"type": "node", "id": 7976648371, "lat": 41.2009619, "lon": 47.1930224}, {"type": "node", "id": 8312902253, "lat": 41.2023654, "lon": 47.1989635}, {"type": "node", "id": 12624100440, "lat": 41.2043584, "lon": 47.1976407}, {"type": "node", "id": 12624125908, "lat": 41.2007651, "lon": 47.1954618}, {"type": "node", "id": 12624125909, "lat": 41.200975, "lon": 47.1958039}, {"type": "node", "id": 12624125910, "lat": 41.2005077, "lon": 47.196127}, {"type": "node", "id": 12624125911, "lat": 41.2003362, "lon": 47.1955383}, {"type": "node", "id": 12624125912, "lat": 41.2007399, "lon": 47.1953438}, {"type": "node", "id": 13159796594, "lat": 41.2007419, "lon": 47.1926281}, {"type": "node", "id": 13159796595, "lat": 41.2008993, "lon": 47.193068}, {"type": "node", "id": 2775370152, "lat": 41.2041975, "lon": 47.1990672}, {"type": "node", "id": 2775370157, "lat": 41.2046463, "lon": 47.1991373}, {"type": "node", "id": 2775370159, "lat": 41.2046882, "lon": 47.1991821}, {"type": "node", "id": 3268570988, "lat": 41.204129, "lon": 47.1990278}, {"type": "node", "id": 3268570989, "lat": 41.2041418, "lon": 47.1990479}, {"type": "node", "id": 3268570990, "lat": 41.2041586, "lon": 47.1990619}, {"type": "node", "id": 3268570991, "lat": 41.2041777, "lon": 47.1990685}, {"type": "node", "id": 3268570992, "lat": 41.2042151, "lon": 47.1990588}, {"type": "node", "id": 3268570993, "lat": 41.2042302, "lon": 47.1990441}, {"type": "node", "id": 3268570996, "lat": 41.2046938, "lon": 47.1991104}, {"type": "node", "id": 3268570997, "lat": 41.2046461, "lon": 47.1991497}, {"type": "node", "id": 3268570998, "lat": 41.2046487, "lon": 47.1991616}, {"type": "node", "id": 3268570999, "lat": 41.2046539, "lon": 47.1991719}, {"type": "node", "id": 3268571000, "lat": 41.2046611, "lon": 47.1991797}, {"type": "node", "id": 3268571001, "lat": 41.2046698, "lon": 47.1991842}, {"type": "node", "id": 3268571002, "lat": 41.2046791, "lon": 47.199185}, {"type": "node", "id": 3268571003, "lat": 41.2046963, "lon": 47.1991757}, {"type": "node", "id": 3268571004, "lat": 41.2047025, "lon": 47.1991662}, {"type": "node", "id": 3268571005, "lat": 41.2047063, "lon": 47.1991547}, {"type": "node", "id": 3268571006, "lat": 41.2047073, "lon": 47.1991422}, {"type": "node", "id": 3268571007, "lat": 41.2047054, "lon": 47.1991299}, {"type": "node", "id": 3268571008, "lat": 41.2047007, "lon": 47.199119}, {"type": "node", "id": 8312902250, "lat": 41.2024159, "lon": 47.1991526}, {"type": "node", "id": 8312902251, "lat": 41.2021192, "lon": 47.1993577}, {"type": "node", "id": 8312902252, "lat": 41.2020799, "lon": 47.1990882}, {"type": "node", "id": 7993237407, "lat": 41.2442959, "lon": 47.1890259}, {"type": "node", "id": 7993237408, "lat": 41.2448328, "lon": 47.1890473}, {"type": "node", "id": 7993237409, "lat": 41.2442984, "lon": 47.1886986}, {"type": "node", "id": 7993237410, "lat": 41.2438668, "lon": 47.1878725}, {"type": "node", "id": 7993237411, "lat": 41.2432456, "lon": 47.1882936}, {"type": "node", "id": 7993237412, "lat": 41.2430399, "lon": 47.1888274}, {"type": "node", "id": 7993237413, "lat": 41.2431267, "lon": 47.1889561}, {"type": "node", "id": 7993237414, "lat": 41.2433505, "lon": 47.1889642}, {"type": "node", "id": 7993237415, "lat": 41.244254, "lon": 47.1888542}, {"type": "node", "id": 7993237416, "lat": 41.2448813, "lon": 47.1907693}, {"type": "node", "id": 7993237417, "lat": 41.2440342, "lon": 47.189675}, {"type": "node", "id": 7993237086, "lat": 41.2440564, "lon": 47.1980385}, {"type": "node", "id": 7993237087, "lat": 41.2440201, "lon": 47.1973407}, {"type": "node", "id": 7993237088, "lat": 41.2445001, "lon": 47.1969625}, {"type": "node", "id": 7993237097, "lat": 41.2449801, "lon": 47.1986791}, {"type": "node", "id": 7993237098, "lat": 41.2445949, "lon": 47.1987462}, {"type": "node", "id": 7993237099, "lat": 41.2445243, "lon": 47.199001}, {"type": "node", "id": 7993237101, "lat": 41.244008, "lon": 47.1975714}, {"type": "node", "id": 7993237456, "lat": 41.2452806, "lon": 47.1903938}, {"type": "node", "id": 7993237089, "lat": 41.2456174, "lon": 47.1979201}, {"type": "node", "id": 7993237090, "lat": 41.2457747, "lon": 47.1978638}, {"type": "node", "id": 7993237091, "lat": 41.2465612, "lon": 47.1986282}, {"type": "node", "id": 7993237096, "lat": 41.2451031, "lon": 47.1990252}, {"type": "node", "id": 7993235960, "lat": 41.2447865, "lon": 47.2001061}, {"type": "node", "id": 7993235961, "lat": 41.2446191, "lon": 47.2001678}, {"type": "node", "id": 7993235962, "lat": 41.2442621, "lon": 47.2000042}, {"type": "node", "id": 7993235963, "lat": 41.2447986, "lon": 47.2002697}, {"type": "node", "id": 7993235964, "lat": 41.2448429, "lon": 47.2001758}, {"type": "node", "id": 7993237100, "lat": 41.2441592, "lon": 47.1990305}, {"type": "node", "id": 7993235965, "lat": 41.2454298, "lon": 47.1996018}, {"type": "node", "id": 7993235966, "lat": 41.2457384, "lon": 47.2003931}, {"type": "node", "id": 7993235967, "lat": 41.2457323, "lon": 47.2006211}, {"type": "node", "id": 7993237092, "lat": 41.2463635, "lon": 47.1999586}, {"type": "node", "id": 7993237093, "lat": 41.2458957, "lon": 47.2002}, {"type": "node", "id": 7993237094, "lat": 41.2457303, "lon": 47.1995723}, {"type": "node", "id": 7993237095, "lat": 41.2454802, "lon": 47.1991619}]}