{"version": 0.6, "generator": "Overpass API 0.7.62.8 e802775f", "osm3s": {"timestamp_osm_base": "2025-11-22T14:26:00Z", "copyright": "The data included in this document is from www.openstreetmap.org. The data is made available under ODbL."}, "elements": [{"type": "node", "id": 301037266, "lat": 28.5392027, "lon": 77.194444, "tags": {"amenity": "cafe"}}, {"type": "node", "id": 544510362, "lat": 28.5342313, "lon": 77.2145639, "tags": {"amenity": "restaurant", "name": "Aggarwal Sweets"}}, {"type": "node", "id": 544510428, "lat": 28.5308092, "lon": 77.2179083, "tags": {"amenity": "restaurant", "name": "Raju Dhaba"}}, {"type": "node", "id": 560417307, "lat": 28.5369219, "lon": 77.2118299, "tags": {"amenity": "restaurant", "name": "Sagar Ratna"}}, {"type": "node", "id": 1024317412, "lat": 28.5406867, "lon": 77.2058178, "tags": {"historic": "archaeological_site", "is_in": "New Delhi, Delhi, India", "name": "Octagonal observation post"}}, {"type": "node", "id": 1024317426, "lat": 28.5406262, "lon": 77.2061002, "tags": {"historic": "archaeological_site", "name": "Bijaymandal Hall Ruins"}}, {"type": "node", "id": 1024317438, "lat": 28.5408107, "lon": 77.2056042, "tags": {"historic": "archaeological_site", "name": "Dome"}}, {"type": "node", "id": 1119661736, "lat": 28.539902, "lon": 77.213146, "tags": {"historic": "archaeological_site", "name": "Lal Gumbad"}}, {"type": "node", "id": 1332266859, "lat": 28.524386, "lon": 77.2044421, "tags": {"name": "Tree of Life", "tourism": "guest_house"}}, {"type": "node", "id": 1580633220, "lat": 28.5288757, "lon": 77.2203738, "tags": {"addr:housename": "DLF South Court", "addr:place": "Saket", "addr:state": "DL", "addr:unit": "145", "branch": "Saket", "email": "knma@shivnadarfoundation.in", "name": "Kiran Nadar Museum of Art", "opening_hours": "Tu-Su 10:30-18:30; PH closed", "phone": "+91 11 4916 0000", "short_name": "KNMA", "tourism": "gallery", "website": "https://knma.in/", "wikidata": "Q55616048", "wikipedia": "en:Kiran Nadar Museum of Art"}}, {"type": "node", "id": 2102480279, "lat": 28.5394584, "lon": 77.2011381, "tags": {"name": "Ashram Dormitory", "tourism": "hostel"}}, {"type": "node", "id": 2102480284, "lat": 28.5396291, "lon": 77.2000301, "tags": {"name": "Sri Aurobindo Bust", "tourism": "attraction"}}, {"type": "node", "id": 2102480338, "lat": 28.5393791, "lon": 77.2009833, "tags": {"amenity": "restaurant", "man_made": "Ashram Dining Hall"}}, {"type": "node", "id": 2474266972, "lat": 28.5229836, "lon": 77.2081097, "tags": {"name": "Silver Ferns", "tourism": "hotel", "wikidata": "Q111861279"}}, {"type": "node", "id": 2502826208, "lat": 28.5278241, "lon": 77.2204446, "tags": {"name": "Country Inn By Carlson", "tourism": "hotel", "website": "https://www.countryinns.com/new-delhi-hotel-in-110017/inddesk"}}, {"type": "node", "id": 2525210553, "lat": 28.5345041, "lon": 77.2144488, "tags": {"amenity": "marketplace", "designation": "Software Service", "name": "Fervent Software Solutions P Ltd.", "source": "Self"}}, {"type": "node", "id": 2525233685, "lat": 28.5366155, "lon": 77.2122199, "tags": {"addr:housenumber": "48/1", "addr:postcode": "110017", "addr:street": "August Kranti Marg", "amenity": "marketplace", "name": "Malviya Nagar, Main Market"}}, {"type": "node", "id": 2591734227, "lat": 28.5481071, "lon": 77.2313232, "tags": {"addr:housenumber": "B-104", "addr:street": "Greater Kailash-1", "contact:phone": "+91-11-4056-4173;+91-11-4056-4524", "name": "Ikhaya Hotel", "phone": "+918527205267", "tourism": "hotel"}}, {"type": "node", "id": 2593805943, "lat": 28.5496836, "lon": 77.2363971, "tags": {"amenity": "cafe", "brand": "Starbucks", "brand:pa": "\u0a38\u0a1f\u0a3e\u0a30\u0a2c\u0a15\u0a38", "brand:ur": "\u0627\u0633\u0679\u0627\u0631\u0628\u06a9\u0633", "brand:wikidata": "Q37158", "brand:wikipedia": "en:Starbucks", "cuisine": "coffee_shop", "name": "Starbucks", "name:pa": "\u0a38\u0a1f\u0a3e\u0a30\u0a2c\u0a15\u0a38", "name:ur": "\u0627\u0633\u0679\u0627\u0631\u0628\u06a9\u0633", "official_name": "Starbucks Coffee", "official_name:pa": "\u0a38\u0a1f\u0a3e\u0a30\u0a2c\u0a15\u0a38 \u0a15\u0a4c\u0a2b\u0a40", "official_name:ur": "\u0627\u0633\u0679\u0627\u0631\u0628\u06a9\u0633 \u06a9\u0627\u0641\u06cc", "takeaway": "yes"}}, {"type": "node", "id": 2654012071, "lat": 28.5234052, "lon": 77.2076313, "tags": {"amenity": "cafe", "brand": "Cafe Coffee Day", "brand:wikidata": "Q5017235", "cuisine": "coffee_shop", "name": "Cafe Coffee Day", "takeaway": "yes"}}, {"type": "node", "id": 2804122830, "lat": 28.5413853, "lon": 77.2149994, "tags": {"historic": "archaeological_site", "name": "Old Stable"}}, {"type": "node", "id": 2804122868, "lat": 28.5408508, "lon": 77.2156244, "tags": {"historic": "archaeological_site"}}, {"type": "node", "id": 2804122879, "lat": 28.5413688, "lon": 77.215359, "tags": {"historic": "archaeological_site"}}, {"type": "node", "id": 2804122882, "lat": 28.5414438, "lon": 77.213491, "tags": {"historic": "archaeological_site"}}, {"type": "node", "id": 2833610956, "lat": 28.522077, "lon": 77.2154562, "tags": {"name": "Hotel Palm Greens", "phone": "+91-11-2955-2720;+91-11-2955-2855;+91-11-2955-5457;+91-99109-91761;+91-93131-31313", "tourism": "guest_house"}}, {"type": "node", "id": 2950924615, "lat": 28.5328046, "lon": 77.2200835, "tags": {"historic": "wayside_shrine", "name": "Mazar"}}, {"type": "node", "id": 2950924616, "lat": 28.5326478, "lon": 77.2206557, "tags": {"historic": "wayside_shrine", "name": "Samadhi"}}, {"type": "node", "id": 2991892709, "lat": 28.5389261, "lon": 77.1928283, "tags": {"name": "NIE Guest House", "tourism": "guest_house"}}, {"type": "node", "id": 3109196352, "lat": 28.5391445, "lon": 77.206399, "tags": {"historic": "monument", "name": "Begumpuri Masjid", "name:en": "Begumpuri Masjid", "note": "The 3rd largest monument in Delhi. Built during the reign of Muhommad Shah Tughlaq"}}, {"type": "node", "id": 3404446567, "lat": 28.5400024, "lon": 77.2343195, "tags": {"amenity": "cafe", "brand": "Cafe Coffee Day", "brand:wikidata": "Q5017235", "cuisine": "coffee_shop", "name": "Cafe Coffee Day", "takeaway": "yes"}}, {"type": "node", "id": 3404446571, "lat": 28.5400918, "lon": 77.234394, "tags": {"amenity": "restaurant", "cuisine": "indian", "name": "Chehel Pehel"}}, {"type": "node", "id": 3503120597, "lat": 28.5287087, "lon": 77.2126175, "tags": {"addr:housenumber": "92", "addr:street": "Hauz Rani", "amenity": "restaurant", "name": "Afghan Restaurant"}}, {"type": "node", "id": 3636402007, "lat": 28.5447888, "lon": 77.1911891, "tags": {"amenity": "cafe", "name": "Shiru Cafe, IIT Delhi"}}, {"type": "node", "id": 3637466928, "lat": 28.5446234, "lon": 77.1967808, "tags": {"name": "Kailash Hostel", "tourism": "hostel"}}, {"type": "node", "id": 4102885023, "lat": 28.5409021, "lon": 77.2060942, "tags": {"historic": "monument", "name": "Bijay Mandal"}}, {"type": "node", "id": 4235546804, "lat": 28.5427627, "lon": 77.2139946, "tags": {"addr:city": "New Delhi", "addr:housenumber": "S-39A", "addr:place": "Panchsheel Park", "addr:postcode": "110017", "email": "delhi@themadpackers.in", "internet_access": "wlan", "name": "The Madpackers Hostel", "phone": "+911141677410", "smoking": "outside", "tourism": "hostel", "wheelchair": "no", "wikidata": "Q111119712"}}, {"type": "node", "id": 4236918192, "lat": 28.5412792, "lon": 77.2156818, "tags": {"amenity": "cafe", "cuisine": "western", "internet_access": "yes", "name": "The Brown Box", "shop": "bakery", "wheelchair": "yes"}}, {"type": "node", "id": 4461728238, "lat": 28.5279771, "lon": 77.2188973, "tags": {"air_conditioning": "yes", "amenity": "restaurant", "cuisine": "indian", "diet:vegan": "yes", "diet:vegetarian": "yes", "indoor_seating": "yes", "name": "Gulati Spice Market", "name:en": "Gulati Spice Market", "outdoor_seating": "no", "smoking": "no"}}, {"type": "node", "id": 4476716889, "lat": 28.512479, "lon": 77.2306379, "tags": {"addr:housenumber": "F127", "addr:postcode": "110062", "addr:street": "school road", "name": "shutter wali gulli", "name:en": "shutter wali gulli", "name:hi": "shutter wali gulli", "tourism": "hostel"}}, {"type": "node", "id": 4483453597, "lat": 28.5466157, "lon": 77.1967183, "tags": {"amenity": "cafe", "brand": "Barista", "brand:wikidata": "Q644735", "cuisine": "coffee_shop", "name": "Barista", "name:en": "Barista", "takeaway": "yes"}}, {"type": "node", "id": 4483488389, "lat": 28.5464098, "lon": 77.1968551, "tags": {"name": "Suderahan Properties", "name:en": "Suderahan Properties", "tourism": "attraction"}}, {"type": "node", "id": 4483488390, "lat": 28.5464523, "lon": 77.1965666, "tags": {"amenity": "cafe", "name": "Smoothie factory", "name:en": "Smoothie factory"}}, {"type": "node", "id": 4483544990, "lat": 28.5405268, "lon": 77.2118362, "tags": {"amenity": "cafe", "brand": "Cafe Coffee Day", "brand:wikidata": "Q5017235", "brand:wikipedia": "en:Caf\u00e9 Coffee Day", "cuisine": "coffee_shop", "name": "Cafe Coffee Day", "short_name": "CCD", "takeaway": "yes"}}, {"type": "node", "id": 4483606891, "lat": 28.5274792, "lon": 77.2168422, "tags": {"name": "Store 99", "name:en": "Store 99", "tourism": "attraction"}}, {"type": "node", "id": 4710207191, "lat": 28.5177312, "lon": 77.1981227, "tags": {"addr:city": "New Delhi", "addr:housenumber": "2", "addr:place": "Saiyad ul Ajaib", "addr:postcode": "110030", "addr:street": "Westend Marg", "amenity": "cafe", "name": "Rose Cafe", "opening_hours": "Mo-Su 12:00-21:00", "phone": "+91-11-2953-3186;+91-98990-55665"}}, {"type": "node", "id": 4742296921, "lat": 28.5375714, "lon": 77.229313, "tags": {"addr:housenumber": "451A", "addr:postcode": "110017", "addr:street": "chirag dilli", "name": "chirag manoj hostel", "name:en": "chirag manoj hostel", "opening_hours": "Mo-Sa", "tourism": "hostel"}}, {"type": "node", "id": 4814835721, "lat": 28.5271794, "lon": 77.2169494, "tags": {"amenity": "restaurant", "cuisine": "indian", "name": "Mahabelly", "name:en": "Mahabelly"}}, {"type": "node", "id": 4869113617, "lat": 28.5172818, "lon": 77.2000632, "tags": {"addr:city": "New Delhi", "addr:hamlet": "Said-ul-Ajaib", "addr:housenumber": "Khasra 258", "addr:postcode": "110068", "addr:street": "Lane Number 3", "addr:suburb": "Saket", "amenity": "cafe", "brand": "Blue Tokai Coffee Roasters", "cuisine": "coffee_shop", "delivery": "yes", "internet_access": "yes", "internet_access:fee": "no", "name": "Blue Tokai Coffee Roasters", "opening_hours": "Mo-Su 09:00-21:00", "outdoor_seating": "yes", "takeaway": "yes"}}, {"type": "node", "id": 5109638828, "lat": 28.5372472, "lon": 77.2360256, "tags": {"amenity": "restaurant", "name": "Chehel Pehel"}}, {"type": "node", "id": 5123980562, "lat": 28.5497391, "lon": 77.2356742, "tags": {"amenity": "restaurant", "name": "The Mountain Cafe"}}, {"type": "node", "id": 5131701517, "lat": 28.5438893, "lon": 77.2300281, "tags": {"amenity": "restaurant", "cuisine": "kebab", "name": "Aali's Kathi Kababs", "phone": "+91-011-2649-2859", "phone_1": "+91-011-4106-5757"}}, {"type": "node", "id": 5131717121, "lat": 28.5439159, "lon": 77.230178, "tags": {"amenity": "restaurant", "cuisine": "chinese;indian;mughlai", "name": "Dills Chawla Chik-Inn", "phone": "+91-011-6888-8686", "phone_1": "+91-99531-99431"}}, {"type": "node", "id": 5236234023, "lat": 28.5388981, "lon": 77.2118327, "tags": {"name": "streetart", "tourism": "artwork"}}, {"type": "node", "id": 5236666021, "lat": 28.5464509, "lon": 77.1970758, "tags": {"amenity": "restaurant", "name": "Napoli Pizza"}}, {"type": "node", "id": 5244293017, "lat": 28.5421256, "lon": 77.2298224, "tags": {"name": "Hotel Rockland", "tourism": "hotel"}}, {"type": "node", "id": 5258048045, "lat": 28.5413446, "lon": 77.2114329, "tags": {"brand": "OYO", "name": "Hotel Hamilton Lodge", "tourism": "hotel"}}, {"type": "node", "id": 5351085426, "lat": 28.5464901, "lon": 77.1970726, "tags": {"amenity": "cafe", "name": "Honey n dough"}}, {"type": "node", "id": 5382631623, "lat": 28.5411267, "lon": 77.2198055, "tags": {"historic": "memorial", "name": "Statue of B. R.  Ambedkar"}}, {"type": "node", "id": 5415748243, "lat": 28.5438862, "lon": 77.2299571, "tags": {"amenity": "restaurant", "name": "Hawkerz Boxx"}}, {"type": "node", "id": 5439670421, "lat": 28.5174202, "lon": 77.1979526, "tags": {"amenity": "cafe", "cuisine": "bistro", "name": "Soho"}}, {"type": "node", "id": 5483331222, "lat": 28.5194511, "lon": 77.2154341, "tags": {"name": "Hotel Saket 27", "tourism": "hotel"}}, {"type": "node", "id": 5508582321, "lat": 28.5498228, "lon": 77.2354791, "tags": {"amenity": "restaurant", "name": "Roadhouse Cafe"}}, {"type": "node", "id": 5586450868, "lat": 28.5376565, "lon": 77.2133209, "tags": {"amenity": "cafe", "brand": "Cafe Coffee Day", "brand:wikidata": "Q5017235", "cuisine": "coffee_shop", "name": "Cafe Coffee Day", "takeaway": "yes"}}, {"type": "node", "id": 5598795738, "lat": 28.5383536, "lon": 77.1983139, "tags": {"amenity": "cafe", "brand": "Cafe Coffee Day", "brand:wikidata": "Q5017235", "cuisine": "coffee_shop", "name": "Cafe Coffee Day", "takeaway": "yes"}}, {"type": "node", "id": 5603128931, "lat": 28.535789, "lon": 77.19687, "tags": {"amenity": "restaurant", "name:ja": "Delhi Darbar"}}, {"type": "node", "id": 5609683532, "lat": 28.5173118, "lon": 77.1999817, "tags": {"amenity": "cafe", "drink:coffee": "yes", "drink:tea": "yes", "indoor_seating": "yes", "name": "JugMug Thela"}}, {"type": "node", "id": 5609687384, "lat": 28.5109411, "lon": 77.2021567, "tags": {"amenity": "restaurant", "cuisine": "south_indian;north_indian;chinese", "name": "Karnataka"}}, {"type": "node", "id": 5609687386, "lat": 28.5177997, "lon": 77.1985596, "tags": {"amenity": "cafe", "name": "Caf\u00e9 Hameen Asto", "opening_hours": "Mo-Su 12:00-22:00; PH closed", "phone": "+91-96549-40677;+91-99905-66877"}}, {"type": "node", "id": 5609687387, "lat": 28.5175248, "lon": 77.200275, "tags": {"amenity": "restaurant", "craft": "handicraft;jeweller;metal_construction", "name": "End Of The Day", "note": "It'd be great if someone could look at the establishment's website and give this a better tag.", "website": "https://www.studiometallurgy.com/"}}, {"type": "node", "id": 5609689506, "lat": 28.5173258, "lon": 77.200236, "tags": {"amenity": "cafe", "cuisine": "bistro", "indoor_seating": "yes", "name": "Pho King Awesome", "website": "http://phokingawesome.in/"}}, {"type": "node", "id": 5630944567, "lat": 28.519364, "lon": 77.2004958, "tags": {"amenity": "restaurant", "name": "Odisha Hotel", "phone": "+91-99109-08551", "tourism": "hotel"}}, {"type": "node", "id": 5630945107, "lat": 28.5194075, "lon": 77.2005124, "tags": {"brand": "OYO", "name": "Kehar Palace", "ref": "14346", "tourism": "hotel"}}, {"type": "node", "id": 5640908165, "lat": 28.5110406, "lon": 77.2025519, "tags": {"addr:block": "A", "addr:housenumber": "1/13", "addr:postcode": "110068", "addr:street": "IGNOU Road", "addr:unit": "6", "amenity": "cafe", "cuisine": "deli", "indoor_seating": "yes", "internet_access": "wlan", "level": "0", "name": "Happy Dough", "opening_hours": "Mo-Su 08:00-24:00; PH closed", "outdoor_seating": "no", "phone": "+91-9922-0022-07", "seats": "12", "tables": "4", "toilets": "no", "wheelchair": "no"}}, {"type": "node", "id": 5642283517, "lat": 28.5331643, "lon": 77.2062525, "tags": {"amenity": "cafe", "brand": "Cafe Coffee Day", "brand:wikidata": "Q5017235", "cuisine": "coffee_shop", "name": "Cafe Coffee Day", "takeaway": "yes"}}, {"type": "node", "id": 5816260327, "lat": 28.5174361, "lon": 77.1984494, "tags": {"addr:city": "New Delhi", "addr:housenumber": "315/274", "addr:place": "Saiyad ul Ajaib", "addr:street": "Westend Marg", "amenity": "cafe", "cuisine": "korean", "internet_access": "wlan", "name": "Ssongchee - Korea Bings Cafe", "phone": "+91-99584-74381", "smoking": "outside", "takeaway": "yes", "website": "https://www.zomato.com/ncr/ssongchee-korea-bings-cafe-saket-new-delhi"}}, {"type": "node", "id": 5820321453, "lat": 28.5385119, "lon": 77.2119983, "tags": {"name": "The desire Hostel", "tourism": "hotel"}}, {"type": "node", "id": 5827200864, "lat": 28.5388101, "lon": 77.2138829, "tags": {"amenity": "restaurant", "brand": "Pizza Hut", "brand:wikidata": "Q191615", "cuisine": "pizza", "name": "Pizza Hut"}}, {"type": "node", "id": 5888113176, "lat": 28.5153468, "lon": 77.2056028, "tags": {"amenity": "cafe", "name": "Henry Cafe"}}, {"type": "node", "id": 5960718389, "lat": 28.5309684, "lon": 77.2174597, "tags": {"amenity": "restaurant", "name": "Om bhojanalaya", "name:en": "Om bhojanaya", "opening_hours": "Mo-Su 09:00-23:00"}}, {"type": "node", "id": 5960737887, "lat": 28.5329327, "lon": 77.2183254, "tags": {"addr:housenumber": "r53", "tourism": "apartment"}}, {"type": "node", "id": 5960737985, "lat": 28.5310199, "lon": 77.2179572, "tags": {"name": "khirkee collective", "tourism": "artwork"}}, {"type": "node", "id": 5960754386, "lat": 28.5309419, "lon": 77.2171246, "tags": {"name": "Mannat Manzil", "tourism": "apartment"}}, {"type": "node", "id": 5960760889, "lat": 28.5341421, "lon": 77.2169982, "tags": {"amenity": "cafe", "name": "the food factory"}}, {"type": "node", "id": 5960760896, "lat": 28.5355862, "lon": 77.2166825, "tags": {"amenity": "cafe", "name": "wake up cafe"}}, {"type": "node", "id": 5960767985, "lat": 28.5309082, "lon": 77.2165552, "tags": {"amenity": "restaurant", "name": "Ronak hotel", "opening_hours": "Mo-Su 07:00-22:00"}}, {"type": "node", "id": 5960774593, "lat": 28.5309019, "lon": 77.2161069, "tags": {"amenity": "restaurant", "name": "Imtiyaz", "opening_hours": "Mo-Th,Sa-Su 07:30-22:30"}}, {"type": "node", "id": 5960774596, "lat": 28.5305488, "lon": 77.2161958, "tags": {"amenity": "restaurant", "name": "Muradabadi Hotel", "opening_hours": "Mo-Su 12:00-11:00"}}, {"type": "node", "id": 5960777186, "lat": 28.530861, "lon": 77.2160576, "tags": {"amenity": "restaurant", "name": "munna hotel", "opening_hours": "Mo-Su 09:00-23:00"}}, {"type": "node", "id": 5960793695, "lat": 28.5349486, "lon": 77.2167873, "tags": {"amenity": "restaurant", "name": "new aggarwal sweets"}}, {"type": "node", "id": 5960811186, "lat": 28.5330915, "lon": 77.2218476, "tags": {"amenity": "restaurant", "name": "Chauhan fast food corner", "opening_hours": "Mo-Su 08:00-23:00"}}, {"type": "node", "id": 5960811191, "lat": 28.5340646, "lon": 77.2187337, "tags": {"amenity": "restaurant", "cuisine": "chinese", "name": "Chilli Dragon"}}, {"type": "node", "id": 5960818509, "lat": 28.5336704, "lon": 77.2190241, "tags": {"historic": "tomb", "name": "Sheikh Yusuf Katl ka Makbara"}}, {"type": "node", "id": 5960820194, "lat": 28.5316504, "lon": 77.2186674, "tags": {"amenity": "cafe", "name": "Coffee Cafe 9"}}, {"type": "node", "id": 5960910788, "lat": 28.5346351, "lon": 77.220773, "tags": {"amenity": "cafe", "name": "chaudhry tea  stall"}}, {"type": "node", "id": 5960921985, "lat": 28.5332807, "lon": 77.2218792, "tags": {"amenity": "cafe", "name": "pandji tea stall "}}, {"type": "node", "id": 5975692956, "lat": 28.5279944, "lon": 77.2018891, "tags": {"artwork_subject": "Prithviraj Chauhan", "artwork_type": "statue", "name": "Prithviraj Chauhan Statue", "tourism": "artwork"}}, {"type": "node", "id": 5984798036, "lat": 28.5144627, "lon": 77.2050016, "tags": {"amenity": "restaurant", "name": "Bikaner Choice", "shop": "confectionery"}}, {"type": "node", "id": 5988705887, "lat": 28.5385585, "lon": 77.2119672, "tags": {"name": "Desire hostel", "tourism": "hostel"}}, {"type": "node", "id": 6107002528, "lat": 28.5274255, "lon": 77.2171745, "tags": {"amenity": "cafe", "name": "Laidback Caf\u00e9", "opening_hours": "Mo-Su 12:00-01:00"}}, {"type": "node", "id": 6110288475, "lat": 28.5407564, "lon": 77.2121254, "tags": {"amenity": "cafe", "name": "Sardar-Ji-Baksh Coffee and Company"}}, {"type": "node", "id": 6110288476, "lat": 28.5362156, "lon": 77.2095278, "tags": {"amenity": "cafe", "level": "0", "name": "Woodhouse Caf\u00e9", "phone": "+91-11-4978-7154;+91-85870-28797", "wheelchair": "no"}}, {"type": "node", "id": 6110288538, "lat": 28.543911, "lon": 77.2085924, "tags": {"amenity": "restaurant", "name": "The Golden Dragon"}}, {"type": "node", "id": 6119095026, "lat": 28.5179998, "lon": 77.1992482, "tags": {"addr:city": "New Delhi", "addr:housenumber": "631/275", "addr:postcode": "110030", "addr:street": "Lane Number 3", "amenity": "cafe", "cuisine": "pizza;burger;italian;sandwich;kebab;indian;coffee_shop;chinese", "email": "cafeforesta08@gmail.com", "internet_access": "yes", "name": "Foresta Bistro & Cafe", "opening_hours": "Mo-Su 11:00-23:00", "phone": "+91-97100-09005", "smoking": "outside", "takeaway": "yes"}}, {"type": "node", "id": 6150155849, "lat": 28.5223998, "lon": 77.2064556, "tags": {"addr:housenumber": "E-155", "addr:place": "Saket", "addr:postcode": "110017", "name": "Chalet", "phone": "+91-11-4183-1111;+91-11-4184-1111;+91-11-4283-1111", "tourism": "hotel", "website": "www.chaletdelhi.com"}}, {"type": "node", "id": 6152750694, "lat": 28.5394874, "lon": 77.2133656, "tags": {"amenity": "cafe", "name": "The Panchshila Rendezvous"}}, {"type": "node", "id": 6153087587, "lat": 28.5205656, "lon": 77.1903179, "tags": {"historic": "memorial", "name": "Ahinsa Sthal"}}, {"type": "node", "id": 6153129085, "lat": 28.5206504, "lon": 77.190224, "tags": {"tourism": "viewpoint"}}, {"type": "node", "id": 6160198215, "lat": 28.5088733, "lon": 77.2007595, "tags": {"addr:housenumber": "C-3;C-4", "addr:place": "Freedom Fighter Enclave", "addr:postcode": "110068", "addr:street": "IGNOU Road", "addr:unit": "2", "amenity": "cafe", "level": "1", "name": "Down Town Caf\u00e9 & Kitchen", "outdoor_seating": "yes", "phone": "+91-88103-83735", "wheelchair": "no"}}, {"type": "node", "id": 6180069186, "lat": 28.5390602, "lon": 77.2007051, "tags": {"addr:postcode": "110016", "addr:street": "Begumpur Road", "name": "Sri Aurobindo Ashram", "tourism": "information", "website": "https://sriaurobindoashram.net/"}}, {"type": "node", "id": 6269340657, "lat": 28.5333765, "lon": 77.206089, "tags": {"amenity": "restaurant", "cuisine": "pizza", "name": "Evoo", "name:en": "EVOO Eatery & Pizzeria", "wheelchair": "no"}}, {"type": "node", "id": 6314478111, "lat": 28.5229264, "lon": 77.2079252, "tags": {"amenity": "restaurant", "brand": "Pizza Hut", "brand:wikidata": "Q191615", "cuisine": "pizza", "name": "Pizza Hut"}}, {"type": "node", "id": 6411418993, "lat": 28.5246586, "lon": 77.1907499, "tags": {"name": "The Crescent", "tourism": "hotel"}}, {"type": "node", "id": 6425318713, "lat": 28.5178715, "lon": 77.1992205, "tags": {"amenity": "cafe", "cuisine": "chinese;thai;county", "name": "Taste of Nation", "phone": "+91-81306-37075;+91-99582-81689"}}, {"type": "node", "id": 6488795811, "lat": 28.5194743, "lon": 77.2064407, "tags": {"amenity": "restaurant", "name": "Gore ka Dhaba"}}, {"type": "node", "id": 6528625198, "lat": 28.5072646, "lon": 77.200087, "tags": {"amenity": "cafe", "cuisine": "north_east_indian", "level": "1", "name": "Leaf Beat Bistro", "wheelchair": "no"}}, {"type": "node", "id": 6565268785, "lat": 28.5311214, "lon": 77.2103788, "tags": {"name": "my hotel", "tourism": "hotel"}}, {"type": "node", "id": 6578881286, "lat": 28.5117178, "lon": 77.2034609, "tags": {"addr:housenumber": "A1/73", "addr:postcode": "110068", "addr:street": "Freedom Fighters Enclave", "name": "OP Gupta", "name:en": "GUPTA OP", "tourism": "apartment"}}, {"type": "node", "id": 6578907890, "lat": 28.5118474, "lon": 77.2034122, "tags": {"addr:housenumber": "A1/73", "addr:postcode": "110068", "addr:street": "Freedom Fighters Enclave", "name": "GUPTA OP", "tourism": "apartment"}}, {"type": "node", "id": 6653239503, "lat": 28.5158686, "lon": 77.1972412, "tags": {"amenity": "cafe"}}, {"type": "node", "id": 6653239505, "lat": 28.515623, "lon": 77.1975251, "tags": {"tourism": "gallery"}}, {"type": "node", "id": 6697070931, "lat": 28.5102941, "lon": 77.2012843, "tags": {"name": "OYO SilverKey", "tourism": "hotel"}}, {"type": "node", "id": 6746646497, "lat": 28.5314856, "lon": 77.2053232, "tags": {"leisure": "park", "name": "Chaupal Park"}}, {"type": "node", "id": 6755617648, "lat": 28.5460006, "lon": 77.1977467, "tags": {"name": "Hotel Shyama International", "tourism": "hotel"}}, {"type": "node", "id": 6757540820, "lat": 28.5100632, "lon": 77.2019615, "tags": {"amenity": "cafe", "level": "1", "name": "Mapel Tree Cafe"}}, {"type": "node", "id": 6779419592, "lat": 28.5336105, "lon": 77.2062709, "tags": {"amenity": "cafe", "cuisine": "bistro", "name": "The Chocolate Room", "wheelchair": "no"}}, {"type": "node", "id": 6898196562, "lat": 28.5199328, "lon": 77.2018409, "tags": {"amenity": "cafe", "name": "Vaw Cafe"}}, {"type": "node", "id": 6898196575, "lat": 28.5141234, "lon": 77.2056164, "tags": {"name": "OYO Shri Krishna Palace", "tourism": "guest_house"}}, {"type": "node", "id": 7041600585, "lat": 28.5270603, "lon": 77.2167659, "tags": {"amenity": "cafe", "name": "Roasters Coffee Company Book Cafe"}}, {"type": "node", "id": 7114741289, "lat": 28.528554, "lon": 77.2197605, "tags": {"air_conditioning": "yes", "amenity": "restaurant", "diet:vegan": "yes", "diet:vegetarian": "yes", "indoor_seating": "yes", "name": "Burma Burma", "outdoor_seating": "no"}}, {"type": "node", "id": 7124277889, "lat": 28.519133, "lon": 77.2063245, "tags": {"amenity": "restaurant", "contact:phone": "+91 92138 13519;+91 88609 93937", "delivery": "yes", "diet:lacto_vegetarian": "only", "name": "Jai Shri Krishna", "wheelchair": "no"}}, {"type": "node", "id": 7139493484, "lat": 28.5128795, "lon": 77.2043322, "tags": {"name": "OYO Aakash Residency", "ref": "66577", "tourism": "hotel"}}, {"type": "node", "id": 7149123090, "lat": 28.5291511, "lon": 77.2137981, "tags": {"addr:housenumber": "25A", "addr:place": "Hauz Rani", "amenity": "restaurant", "contact:phone": "+91 80103 55355;+91 88007 40222;+91 99900 01669", "level": "1", "name": "Teekoy Kerala Restaurant"}}, {"type": "node", "id": 7149160319, "lat": 28.5196007, "lon": 77.2059641, "tags": {"amenity": "cafe", "name": "Khopcha Cafe", "wheelchair": "no"}}, {"type": "node", "id": 7182349285, "lat": 28.5400557, "lon": 77.2193569, "tags": {"name": "Savitrinagar", "tourism": "apartment"}}, {"type": "node", "id": 7618454281, "lat": 28.5332223, "lon": 77.2155902, "tags": {"addr:city": "Delhi", "addr:housenumber": "J Block", "addr:postcode": "110017", "addr:street": "Malviya nagar", "amenity": "restaurant", "cuisine": "bengali", "name": "BongTaste", "opening_hours": "10:00-22:00", "opening_hours:covid19": "sa-su 10-22", "phone": "+91 9873646321"}}, {"type": "node", "id": 7872536380, "lat": 28.5232369, "lon": 77.2347078, "tags": {"leisure": "park", "name": "park"}}, {"type": "node", "id": 8014185779, "lat": 28.5204237, "lon": 77.2022859, "tags": {"addr:city": "New Delhi", "addr:housenumber": "F-16,Saidulajab Main MB Road", "addr:postcode": "110030", "addr:street": "Mehrauli Badarpur Road", "amenity": "restaurant", "cuisine": "Punjabi;chinese", "name": "Arora di Hatti", "phone": "9810381918"}}, {"type": "node", "id": 8529811934, "lat": 28.5203046, "lon": 77.2289059, "tags": {"addr:city": "New Delhi", "addr:housenumber": "19/551 DDA FLATS MADANGIR", "addr:postcode": "110062", "addr:street": "Lal Bahadur Shastri Marg", "amenity": "restaurant", "brand": "Chai Gupshup", "capacity": "10", "cuisine": "pizza;tea;burger;sandwich;pasta", "diet:vegetarian": "yes", "fixme": "Website (www.chaigupshup.com) doesn't work. Is this place still working?", "name": "Chai Gupshup", "opening_hours": "Mo-Su 09:00-23:00", "outdoor_seating": "yes", "phone": "+919891358708", "takeaway": "yes"}}, {"type": "node", "id": 9936020117, "lat": 28.548071, "lon": 77.2043379, "tags": {"name": "Block q5", "tourism": "hotel"}}, {"type": "node", "id": 9937556917, "lat": 28.5375912, "lon": 77.2104123, "tags": {"amenity": "restaurant", "name": "Gaon"}}, {"type": "node", "id": 10226187520, "lat": 28.5284896, "lon": 77.219227, "tags": {"air_conditioning": "yes", "amenity": "cafe", "brand": "Starbucks", "brand:wikidata": "Q37158", "cuisine": "coffee_shop", "diet:vegan": "yes", "diet:vegetarian": "yes", "indoor_seating": "yes", "name": "Starbucks", "official_name": "Starbucks Coffee", "outdoor_seating": "no", "smoking": "no", "takeaway": "yes", "wheelchair": "yes"}}, {"type": "node", "id": 10574350109, "lat": 28.5173598, "lon": 77.2003366, "tags": {"amenity": "restaurant", "cuisine": "tapas", "name": "Bella Vie"}}, {"type": "node", "id": 10574350110, "lat": 28.5174511, "lon": 77.2000984, "tags": {"amenity": "restaurant", "name": "The Green View"}}, {"type": "node", "id": 10574350111, "lat": 28.5177032, "lon": 77.2000132, "tags": {"amenity": "restaurant", "name": "Peeja"}}, {"type": "node", "id": 10574350209, "lat": 28.5173811, "lon": 77.2000742, "tags": {"amenity": "restaurant", "name": "Four Directions"}}, {"type": "node", "id": 10574350309, "lat": 28.5177362, "lon": 77.1999325, "tags": {"amenity": "cafe", "name": "Bean Sahab Cafe"}}, {"type": "node", "id": 10574362809, "lat": 28.5174745, "lon": 77.200309, "tags": {"amenity": "restaurant", "name": "Majnu Ka Thela"}}, {"type": "node", "id": 10574458709, "lat": 28.5283746, "lon": 77.2115924, "tags": {"amenity": "restaurant", "name": "Maqaayada"}}, {"type": "node", "id": 10574468213, "lat": 28.5283041, "lon": 77.2165116, "tags": {"amenity": "cafe", "name": "Cafe-Tesu", "survey:date": "2023-01-22"}}, {"type": "node", "id": 10574470710, "lat": 28.5284571, "lon": 77.2086965, "tags": {"name": "Mi Casa Inn", "tourism": "hotel"}}, {"type": "node", "id": 10768473958, "lat": 28.5203707, "lon": 77.2023203, "tags": {"addr:city": "New Delhi", "addr:street": "Mehrauli Badarpur Road", "amenity": "restaurant", "name": "The B.Tech Restaurant", "opening_hours": "Mo-Su 10:00-22:00", "phone": "+91 82879 71851", "reservation": "yes", "seafood:sales": "seafood restaurant"}}, {"type": "node", "id": 10864770504, "lat": 28.5364419, "lon": 77.2110697, "tags": {"amenity": "cafe", "check_date": "2023-05-02", "name": "Love Green Dot Caf\u00e9"}}, {"type": "node", "id": 10903096394, "lat": 28.5231651, "lon": 77.2132041, "tags": {"addr:city": "mathura", "addr:housenumber": "Unit no. 240-241, First Floor, DLF Avenue, Saket, New Delhi, Delhi 110017", "addr:street": "Saket Road", "amenity": "cafe", "diet:vegan": "yes", "diet:vegetarian": "yes", "name": "laidback cafe"}}, {"type": "node", "id": 10971353593, "lat": 28.5380076, "lon": 77.2087667, "tags": {"amenity": "restaurant", "name": "Al Lazeez Biriyani"}}, {"type": "node", "id": 10971353594, "lat": 28.5380761, "lon": 77.209131, "tags": {"amenity": "restaurant", "name": "Punjabi Dhaba"}}, {"type": "node", "id": 10973749366, "lat": 28.5363782, "lon": 77.2093329, "tags": {"amenity": "restaurant", "name": "Shamin's Fresh Grill and Kababs"}}, {"type": "node", "id": 10977070485, "lat": 28.5293143, "lon": 77.214581, "tags": {"amenity": "restaurant", "name": "Rumi's Rasoee"}}, {"type": "node", "id": 10977142419, "lat": 28.5371084, "lon": 77.2123538, "tags": {"amenity": "restaurant", "name": "Al Tandoori Kitchen"}}, {"type": "node", "id": 10977154196, "lat": 28.5370791, "lon": 77.2123092, "tags": {"amenity": "restaurant", "name": "Chill e pepper"}}, {"type": "node", "id": 10977485433, "lat": 28.5365331, "lon": 77.2114081, "tags": {"name": "Swagath", "tourism": "hotel"}}, {"type": "node", "id": 11155711194, "lat": 28.5499884, "lon": 77.2351267, "tags": {"amenity": "restaurant", "cuisine": "asian;korean", "level": "1", "name": "Pop Seoul", "wheelchair": "no"}}, {"type": "node", "id": 11228784797, "lat": 28.5495843, "lon": 77.2364963, "tags": {"amenity": "restaurant", "name": "Culture Caf\u00e9"}}, {"type": "node", "id": 11263976752, "lat": 28.5495794, "lon": 77.2364287, "tags": {"addr:block": "M", "addr:city": "New Delhi", "addr:full": "M-31, 1st floor, M Block Market, Greater Kailash-I, New Delhi", "addr:housenumber": "31", "addr:neighbourhood": "M Block Market", "addr:suburb": "Greater Kailash 1", "air_conditioning": "yes", "amenity": "restaurant", "contact:mobile": "+91-96431-55505;+91-96431-55506", "contact:phone": "+91-11-2923-2467", "contact:website": "https://www.motimahaldeluxgk1.com", "cuisine": "punjabi;indian;mughlai", "diet:lacto_vegetarian": "yes", "level": "1", "name": "Moti Mahal Delux", "smoking": "no", "toilets:access": "customers", "wheelchair": "no"}}, {"type": "node", "id": 11265802319, "lat": 28.5241241, "lon": 77.204222, "tags": {"addr:street": "D-182 Saket, New Delhi, Delhi 110017, India", "description": "Old but comfortable homestay in very peaceful and safe location.", "name": "Grace Home", "tourism": "hotel"}}, {"type": "node", "id": 11414370145, "lat": 28.5497414, "lon": 77.2327282, "tags": {"name": "The Neem", "tourism": "guest_house"}}, {"type": "node", "id": 11672397833, "lat": 28.549955, "lon": 77.2338047, "tags": {"amenity": "cafe", "level": "0", "name": "Super Chai", "outdoor_seating": "yes", "wheelchair": "no"}}, {"type": "node", "id": 11677483009, "lat": 28.5319115, "lon": 77.2216847, "tags": {"historic": "tomb"}}, {"type": "node", "id": 11683143381, "lat": 28.5328054, "lon": 77.2235696, "tags": {"tourism": "viewpoint"}}, {"type": "node", "id": 11765954640, "lat": 28.5485283, "lon": 77.2369688, "tags": {"name": "Hotel Solo Victoria", "tourism": "hotel", "wheelchair": "limited"}}, {"type": "node", "id": 11897685369, "lat": 28.5446409, "lon": 77.1916272, "tags": {"amenity": "cafe", "name": "Nescafe"}}, {"type": "node", "id": 12000324221, "lat": 28.5280402, "lon": 77.2198475, "tags": {"amenity": "restaurant", "cuisine": "japanese", "name": "Ebisu"}}, {"type": "node", "id": 12424722369, "lat": 28.5394756, "lon": 77.2132042, "tags": {"amenity": "cafe", "name": "Blue Tokai Coffee Roasters"}}, {"type": "node", "id": 12424736102, "lat": 28.537138, "lon": 77.2123808, "tags": {"amenity": "restaurant"}}, {"type": "node", "id": 12424766951, "lat": 28.5371929, "lon": 77.2124497, "tags": {"amenity": "restaurant"}}, {"type": "node", "id": 12424784814, "lat": 28.5373645, "lon": 77.2102571, "tags": {"amenity": "restaurant"}}, {"type": "node", "id": 12492376144, "lat": 28.5433724, "lon": 77.2039732, "tags": {"amenity": "cafe", "name": "Dohful Cookies & Coffee", "website": "https://dohful.com/"}}, {"type": "node", "id": 12823360946, "lat": 28.5286268, "lon": 77.2021326, "tags": {"access": "yes", "amenity": "drinking_water", "bottle": "yes", "dog": "no", "fountain": "nozzle", "historic": "no", "level": "0"}}, {"type": "node", "id": 12823360952, "lat": 28.5286207, "lon": 77.202146, "tags": {"access": "yes", "amenity": "drinking_water", "bottle": "yes", "dog": "no", "fountain": "nozzle", "historic": "no", "level": "0"}}, {"type": "node", "id": 12823360997, "lat": 28.5286394, "lon": 77.2021052, "tags": {"access": "yes", "amenity": "drinking_water", "bottle": "yes", "dog": "no", "fountain": "nozzle", "historic": "no", "level": "0"}}, {"type": "node", "id": 12823360999, "lat": 28.5286334, "lon": 77.2021183, "tags": {"access": "yes", "amenity": "drinking_water", "bottle": "yes", "dog": "no", "fountain": "nozzle", "historic": "no", "level": "0"}}, {"type": "node", "id": 12823361006, "lat": 28.5286461, "lon": 77.2020905, "tags": {"access": "yes", "amenity": "drinking_water", "bottle": "yes", "dog": "no", "fountain": "nozzle", "historic": "no", "level": "0"}}, {"type": "node", "id": 12823361035, "lat": 28.5282765, "lon": 77.2023913, "tags": {"information": "map", "map_size": "site", "map_type": "scheme", "tourism": "information", "wikimedia_commons": "File:Map of Qila Rai Pithora.jpg"}}, {"type": "node", "id": 12825691133, "lat": 28.5279835, "lon": 77.2174969, "tags": {"addr:city": "New Delhi", "addr:place": "Saket District Centre", "addr:postcode": "110017", "addr:state": "DL", "air_conditioning": "yes", "brand": "Hilton Garden Inn", "contact:facebook": "https://www.facebook.com/hgisaket", "contact:instagram": "https://www.instagram.com/hiltongardeninnnewdelhiskt/", "email": "delsk_reservations@hilton.com", "fax": "+91 11 3919 1920", "internet_access": "wlan", "internet_access:fee": "no", "name": "Hilton Garden Inn New Delhi Saket", "opening_hours": "24/7", "operator": "Hilton", "phone": "+91 11 3919 1919", "rooms": "115", "smoking": "isolated", "stars": "4", "start_date": "2009", "tourism": "hotel", "website": "https://www.hilton.com/en/hotels/delskgi-hilton-garden-inn-new-delhi-saket/", "wheelchair": "yes", "wikidata": "Q32947262"}}, {"type": "node", "id": 12872948592, "lat": 28.5180979, "lon": 77.1978107, "tags": {"amenity": "cafe", "name": "Altogether Experimental"}}, {"type": "node", "id": 12908263920, "lat": 28.5462946, "lon": 77.1967626, "tags": {"air_conditioning": "yes", "amenity": "cafe", "internet_access": "wlan", "internet_access:fee": "no", "level": "0", "name": "Kenangan Coffee", "opening_hours": "08:00-02:00", "operator": "M/s Kenangan Coffee Private Limited", "smoking": "no", "toilets:wheelchair": "no"}}, {"type": "node", "id": 12908263925, "lat": 28.5463792, "lon": 77.196784, "tags": {"amenity": "cafe", "brand": "Chaayos", "cuisine": "tea", "name": "Chaayos", "takeaway": "yes"}}, {"type": "node", "id": 12943213101, "lat": 28.5399116, "lon": 77.2363476, "tags": {"leisure": "park", "name": "Local park"}}, {"type": "node", "id": 12985825501, "lat": 28.5475148, "lon": 77.216397, "tags": {"air_conditioning": "yes", "amenity": "restaurant", "contact:mobile": "+91-89208-49986", "contact:website:menu": "https://dinein.petpooja.com/qr/3i8frchy/D1", "cuisine": "japanese;ramen", "level": "0;1", "name": "Zuru Zuru", "opening_hours": "Mo-Su 11:00-24:00", "strapline": "A ramen diner", "wheelchair": "no"}}, {"type": "node", "id": 13114178122, "lat": 28.5477617, "lon": 77.2165258, "tags": {"air_conditioning": "yes", "amenity": "cafe", "cuisine": "coffee_shop;panini;toast;salad", "indoor_seating": "yes", "internet_access": "wlan", "internet_access:fee": "no", "level": "0", "name": "Shack Coffee Co.", "opening_hours": "Mo-Su 09:30-19:30", "toilets:access": "customers", "wheelchair": "no"}}, {"type": "node", "id": 13121782111, "lat": 28.5432567, "lon": 77.2097708, "tags": {"amenity": "restaurant", "name": "chai point", "not:brand:wikidata": "Q28173415"}}, {"type": "node", "id": 13142375963, "lat": 28.5498687, "lon": 77.2154821, "tags": {"amenity": "cafe", "name": "Lazy Monk Cafe"}}, {"type": "node", "id": 13142376002, "lat": 28.5471917, "lon": 77.2143841, "tags": {"amenity": "cafe", "name": "Charcoal eats"}}, {"type": "node", "id": 13142383001, "lat": 28.5475273, "lon": 77.2164131, "tags": {"amenity": "cafe", "level": "0", "name": "USCO Cafe"}}, {"type": "node", "id": 13142439501, "lat": 28.5491371, "lon": 77.2160128, "tags": {"amenity": "restaurant", "name": "The bite of south"}}, {"type": "node", "id": 13142441601, "lat": 28.5490335, "lon": 77.215908, "tags": {"amenity": "restaurant", "name": "La marinate"}}, {"type": "node", "id": 13142481602, "lat": 28.5485399, "lon": 77.2155794, "tags": {"name": "OPS", "tourism": "gallery"}}, {"type": "node", "id": 13142525742, "lat": 28.5483074, "lon": 77.2159645, "tags": {"amenity": "restaurant", "name": "Hema South indian"}}, {"type": "node", "id": 13190034715, "lat": 28.5370548, "lon": 77.2359421, "tags": {"amenity": "cafe", "name": "Grass Cafe"}}, {"type": "node", "id": 13190034716, "lat": 28.5370781, "lon": 77.2359984, "tags": {"amenity": "cafe", "name": "Nest by 1Oak"}}, {"type": "node", "id": 13190034717, "lat": 28.5371779, "lon": 77.2386352, "tags": {"air_conditioning": "yes", "amenity": "restaurant", "cuisine": "bengali", "name": "Oh! Calcutta"}}, {"type": "way", "id": 43316681, "nodes": [544371040, 544371038, 544371075, 544371076, 544371040], "tags": {"barrier": "wall", "leisure": "park"}}, {"type": "way", "id": 43325258, "nodes": [544510396, 544510389, 544510397, 544510398, 544510396], "tags": {"leisure": "park"}}, {"type": "way", "id": 43325260, "nodes": [544510384, 6404370463, 11752689633, 544510385, 544510375, 544510376, 11752689640, 11752689642, 544510384], "tags": {"leisure": "park", "name": "Jamun Wala Park", "operator": "Select Citywalk"}}, {"type": "way", "id": 80513403, "nodes": [13114177167, 13114177191, 13114178044, 13114178115, 13114178033, 13114178082, 13114178001, 13114178061, 13114177168, 13114177139, 5327652107, 13114178053, 13114178046, 939270613, 939270765, 13114177119, 5327646970, 5327646969, 5327646968, 5327646967, 9942777396, 9942777397, 939270947, 12864319367, 939271230, 12864319368, 12864319369, 12864319370, 939271207, 939271303, 5327646965, 5327646964, 5327646963, 5327646966, 5327646962, 5322047740, 939270642, 939270794, 939270986, 939271251, 5331090359, 5331090358, 5331090357, 939271337, 939271436, 5322047762, 5322047830, 939271029, 5322047744, 5322047742, 939270700, 939270965, 939270876, 939271056, 939271290, 939271378, 939270447, 13164713079, 13164713086, 13114177167], "tags": {"alt_name": "DDA Park Panchsheel", "alt_name:hi": "\u0921\u0940\u0921\u0940\u090f \u092a\u093e\u0930\u094d\u0915 \u092a\u0902\u091a\u0936\u0940\u0932", "leisure": "park", "name": "D.D.A. Park Panchsheel", "name:hi": "\u0921\u0940.\u0921\u0940.\u090f. \u092a\u093e\u0930\u094d\u0915 \u092a\u0902\u091a\u0936\u0940\u0932", "official_name": "Master Plan Green Area at Sirifort Phase 2, 3, and Arun Jaitley Park"}}, {"type": "way", "id": 89808639, "nodes": [1040992389, 1040993492, 1040992809, 1040993137, 1040992389], "tags": {"barrier": "wall", "leisure": "park"}}, {"type": "way", "id": 89808647, "nodes": [1040993661, 1040993254, 1040992594, 1040992861, 1040992303, 1040992648, 1040993676, 1040992359, 1040993418, 1040992723, 1040993661], "tags": {"barrier": "wall", "leisure": "park"}}, {"type": "way", "id": 89808663, "nodes": [1040993119, 1040992290, 1040993247, 1040993037, 1040992406, 1040993119], "tags": {"barrier": "wall", "leisure": "park"}}, {"type": "way", "id": 89808699, "nodes": [1040993488, 1040992146, 1040993116, 1040993093, 1040993378, 1040992694, 1040993488], "tags": {"barrier": "wall", "leisure": "park"}}, {"type": "way", "id": 89808706, "nodes": [1040993100, 1040992571, 1040993615, 1040992271, 1040993100], "tags": {"barrier": "wall", "leisure": "park"}}, {"type": "way", "id": 89955847, "nodes": [1042719305, 1042719589, 1042719153, 1042720122, 1042719305], "tags": {"leisure": "park"}}, {"type": "way", "id": 96679852, "nodes": [1119661714, 1119661704, 1119661744, 1119661720, 1119661714], "tags": {"barrier": "wall", "historic": "monument", "name": "Wall Mosque"}}, {"type": "way", "id": 96679853, "nodes": [1119661741, 1119661751, 1119661731, 1119661739, 1119661741], "tags": {"historic": "monument", "name": "Lal Gumbad Entry Gate"}}, {"type": "way", "id": 96679854, "nodes": [1119661755, 1119661724, 1119661749, 1119661729, 1119661755], "tags": {"barrier": "wall", "historic": "memorial", "name": "Lal Gumbad"}}, {"type": "way", "id": 96679855, "nodes": [1119661758, 1119661730, 1119661760, 1119661742, 1119661712, 1119661753, 1119661734, 1119661757, 1119661707, 1119661758], "tags": {"barrier": "wall", "leisure": "park"}}, {"type": "way", "id": 96679975, "nodes": [1119662978, 1119662955, 1119662973, 1119662959, 1119662964, 1119662948, 1119662967, 1119662953, 1119662957, 1119662975, 1119662961, 1119662945, 1119662951, 1119662978], "tags": {"historic": "ruins", "name": "Hazar Ustun (Hall of Thousand Columns)", "tourism": "attraction"}}, {"type": "way", "id": 96679976, "nodes": [1119662971, 1119662944, 1119662950, 1119662968, 1119662954, 1119662972, 1119662977, 1119662963, 1119662947, 1119662966, 1119662970, 1119662956, 1119662974, 1119662960, 1119662965, 1119662971], "tags": {"historic": "ruins", "name": "Ruins of Palatial Section of Jahanpanah", "tourism": "attraction"}}, {"type": "way", "id": 96679977, "nodes": [1119662962, 1119662969, 1119662952, 1119662946, 1119662949, 1119662958, 1119662976, 1119662962], "tags": {"historic": "ruins", "name": "Ruins of North Gate of Jahanpanah Palace"}}, {"type": "way", "id": 102803931, "nodes": [1187213302, 4543767882, 4543767879, 4543767878, 1187213309, 7640428421, 1187213316, 1187213314, 1187213295, 3109196374, 1187213300, 4543732199, 3109196377, 3109196376, 4543794514, 3109196375, 4543794515, 4543794522, 1187213299, 3735988674, 4543794155, 4543794158, 4543794159, 1187213305, 4543767887, 1187213302], "tags": {"barrier": "wall", "historic": "monument", "name": "Begumpur Mosque", "was:tourism": "attraction"}}, {"type": "way", "id": 162249412, "nodes": [1741707362, 1741707369, 1741709684, 1741707364, 13141932466, 1741707366, 1741707362], "tags": {"leisure": "park"}}, {"type": "way", "id": 162249479, "nodes": [1741709682, 5507535386, 1741709684, 1741707364, 1741709678, 1741709680, 1741709682], "tags": {"leisure": "park", "name": "G Block Park"}}, {"type": "way", "id": 189795374, "nodes": [2003997724, 2003997723, 2003997722, 2003997721, 2003997724], "tags": {"leisure": "park"}}, {"type": "way", "id": 204969641, "nodes": [2149473709, 2149473716, 2149473712, 2149473714, 2149473718, 2149473722, 2149473726, 2149473720, 2149473724, 2149473707, 2149473706, 2149473710, 2149473703, 2149473701, 2149473700, 2149473709], "tags": {"access": "yes", "archaeological_site": "fortification", "historic": "archaeological_site", "name": "Satpula Dam", "waterway": "dam"}}, {"type": "way", "id": 237984877, "nodes": [2458411132, 2458411133, 2458411134, 2458411135, 2458411132], "tags": {"leisure": "park", "name": "K block park"}}, {"type": "way", "id": 239637985, "nodes": [2474204689, 2474204693, 2474204696, 2474204701, 2474204703, 2474204706, 2474204708, 2474204711, 2474204689], "tags": {"leisure": "park", "name": "Thakur Vatika"}}, {"type": "way", "id": 254130937, "nodes": [2599474529, 2599474531, 2599474533, 2599474534, 2599474529], "tags": {"leisure": "park"}}, {"type": "way", "id": 254130939, "nodes": [2599474535, 2599474536, 2599474537, 2599474538, 2599474535], "tags": {"leisure": "park"}}, {"type": "way", "id": 254130942, "nodes": [2599474569, 2599474570, 2599474571, 2599474572, 2599474569], "tags": {"barrier": "wall", "leisure": "park"}}, {"type": "way", "id": 254130943, "nodes": [2599474573, 2599474574, 2599474575, 2599474576, 2599474577, 2599474573], "tags": {"leisure": "park", "name": "NIL Block Park"}}, {"type": "way", "id": 254130944, "nodes": [2599474578, 2599474579, 2599474580, 2599474581, 2599474582, 2599474583, 2599474578], "tags": {"barrier": "wall", "leisure": "park", "name": "NIL Block Park"}}, {"type": "way", "id": 254130946, "nodes": [2599474588, 2599474589, 2800344743, 2800344742, 2800344741, 2599474591, 2800344739, 2800344738, 2800344737, 2599474594, 2599474595, 2599474588], "tags": {"leisure": "park"}}, {"type": "way", "id": 254130969, "nodes": [5589863147, 2599474643, 2599474644, 5586960168, 5589863147], "tags": {"leisure": "park"}}, {"type": "way", "id": 254130970, "nodes": [2599474641, 2599474647, 9855602337, 9855602336, 2599474641], "tags": {"leisure": "park"}}, {"type": "way", "id": 275403146, "nodes": [2800344707, 2800344709, 2800344704, 2800344703, 2800344707], "tags": {"barrier": "wall", "leisure": "park"}}, {"type": "way", "id": 275403147, "nodes": [2800344710, 2800344713, 2800344708, 2800344706, 2800344710], "tags": {"barrier": "wall", "leisure": "park", "name": "Shaheed Bhagat Singh Park", "name:etymology:wikidata": "Q377808"}}, {"type": "way", "id": 275403148, "nodes": [2800344724, 2800344727, 2800344722, 2800344720, 2800344724], "tags": {"barrier": "wall", "leisure": "park"}}, {"type": "way", "id": 275403149, "nodes": [2800344726, 2800344730, 2800344733, 2800344732, 2800344726], "tags": {"barrier": "wall", "leisure": "park"}}, {"type": "way", "id": 275403150, "nodes": [2800344711, 2800344712, 2800344715, 2800344729, 2800344719, 2800344711], "tags": {"barrier": "wall", "leisure": "park"}}, {"type": "way", "id": 275403151, "nodes": [2800344714, 2800344716, 2800344723, 2800344731, 2800344728, 2800344725, 2800344721, 2800344718, 2800344717, 2800344714], "tags": {"leisure": "park"}}, {"type": "way", "id": 284758453, "nodes": [2884641133, 2884641134, 2884641135, 2884641138, 2884641140, 2884641150, 2884641146, 2884641145, 2884641139, 2884641137, 2884641133], "tags": {"barrier": "wall", "leisure": "park"}}, {"type": "way", "id": 284758456, "nodes": [2884641147, 2884641151, 2884641142, 2884641141, 2884641131, 2884641129, 2884641147], "tags": {"barrier": "wall", "leisure": "park"}}, {"type": "way", "id": 291553432, "nodes": [2950221051, 2950221050, 2950221056, 2950221055, 2950221058, 2950221064, 2950221070, 2950221078, 2950221066, 2950221061, 2950221060, 2950221051], "tags": {"barrier": "wall", "leisure": "park"}}, {"type": "way", "id": 291554263, "nodes": [2950236637, 2950236642, 2950236646, 2950236648, 2950236652, 2950236654, 2950236657, 2950236659, 2950236660, 2950236656, 2950236653, 2950236650, 2950236651, 2950236649, 2950236647, 2950236645, 2950236643, 2950236637], "tags": {"barrier": "wall", "leisure": "park", "name": "Andolan Park"}}, {"type": "way", "id": 291554264, "nodes": [2950236628, 2950236627, 2950236626, 2950236629, 2950236631, 2950236632, 2950236628], "tags": {"barrier": "wall", "leisure": "park", "name": "Triveni DDA Park"}}, {"type": "way", "id": 291554265, "nodes": [2950236634, 2950236630, 2950236640, 2950236633, 2950236636, 2950236639, 2950236634], "tags": {"barrier": "wall", "leisure": "park"}}, {"type": "way", "id": 291621846, "nodes": [2950924619, 2950924624, 2950924625, 2950924630, 2950924631, 2950924620, 2950924618, 2950924617, 2950924619], "tags": {"barrier": "wall", "leisure": "park"}}, {"type": "way", "id": 295462240, "nodes": [2991960931, 2991960932, 2991962933, 2991962934, 2991960931], "tags": {"leisure": "park", "name": "Science Park"}}, {"type": "way", "id": 300596290, "nodes": [3046744877, 3046744878, 3046744879, 3046744880, 3046744881, 3046744882, 3046744883, 3046744877], "tags": {"leisure": "park"}}, {"type": "way", "id": 309928609, "nodes": [2805318282, 3152607573, 3152607574, 2805318297, 2805318299, 3152607575, 1024317456, 1024317361, 1024317407, 1024317435, 1024317449, 3152607566, 2805318282], "tags": {"leisure": "park"}}, {"type": "way", "id": 312913559, "nodes": [3188331605, 3188331604, 3188331602, 3188331603, 3188331605], "tags": {"leisure": "park"}}, {"type": "way", "id": 351118900, "nodes": [3568423066, 3568423032, 3568422842, 3568422888, 3568423066], "tags": {"building": "yes", "name": "OYO Flagship Shri Ram Residency", "tourism": "hotel"}}, {"type": "way", "id": 351149089, "nodes": [3568784094, 3568783949, 3568783906, 12896276941, 3568783948, 3568784094], "tags": {"addr:city": "New Delhi", "addr:district": "saket", "addr:postcode": "110030", "addr:street": "Gali Number 1", "amenity": "cafe", "building": "cafe", "cuisine": "burger;coffee_shop;chinese;sandwich;indian;noodle;fries", "internet_access": "wlan", "name": "Bethak Snooker And Cafe", "outdoor_seating": "yes"}}, {"type": "way", "id": 351814372, "nodes": [3576231780, 3576231784, 11676372591, 11676340851, 11676340822, 11676372573, 3576231779, 3576231774, 11676372589, 11676340854, 11676340837, 11676372571, 3576231780], "tags": {"building": "yes", "fixme": "building name?", "tourism": "hostel"}}, {"type": "way", "id": 351866119, "nodes": [3576643913, 3576643899, 3659270494, 3659270493, 3659270495, 3576643784, 3576643901, 3576643913], "tags": {"addr:city": "Delhi", "addr:housenumber": "E-514", "addr:postcode": "110048", "addr:street": "Greater Kailash 2", "building": "yes", "ele": "2", "name": "Hotel GTC", "phone": "+91 011-40518400", "smoking": "isolated", "tourism": "hotel", "website": "http://hotelgtc.in/", "wheelchair": "yes"}}, {"type": "way", "id": 351868136, "nodes": [3576657287, 3576657289, 3576660993, 3576660996, 3576660998, 3576661001, 3576661003, 3576661008, 3576661009, 3576661004, 3576661002, 3576660999, 3576660997, 3576660994, 3576657292, 3576657288, 3576657287], "tags": {"building": "yes", "name": "Himadri", "tourism": "hostel"}}, {"type": "way", "id": 351868143, "nodes": [3576657269, 3576657266, 3576657268, 3576657272, 3576657261, 3576657262, 3576657267, 3576657265, 3576657279, 3576657275, 3576657274, 3576657270, 3576657257, 3576657259, 3576657269], "tags": {"name": "Kailash", "tourism": "hostel"}}, {"type": "way", "id": 352248523, "nodes": [3580039065, 3580039054, 3580038784, 3580039001, 3580039065], "tags": {"building": "hotel", "building:levels": "5", "building:levels:underground": "1", "name": "Private Affair", "roof:shape": "flat", "tourism": "hotel"}}, {"type": "way", "id": 352248551, "nodes": [3580038537, 3580038358, 3580038357, 3580038339, 3580038336, 3580038528, 3580038537], "tags": {"addr:city": "New Delhi", "addr:postcode": "110048", "addr:street": "Hans Raj Gupta Marg", "building": "yes", "internet_access": "yes", "internet_access:fee": "customers", "name": "FabHotel Cabana", "phone": "+917042424242", "tourism": "hotel", "website": "https://www.fabhotels.com/hotels-in-new-delhi/fabhotel-cabana-gk1.html"}}, {"type": "way", "id": 352541168, "nodes": [3583069898, 3583069963, 3583069961, 3583069895, 3583069898], "tags": {"addr:city": "New Delhi", "addr:postcode": "110017", "addr:street": "Outer Ring Road", "building": "yes", "name": "juST aPanchsheel Park Hotel", "tourism": "hotel"}}, {"type": "way", "id": 353429788, "nodes": [3592070793, 3592070092, 3592070086, 3592070087, 3592070793], "tags": {"building": "hotel", "name": "The Visaya", "tourism": "hotel", "website": "http://www.thevisaya.com"}}, {"type": "way", "id": 353755371, "nodes": [3595712035, 11676648679, 11676644653, 11676648673, 11676644640, 11676644664, 11676648687, 11676648675, 11676644663, 11676648690, 11676648682, 11676644645, 11676644659, 11676644660, 11676644665, 3595712034, 11676644668, 3595712041, 11676648693, 11676644650, 3595712051, 11676648676, 11676644641, 11676648670, 3595712035], "tags": {"addr:city": "Delhi", "addr:postcode": "110016", "addr:suburb": "Hauz Khas", "building": "yes", "name": "IIT Delhi Main Guest House", "opening_hours": "Mo-Su 08:00-22:00", "phone": "+91-11-2659-7135", "tourism": "guest_house", "website": "www.iitd.ac.in"}}, {"type": "way", "id": 357222241, "nodes": [3625450112, 3625450113, 3625450114, 3625450115, 3625450116, 3625450117, 3625450112], "tags": {"addr:city": "New Delhi", "addr:housenumber": "P5", "addr:postcode": "110016", "addr:street": "Hauz Khas Enclave", "building": "yes", "building:levels": "2", "name": "Haveli Hauz Khas", "phone": "+91-981155-1357", "source": "local knowledge", "tourism": "guest_house", "website": "http://www.havelibnb.com/", "wheelchair": "limited"}}, {"type": "way", "id": 357286166, "nodes": [3626033114, 3626033115, 3626033103, 3626033104, 3626033105, 3626033106, 3626033110, 3626033111, 3626033112, 3626033113, 3626033107, 3626033108, 3626033109, 3626033114], "tags": {"leisure": "park"}}, {"type": "way", "id": 357286171, "nodes": [3626033123, 3626033124, 3626033125, 3626033126, 3626033127, 3626033123], "tags": {"leisure": "park"}}, {"type": "way", "id": 357287141, "nodes": [3626040425, 3626040426, 3626040427, 3626040428, 3626040429, 3626040430, 3626040431, 3626040432, 3626040433, 3626040434, 3626040425], "tags": {"leisure": "park"}}, {"type": "way", "id": 358701096, "nodes": [3635905002, 3635905003, 3635905004, 3635905005, 3635905002], "tags": {"leisure": "park", "name": "Bio-Tech Lawns"}}, {"type": "way", "id": 368245124, "nodes": [3720955017, 3720955018, 3720955019, 3720955020, 3720955017], "tags": {"addr:postcode": "110016", "addr:street": "Chaudhary Dalip Singh Marg", "amenity": "restaurant", "building": "yes", "capacity": "12", "cuisine": "regional", "name": "Southy", "opening_hours": "Mo-Su 08:30-20:00", "smoking": "no", "takeaway": "yes"}}, {"type": "way", "id": 377430871, "nodes": [3807997465, 3807991767, 3807997469, 3807997470, 3808006057, 3807997471, 3807991760, 3807991864, 3807991862, 12069406202, 12069406203, 3807991761, 3807991863, 3808005757, 3807997465], "tags": {"leisure": "park", "name": "Saket Park"}}, {"type": "way", "id": 414336477, "nodes": [4154942061, 6286535776, 4154942055, 4154942051, 6286535780, 4154942048, 6425331723, 6286535730, 6286535729, 6286535731, 4154942045, 4154942044, 4154942042, 4154942038, 4154942036, 4154942037, 4154942039, 4154942041, 4154942050, 4154942052, 4154942057, 4154942061], "tags": {"barrier": "wall", "leisure": "park", "name": "The Garden of Five Senses", "name:hi": "\u092a\u0902\u091a \u0907\u0928\u094d\u0926\u094d\u0930\u093f\u092f\u093e\u0901 \u0909\u0926\u094d\u092f\u093e\u0928", "wikidata": "Q5522390"}}, {"type": "way", "id": 424232709, "nodes": [4236900459, 4236918215, 4236907641, 4236919991, 4236900459], "tags": {"leisure": "park", "name": "Panchshila Park"}}, {"type": "way", "id": 458342273, "nodes": [4543692011, 4543692012, 4543692013, 4543692014, 4543693536, 4543692011], "tags": {"leisure": "park"}}, {"type": "way", "id": 458345917, "nodes": [4233713704, 4543721344, 1119661732, 1119661756, 3109196365, 1119661737, 2805504880, 1119661717, 4543721345, 4543721346, 4543721347, 4543721348, 4543721349, 4543721350, 4543721351, 4543721352, 9868017286, 4233713704], "tags": {"leisure": "park", "name": "Begumpur Park"}}, {"type": "way", "id": 458345918, "nodes": [3109196340, 2805318277, 3109196341, 4543721353, 9868017285, 4543721354, 3109196340], "tags": {"leisure": "park"}}, {"type": "way", "id": 458346872, "nodes": [4543728183, 3152607566, 1024317358, 3152607562, 4233713730, 3152607572, 2805318281, 4543728183], "tags": {"leisure": "park"}}, {"type": "way", "id": 458353525, "nodes": [4233709070, 4543703698, 4543703715, 4233709066, 4233709070], "tags": {"leisure": "park"}}, {"type": "way", "id": 481996701, "nodes": [3152607569, 3152607570, 4543728182, 4543728181, 3152607569], "tags": {"leisure": "park"}}, {"type": "way", "id": 511088304, "nodes": [5000116721, 5000116722, 5000116723, 5000116724, 5000116721], "tags": {"leisure": "park"}}, {"type": "way", "id": 511088306, "nodes": [5000116727, 5000116728, 5000116729, 5000116730, 5000116727], "tags": {"leisure": "park"}}, {"type": "way", "id": 511088308, "nodes": [5000116733, 5000116734, 5000116735, 5000116736, 5000116733], "tags": {"leisure": "park"}}, {"type": "way", "id": 545417424, "nodes": [5271446696, 5271446697, 5271446698, 5271446699, 5271446696], "tags": {"leisure": "park", "name": "RPS Sheikh Sarai Park"}}, {"type": "way", "id": 545417429, "nodes": [5271446720, 5271446721, 5271446722, 5271446723, 5271446720], "tags": {"leisure": "park", "name": "SFS Category 1 Flats Park"}}, {"type": "way", "id": 545417430, "nodes": [5271446724, 5271446725, 5271446726, 5271446727, 5271446724], "tags": {"leisure": "park"}}, {"type": "way", "id": 545417431, "nodes": [5271446728, 5271446729, 5271446730, 5271446731, 5271446728], "tags": {"leisure": "park"}}, {"type": "way", "id": 545417432, "nodes": [5271446732, 5271446733, 5271446734, 5271446735, 5271446732], "tags": {"leisure": "park"}}, {"type": "way", "id": 545417433, "nodes": [5271446736, 5271446737, 5271446738, 5271446739, 5271446740, 5271446741, 5271446742, 5271446743, 5271446744, 5271446736], "tags": {"leisure": "park"}}, {"type": "way", "id": 549313848, "nodes": [5306226508, 5306226498, 5306226499, 5306226500, 5306226501, 5306226502, 5306226503, 5306226504, 5306226505, 5306226506, 5306226507, 5306226508], "tags": {"amenity": "marketplace", "building": "yes"}}, {"type": "way", "id": 552773490, "nodes": [5336433315, 5336433314, 5336433313, 5336433312, 5336433315], "tags": {"leisure": "park"}}, {"type": "way", "id": 552773498, "nodes": [5336442237, 5336442236, 5336442235, 5336442234, 5336442237], "tags": {"leisure": "park"}}, {"type": "way", "id": 573448974, "nodes": [5507535413, 5507535414, 5507535415, 5507535416, 5507535413], "tags": {"amenity": "marketplace"}}, {"type": "way", "id": 583556646, "nodes": [5579049206, 5579049205, 5579049204, 5579049203, 5579049202, 5579049201, 5579049200, 5579049199, 5579049206], "tags": {"barrier": "wall", "leisure": "park", "name": "DDA Park"}}, {"type": "way", "id": 583790188, "nodes": [5581205414, 6191571719, 6191571721, 5581205413, 5581205412, 5581205409, 5581205414], "tags": {"barrier": "wall", "leisure": "park"}}, {"type": "way", "id": 583790190, "nodes": [5581205418, 5581205417, 5581205416, 5581205415, 5581205418], "tags": {"barrier": "wall", "leisure": "park"}}, {"type": "way", "id": 584472903, "nodes": [5586960156, 5586960159, 5586960160, 5586960155, 5586960154, 5586960153, 5586960156], "tags": {"barrier": "fence", "leisure": "park", "name": "Mata Shanti Sevani Park", "name:hi": "\u092e\u093e\u0924\u093e \u0936\u093e\u0928\u094d\u0924\u093f \u0938\u0947\u0935\u093e\u0928\u0940 \u092a\u093e\u0930\u094d\u0915"}}, {"type": "way", "id": 631913270, "nodes": [5966894010, 5966894011, 5966894012, 5966894013, 5966894014, 5966894015, 5966894016, 5966894017, 5966894018, 5966894019, 5966894020, 5966894021, 5966894022, 5966894023, 5966894024, 5966894025, 5966894026, 2950232984, 5966894027, 5966894028, 5966894029, 11682994946, 5966894030, 11683143427, 11683143428, 5966894031, 5966894032, 5966894033, 5966894034, 11682994934, 11682994935, 11682994936, 11682994937, 11682994938, 11682994939, 11683143429, 11682994940, 11682994941, 5966894035, 5966894036, 5966894037, 5966894038, 5966894039, 5966894040, 5966894041, 5966894042, 3589633606, 5966894043, 5966894044, 5966894045, 5966894046, 5966894047, 3571356093, 5966894048, 3571356103, 3571356113, 11683143418, 11683143419, 5966894049, 5966894050, 3571356150, 3571356148, 5966894051, 5966894010], "tags": {"leisure": "park", "name": "Satpula Lake Park DSA", "old_name": "DDA Bala Sai Park", "operator": "Division Southern Area", "operator:type": "public"}}, {"type": "way", "id": 632857882, "nodes": [5974787256, 5974787254, 5974787253, 5974787255, 5974787256], "tags": {"building": "tomb", "historic": "monument", "name": "Azim Khan's Tomb", "wikidata": "Q33110105", "wikimedia_commons": "Category:Azim Khan's Tomb", "wikipedia": "en:Azim Khan's Tomb"}}, {"type": "way", "id": 632857886, "nodes": [5974787323, 5974787322, 7640428536, 7640428535, 7640428534, 7640428533, 2149473523, 5974787319, 5974787318, 5974787317, 5974787316, 5755942895, 5974787315, 5974787314, 5974787313, 5974787312, 5974787311, 5974787310, 5974787309, 5974787308, 5974787328, 5974787307, 5974787306, 5974787305, 5974787304, 5974787303, 5974787302, 5974787301, 5974787300, 5974787299, 5974787298, 5974787297, 5974787323], "tags": {"historic": "fort", "leisure": "park", "name": "Qila Rai Pithora", "name:ar": "\u0642\u0644\u0639\u0629 \u0631\u0627\u064a \u0628\u064a\u062b\u0648\u0631\u0627", "name:hi": "\u0915\u093f\u0932\u093e \u0930\u093e\u092f \u092a\u093f\u0925\u094c\u0930\u093e", "name:ml": "\u0d15\u0d3f\u0d32 \u0d31\u0d3e\u0d2f\u0d4d \u0d2a\u0d3f\u0d24\u0d4d\u0d24\u0d4b\u0d30", "wikidata": "Q14512138", "wikimedia_commons": "Category:Qila Rai Pithora", "wikipedia": "en:Qila Rai Pithora"}}, {"type": "way", "id": 632857889, "nodes": [5974787523, 5974787520, 5974787519, 5974787518, 5974787522, 5974787517, 5974787516, 5974787515, 5974787521, 5974787514, 5974787511, 5974787510, 5974787509, 5974787513, 5974787508, 5974787507, 5974787506, 5974787512, 5974787505, 5974787502, 5974787501, 5974787500, 5974787504, 5974787499, 5974787498, 5974787497, 5974787496, 5974787503, 5974787495, 5974787492, 5974787491, 5974787490, 5974787489, 5974787494, 5974787488, 5974787487, 5974787486, 5974787485, 5974787493, 5974787484, 5974787481, 5974787480, 5974787479, 5974787483, 5974787478, 5974787477, 5974787476, 5974787482, 5974787475, 5974787472, 5974787471, 5974787470, 5974787469, 5974787474, 5974787468, 5974787467, 5974787466, 5974787473, 5974787465, 5974787462, 5974787461, 5974787460, 5974787464, 5974787459, 5974787458, 5974787457, 5974787463, 5974787456, 5974787453, 5974787452, 5974787451, 5974787455, 5974787450, 5974787449, 5974787448, 5974787454, 5974787447, 5974787444, 5974787443, 5974787442, 5974787441, 5974787446, 5974787440, 5974787439, 5974787438, 5974787437, 5974787445, 5974787436, 5974787433, 5974787432, 5974787431, 5974787435, 5974787430, 5974787429, 5974787428, 5974787434, 5974787427, 5974787424, 5974787423, 5974787422, 5974787426, 5974787421, 5974787420, 5974787419, 5974787425, 5974787418, 5974787415, 5974787414, 5974787413, 5974787417, 5974787412, 5974787411, 5974787410, 5974787409, 5974787408, 5974787416, 5974787407, 5974787404, 5974787403, 5974787402, 5974787406, 5974787401, 5974787400, 5974787399, 5974787398, 5974787405, 5974787397, 5974787394, 5974787393, 5974787392, 5974787391, 5974787396, 5974787390, 5974787389, 5974787388, 5974787387, 5974787395, 5974787386, 5974786575, 5974786574, 5974786561, 5974787352, 5974787351, 5974787350, 5974787349, 5974787347, 5974787346, 5974787345, 5974787344, 5974787343, 5974787348, 5974787342, 5974787341, 5974787340, 5974787339, 5974787338, 5974787525, 5974787332, 5974787331, 5974787330, 5974787333, 5974787334, 5974787329, 5974787337, 5974787336, 5974787335, 5974787524, 5974787523], "tags": {"barrier": "city_wall", "building": "fort", "historic": "yes", "name": "Wall of Qila Rai Pithora"}}, {"type": "way", "id": 633000292, "nodes": [939328797, 5975692955, 5975692954, 5975692953, 5975692952, 5975692951, 5975692950, 5975692949, 5975692948, 939328625, 939328485, 939328797], "tags": {"leisure": "park", "name": "Children's Park"}}, {"type": "way", "id": 633000296, "nodes": [939328778, 5975692944, 5975434978, 5975435493, 5975434926, 5975435487, 5975434879, 5975434969, 5975435084, 5975434912, 5975435035, 5975693090, 12823360939, 12823360944, 12823361025, 12823360943, 5975693091, 5975435054, 5975435786, 5975434975, 5975435490, 5975434921, 5975435045, 5975693092, 5975693094, 5975693093, 939328778], "tags": {"leisure": "park", "name": "Rai Pithora Cultural Complex", "operator": "Ministry of Tourism;Ministry of Culture", "wikimedia_commons": "File:Rai Pithora Cultural Complex.jpg"}}, {"type": "way", "id": 636367839, "nodes": [6001178442, 6001178441, 3568309432, 3568309475, 3568309474, 3568309724, 3568309729, 3568309723, 3568309727, 6001178442], "tags": {"leisure": "park"}}, {"type": "way", "id": 636367841, "nodes": [6001178450, 6447604713, 6001178449, 6001178448, 6001178447, 6001178450], "tags": {"leisure": "park"}}, {"type": "way", "id": 660438496, "nodes": [6183404494, 6183404492, 6183404496, 6183404493, 6183404497, 6183404495, 6183404494], "tags": {"access": "yes", "barrier": "wall", "leisure": "park", "name": "Chirag Delhi Park", "source": "Esri World Imagery;survey"}}, {"type": "way", "id": 669476767, "nodes": [6269276295, 6269275484, 6269275474, 6269275473, 6269276288, 6269276296, 6269276285, 6269275472, 6269275466, 6269275470, 6269275482, 6269275462, 6269275479, 6269276297, 6269275460, 6269276306, 6269276294, 6269276295], "tags": {"barrier": "wall", "leisure": "park", "name": "Green Strip Sarvapriya Vihar", "note": "Timings 05:00-20:00 summers, 05:00-19:00 winters", "opening_hours": "Mo-Su 05:00-20:00"}}, {"type": "way", "id": 675369087, "nodes": [2979106556, 6324858540, 6324858541, 6324858546, 6324858543, 6324858539, 6324858545, 2979106556], "tags": {"addr:place": "Begum Pur", "barrier": "fence", "leisure": "park", "name": "Vijay Mandal Park"}}, {"type": "way", "id": 683766469, "nodes": [6404933445, 6404933444, 6404933447, 6404933446, 6404933445], "tags": {"leisure": "park", "name": "Haji Abbas Park"}}, {"type": "way", "id": 691621240, "nodes": [6490310067, 6490310068, 6490310056, 6490310057, 6490310067], "tags": {"addr:place": "Doctor Ambedkar Nagar", "barrier": "fence", "leisure": "park", "name": "Bhama Shah Park", "opening_hours": "Mo-Su 05:00-09:30, 17:00-20:30"}}, {"type": "way", "id": 699377829, "nodes": [6567479657, 6567479658, 6567479659, 6567479660, 6567479661, 6567479662, 6567479663, 6567479664, 6567479665, 6567479666, 6567479667, 6567479668, 6567479669, 6567479670, 6567479671, 6567479672, 6567479673, 6567479674, 6567479675, 6567479676, 6567479657], "tags": {"leisure": "park", "name": "Gumbad Park"}}, {"type": "way", "id": 699378184, "nodes": [6567522799, 6567522800, 6567522801, 6567522802, 6567522803, 6567522804, 6567522805, 6567522806, 6567522807, 6567522808, 6567522809, 6567522810, 6567522799], "tags": {"leisure": "park"}}, {"type": "way", "id": 704826445, "nodes": [6619070668, 6619070673, 6619070676, 6619070659, 6619070653, 6637644596, 6637644597, 6637644595, 6637644594, 6619070675, 5816260297, 2702480474, 6619070671, 6619070668], "tags": {"barrier": "wall", "leisure": "park", "name": "Saidulajaib Samudayik Park", "name:hi": "\u0938\u0948\u0926\u0941\u0932\u0905\u091c\u093e\u092f\u092c \u0938\u093e\u092e\u0941\u0926\u093e\u092f\u093f\u0915 \u092a\u093e\u0930\u094d\u0915"}}, {"type": "way", "id": 707002837, "nodes": [6643983098, 6643983099, 6643983103, 6643983100, 6643983101, 6643983102, 6643983098], "tags": {"leisure": "park"}}, {"type": "way", "id": 707015178, "nodes": [6644064336, 6644064337, 6644064338, 6644064339, 6644064340, 6644064341, 6644064336], "tags": {"leisure": "park"}}, {"type": "way", "id": 707015179, "nodes": [6644064342, 6644064343, 6644064344, 6644064345, 6644064346, 6644064347, 6644064348, 6644064349, 6644064350, 6644064351, 6644064352, 12321104479, 6644064353, 6644064354, 6644064355, 6644064356, 6644064357, 6644064358, 6644064359, 6644064360, 6644064342], "tags": {"leisure": "park"}}, {"type": "way", "id": 718809317, "nodes": [6749280828, 6749280827, 6749280830, 6749280829, 6749280828], "tags": {"barrier": "fence", "leisure": "park"}}, {"type": "way", "id": 724559424, "nodes": [6795210373, 6795210374, 6795210369, 6795210370, 6795210373], "tags": {"amenity": "marketplace", "note": "Opening hours are a rough estimate.", "opening_hours": "Sa 19:00-22:00"}}, {"type": "way", "id": 761486222, "nodes": [7114621048, 7114621049, 7114621051, 7114621050, 7114621048], "tags": {"leisure": "park", "name": "Shaheed Sukhdev Singh Park", "name:etymology:wikidata": "Q2721919"}}, {"type": "way", "id": 761486223, "nodes": [7114621053, 7114621046, 7114621047, 7114621052, 7114621053], "tags": {"leisure": "park", "name": "Rajguru Park", "name:etymology:wikidata": "Q2721886"}}, {"type": "way", "id": 763322188, "nodes": [7132767306, 7132767303, 7132767307, 7132767305, 7132767306], "tags": {"barrier": "fence", "leisure": "park"}}, {"type": "way", "id": 765443309, "nodes": [7149092370, 7149092368, 7149119087, 7149119088, 7149119089, 7149119095, 7149092367, 7149119086, 7149092370], "tags": {"leisure": "park", "name": "Gandhi Park"}}, {"type": "way", "id": 818062049, "nodes": [7640302760, 11782596207, 11782596254, 11782596223, 11782596230, 11782607444, 11782596196, 7640302761, 7640302762, 7640302763, 11889573223, 11889582827, 11889573253, 11889582858, 7640302764, 7640302765, 12074365000, 7640302766, 12074365021, 11782607410, 7640302767, 7640302760], "tags": {"leisure": "park"}}, {"type": "way", "id": 818062051, "nodes": [7640302771, 7640302772, 7640302773, 7640302774, 7640302775, 7640302776, 7640302777, 7640302771], "tags": {"leisure": "park"}}, {"type": "way", "id": 818062056, "nodes": [7640317810, 7640317811, 7640317812, 7640317813, 7640317810], "tags": {"leisure": "park"}}, {"type": "way", "id": 818074712, "nodes": [7640415242, 7640415243, 7640415244, 7640415245, 7640415242], "tags": {"leisure": "park"}}, {"type": "way", "id": 818074713, "nodes": [7640415246, 7640415247, 7640415248, 7640415249, 7640415250, 7640415251, 7640415252, 9942777407, 9942777406, 7640415255, 7640415258, 7640415259, 7640415246], "tags": {"leisure": "park"}}, {"type": "way", "id": 818074714, "nodes": [7640415260, 7640415261, 7640415262, 7640415263, 7640415260], "tags": {"leisure": "park"}}, {"type": "way", "id": 818074715, "nodes": [7640415264, 7640415265, 7640415266, 7640415267, 7640415264], "tags": {"leisure": "park"}}, {"type": "way", "id": 818074716, "nodes": [7640415268, 7640415269, 7640415270, 7640415271, 7640415272, 7640415273, 7640415268], "tags": {"leisure": "park"}}, {"type": "way", "id": 818074717, "nodes": [7640415274, 7640415275, 7640415276, 7640415277, 7640415278, 7640415274], "tags": {"leisure": "park"}}, {"type": "way", "id": 818074719, "nodes": [7340600573, 7640415282, 7640415283, 7640415284, 7340600573], "tags": {"leisure": "park", "name": "Malviya Nagar Park"}}, {"type": "way", "id": 818074720, "nodes": [4656714716, 7640428385, 7640428386, 13096639845, 7640428387, 4656714716], "tags": {"addr:postcode": "110017", "addr:street": "Gupta Colony", "leisure": "park", "name": "Tikona Park", "name:en": "Tikona Park", "tourism": "attraction"}}, {"type": "way", "id": 818074721, "nodes": [7640428388, 7640428389, 7640428390, 7640428391, 7640428388], "tags": {"leisure": "park"}}, {"type": "way", "id": 818074722, "nodes": [7640428392, 7640428393, 7640428394, 7640428395, 7640428396, 7640428397, 7640428398, 7640428399, 7640428392], "tags": {"leisure": "park"}}, {"type": "way", "id": 818074723, "nodes": [7640428400, 7640428401, 7640428402, 7640428403, 7640428400], "tags": {"leisure": "park"}}, {"type": "way", "id": 818074724, "nodes": [7640428404, 7640428405, 7640428406, 7640428407, 7640428408, 7640428404], "tags": {"leisure": "park"}}, {"type": "way", "id": 818074725, "nodes": [7640428410, 7640428411, 7640428412, 7640428413, 7640428410], "tags": {"leisure": "park"}}, {"type": "way", "id": 818074726, "nodes": [7640428415, 7640428416, 7640428417, 7640428418, 7640428415], "tags": {"leisure": "park"}}, {"type": "way", "id": 818074727, "nodes": [7640428419, 7640428420, 12772675890, 7640428421, 1187213316, 1187213314, 1187213295, 7640428422, 7640428423, 7640428424, 7640428425, 7640428426, 7640428427, 7640428428, 7640428429, 7640428430, 7640428431, 7640428432, 7640428433, 7640428434, 7640428435, 7640428436, 7640428437, 7640428438, 7640428439, 7640428440, 7640428441, 7640428442, 6324858543, 6324858546, 6324858541, 7640428443, 7640428444, 7640428445, 7640428446, 7640428447, 7640428448, 7640428449, 7640428450, 7640428451, 7640428452, 7640428513, 7640428512, 7640428511, 7640428453, 7640428454, 7640428455, 7640428456, 7640428457, 7640428458, 7640428459, 7640428460, 7640428461, 7640428419], "tags": {"leisure": "park", "name": "Shivalik DDA Park"}}, {"type": "way", "id": 818074728, "nodes": [7640428462, 7640428463, 7640428464, 7640428465, 7640428462], "tags": {"leisure": "park"}}, {"type": "way", "id": 818074729, "nodes": [7640428466, 7640428467, 7640428468, 7640428469, 7640428470, 7640428471, 7640428472, 7640428473, 7640428514, 7640428474, 7640428515, 7640428516, 7640428517, 7640428466], "tags": {"leisure": "park", "name": "Sarvodaya Enclave Park"}}, {"type": "way", "id": 818074730, "nodes": [7640428475, 12856907805, 7640428476, 7640428478, 7640428479, 7640428480, 7640428481, 7640428475], "tags": {"leisure": "park", "name": "Central Park"}}, {"type": "way", "id": 818074731, "nodes": [7640428483, 7640428484, 7640428485, 7640428486, 7640428483], "tags": {"leisure": "park"}}, {"type": "way", "id": 818074732, "nodes": [7640428487, 7640428488, 7640428489, 7640428490, 7640428491, 7640428492, 7640428493, 7640428494, 7640428495, 7640428487], "tags": {"leisure": "park"}}, {"type": "way", "id": 818074733, "nodes": [7640428496, 7640428497, 7640428498, 7640428499, 7640428500, 7640428501, 7640428502, 7640428496], "tags": {"leisure": "park"}}, {"type": "way", "id": 818074734, "nodes": [7640428503, 7640428504, 7640428505, 7640428506, 7640428507, 7640428508, 7640428509, 7640428510, 7640428503], "tags": {"leisure": "park"}}, {"type": "way", "id": 818074735, "nodes": [7640428518, 7640428519, 7640428520, 7640428521, 7640428518], "tags": {"leisure": "park"}}, {"type": "way", "id": 818074736, "nodes": [7640428522, 7640428523, 7640428524, 7640428531, 7640428532, 7640428522], "tags": {"leisure": "park", "noname": "yes"}}, {"type": "way", "id": 818074737, "nodes": [7640428537, 7640428538, 7640428539, 7640428540, 7640428541, 7640428534, 7640428535, 7640428536, 7640428542, 7640428543, 7640428544, 7640428545, 7640428546, 7640428547, 7640428548, 7640428549, 7640428537], "tags": {"leisure": "park", "name": "Butterfly Park"}}, {"type": "way", "id": 818074739, "nodes": [7640428560, 7640428561, 7640428562, 7640428563, 7640428560], "tags": {"leisure": "park"}}, {"type": "way", "id": 818074740, "nodes": [7640428565, 7640428566, 7640428567, 7640428568, 7640428565], "tags": {"leisure": "park"}}, {"type": "way", "id": 818709475, "nodes": [7645753106, 7645753107, 7645753108, 7645753109, 7645753110, 7645753111, 7645753106], "tags": {"leisure": "park"}}, {"type": "way", "id": 818709483, "nodes": [7645753164, 7645753165, 7645753166, 7645753167, 7645753164], "tags": {"leisure": "park"}}, {"type": "way", "id": 818709485, "nodes": [7645753174, 7645753175, 7645753176, 7645753177, 7645753174], "tags": {"leisure": "park"}}, {"type": "way", "id": 818709486, "nodes": [7645753178, 7645753179, 7645753180, 7645753181, 7645753178], "tags": {"leisure": "park"}}, {"type": "way", "id": 818709487, "nodes": [7645753182, 7645753183, 7645753184, 7645790385, 7645790386, 7645790387, 7645790388, 7645790389, 7645790390, 7645790391, 7645790392, 7645790393, 7645790394, 7645790395, 7645790396, 7645790397, 7645790398, 7645790399, 7645790400, 7645790401, 7645790402, 7645790403, 7645790404, 7645790405, 7645790406, 7645790407, 7645790408, 7645753182], "tags": {"leisure": "park"}}, {"type": "way", "id": 818709488, "nodes": [7645790409, 7645790410, 7645790411, 7645790412, 7645790413, 7645790414, 7645790409], "tags": {"leisure": "park"}}, {"type": "way", "id": 818709489, "nodes": [7645790415, 7645790416, 7645790417, 7645790418, 7645790415], "tags": {"leisure": "park"}}, {"type": "way", "id": 818709490, "nodes": [7645790419, 7645790420, 7645790421, 7645790422, 7645790423, 7645790424, 7645790425, 7645790419], "tags": {"leisure": "park"}}, {"type": "way", "id": 818709491, "nodes": [7645790426, 12875660637, 7645790428, 7645790429, 7645790426], "tags": {"leisure": "park"}}, {"type": "way", "id": 818709494, "nodes": [7645790438, 7645790439, 7645790440, 7645790441, 7645790438], "tags": {"leisure": "park"}}, {"type": "way", "id": 818709502, "nodes": [7645790465, 7645790466, 7645790467, 7645790468, 7645790465], "tags": {"leisure": "park"}}, {"type": "way", "id": 818723409, "nodes": [7645907789, 7645907790, 7645907791, 7645907792, 7645907793, 7645907794, 7645907789], "tags": {"addr:city": "New Delhi", "addr:district": "New Delhi", "addr:postcode": "110017", "addr:street": "SFS FLats", "leisure": "park", "name": "A Block SFS Flats"}}, {"type": "way", "id": 818723410, "nodes": [7645907795, 7645907796, 7645907797, 7645907798, 7645907795], "tags": {"leisure": "park"}}, {"type": "way", "id": 818723411, "nodes": [7645907799, 7645907800, 7645907801, 7645907802, 7645907803, 7645907804, 7645907799], "tags": {"leisure": "park"}}, {"type": "way", "id": 818723412, "nodes": [7645907805, 7645907806, 7645907807, 7645907808, 7645907805], "tags": {"leisure": "park"}}, {"type": "way", "id": 818723415, "nodes": [7645907818, 7645907819, 7645907820, 7645907821, 7645907818], "tags": {"leisure": "park"}}, {"type": "way", "id": 818723417, "nodes": [7645907827, 7645907828, 7645907829, 7645907830, 7645907827], "tags": {"leisure": "park"}}, {"type": "way", "id": 818723418, "nodes": [7645907831, 7645907832, 7645907833, 7645907834, 7645907831], "tags": {"leisure": "park"}}, {"type": "way", "id": 818723420, "nodes": [7645907839, 7645907840, 7645907841, 7645907842, 7645907839], "tags": {"leisure": "park"}}, {"type": "way", "id": 818723421, "nodes": [7645907844, 7645907845, 7645907846, 7645907847, 7645907848, 7645907849, 7645907844], "tags": {"leisure": "park"}}, {"type": "way", "id": 818723422, "nodes": [7645907850, 7645907851, 7645907852, 7645907853, 7645907850], "tags": {"leisure": "park"}}, {"type": "way", "id": 818723423, "nodes": [7645907854, 7645907855, 7645907856, 10261711760, 7645907857, 7645907858, 7645907859, 7645907854], "tags": {"leisure": "park"}}, {"type": "way", "id": 818723425, "nodes": [7645907870, 7645907871, 7645907872, 7645907873, 7645907870], "tags": {"leisure": "park"}}, {"type": "way", "id": 818723426, "nodes": [7645907874, 7645907875, 7645907876, 7645907877, 7645907878, 7645907879, 10262229959, 10262229961, 7645907880, 7645907881, 7645907882, 7645907874], "tags": {"leisure": "park", "name": "Hanuman Park"}}, {"type": "way", "id": 818723427, "nodes": [7645907883, 7645907884, 7645909885, 7645909886, 7645909887, 7645909888, 7645907883], "tags": {"leisure": "park"}}, {"type": "way", "id": 819419217, "nodes": [7652376834, 7652376835, 7652376836, 7652376837, 7652376834], "tags": {"leisure": "park"}}, {"type": "way", "id": 819419219, "nodes": [7652376840, 7652376841, 7652376842, 7652376843, 7652376840], "tags": {"leisure": "park"}}, {"type": "way", "id": 819421702, "nodes": [7652378754, 7652378755, 7652378756, 7652378757, 7652378754], "tags": {"leisure": "park"}}, {"type": "way", "id": 819421705, "nodes": [7652378768, 7652378769, 7652378770, 7652378771, 7652378768], "tags": {"leisure": "park"}}, {"type": "way", "id": 819421706, "nodes": [7652378772, 7652378773, 7652378774, 7652378775, 7652378772], "tags": {"leisure": "park"}}, {"type": "way", "id": 819421707, "nodes": [7652378776, 7652378777, 7652378778, 7652378779, 7652378776], "tags": {"leisure": "park"}}, {"type": "way", "id": 819421708, "nodes": [7652378780, 7652378781, 7652378782, 7652378783, 7652378780], "tags": {"leisure": "park"}}, {"type": "way", "id": 819421709, "nodes": [7652378784, 7652395785, 7652395786, 7652395787, 7652378784], "tags": {"leisure": "park"}}, {"type": "way", "id": 819421710, "nodes": [7652395788, 7652395789, 7652395790, 7652395791, 10262229938, 7652395788], "tags": {"leisure": "park"}}, {"type": "way", "id": 819421711, "nodes": [7652395792, 7652395793, 7652395794, 7652395795, 7652395792], "tags": {"leisure": "park"}}, {"type": "way", "id": 819421712, "nodes": [7652395796, 7652395797, 7652395798, 7652395799, 10262229940, 7652395796], "tags": {"leisure": "park"}}, {"type": "way", "id": 819425219, "nodes": [7652429888, 7652429889, 7652429893, 7652429895, 7652429894, 7652429890, 7652429891, 7652429892, 7652429888], "tags": {"leisure": "park"}}, {"type": "way", "id": 819425220, "nodes": [7652429896, 7652429897, 7652429898, 7652429899, 7652429896], "tags": {"leisure": "park"}}, {"type": "way", "id": 819425221, "nodes": [7652429900, 7652429901, 7652429902, 7652429903, 7652429904, 7652429905, 7652429906, 7652429907, 7652429908, 7652429900], "tags": {"leisure": "park"}}, {"type": "way", "id": 819425222, "nodes": [7652429909, 7652429910, 7652429911, 7652429912, 7652429913, 10262035608, 10262046609, 7652429909], "tags": {"leisure": "park"}}, {"type": "way", "id": 819425223, "nodes": [7652429914, 7652429915, 7652429916, 7652429917, 7652429914], "tags": {"leisure": "park"}}, {"type": "way", "id": 819425225, "nodes": [7652429920, 10261833134, 7652429921, 7652429922, 7652429923, 7652429920], "tags": {"leisure": "park"}}, {"type": "way", "id": 819425227, "nodes": [7652429933, 7652429934, 7652429935, 7652429936, 7652429933], "tags": {"leisure": "park"}}, {"type": "way", "id": 819425230, "nodes": [7652429944, 7652429945, 7652429946, 7652429947, 7652429944], "tags": {"leisure": "park"}}, {"type": "way", "id": 819425231, "nodes": [7652429948, 7652429949, 7652429950, 7652429951, 7652429948], "tags": {"leisure": "park"}}, {"type": "way", "id": 819425232, "nodes": [7652429952, 7652429953, 7652429954, 7652429955, 7652429952], "tags": {"leisure": "park"}}, {"type": "way", "id": 819425233, "nodes": [7652429956, 7652429957, 7652429958, 7652429959, 7652429956], "tags": {"leisure": "park"}}, {"type": "way", "id": 970532318, "nodes": [8981835335, 8981835336, 8981835337, 8981835338, 8981835339, 8981835335], "tags": {"leisure": "park"}}, {"type": "way", "id": 975985027, "nodes": [9031989217, 9031989218, 9031989219, 9031989220, 9031989221, 9031989222, 9031989223, 9031989236, 9031989224, 9031989225, 9031989226, 9031989227, 9031989228, 9031989229, 9031989237, 9031989230, 9031989231, 9031989232, 9031989233, 9031989234, 9031989235, 9031989217], "tags": {"leisure": "park", "name": "COURTYARD"}}, {"type": "way", "id": 975985028, "nodes": [9031989238, 9031989239, 9031989240, 9031989241, 9031989242, 9031989243, 9031989238], "tags": {"leisure": "park", "name": "COURTYARD"}}, {"type": "way", "id": 975985029, "nodes": [9031989244, 9031989245, 9031989246, 9031989247, 9031989248, 9031989249, 9031989244], "tags": {"leisure": "park", "name": "COURTYARD"}}, {"type": "way", "id": 975985030, "nodes": [9031989250, 9031989251, 9031989252, 9031989253, 9031989254, 9031989255, 9031989256, 9031989250], "tags": {"leisure": "park", "name": "COURTYARD"}}, {"type": "way", "id": 975985031, "nodes": [9031989257, 9031989258, 9031989259, 9031989260, 9031989261, 9031989262, 9031989257], "tags": {"leisure": "park", "name": "COURTYARD"}}, {"type": "way", "id": 975985032, "nodes": [9031989263, 9031989264, 9031989265, 9031989266, 9031989267, 9031989268, 9031989263], "tags": {"leisure": "park", "name": "COURTYARD"}}, {"type": "way", "id": 975985033, "nodes": [9031989269, 9031989270, 9031989271, 9031989272, 9031989273, 9031989274, 9031989275, 9031989276, 9031989269], "tags": {"leisure": "park", "name": "COURTYARD"}}, {"type": "way", "id": 975985034, "nodes": [9031989277, 9031989278, 9031989279, 9031989280, 9031989281, 9031989282, 9031989277], "tags": {"leisure": "park", "name": "COURTYARD"}}, {"type": "way", "id": 975985035, "nodes": [9031989283, 9031989284, 9031989285, 9031989286, 9031989287, 9031989288, 9031989283], "tags": {"leisure": "park", "name": "COURTYARD"}}, {"type": "way", "id": 986683082, "nodes": [9120332546, 9120332547, 9120332548, 9120332549, 9120332546], "tags": {"leisure": "park"}}, {"type": "way", "id": 1097311609, "nodes": [10047591957, 10047591958, 10047591959, 10047591960, 10047591961, 10047591962, 10047591963, 10047591957], "tags": {"amenity": "marketplace"}}, {"type": "way", "id": 1097564988, "nodes": [10049751892, 10049751893, 10049751886, 10049751891, 10049751892], "tags": {"amenity": "cafe", "brand": "Cafe Coffee Day", "brand:wikidata": "Q5017235", "building": "yes", "cuisine": "coffee_shop", "internet_access": "wlan", "name": "Cafe Coffee Day", "takeaway": "yes"}}, {"type": "way", "id": 1181406105, "nodes": [10971399094, 10971399093, 10971399092, 10971399091, 10971399094], "tags": {"leisure": "park"}}, {"type": "way", "id": 1215909940, "nodes": [11265917316, 11265917315, 11265917314, 11265917313, 11265917312, 11265917311, 11265917310, 11265917309, 11265917308, 11265917307, 11265917306, 11265917316], "tags": {"leisure": "park"}}, {"type": "way", "id": 1215909941, "nodes": [11265917318, 11265917317], "tags": {"historic": "monument"}}, {"type": "way", "id": 1215909942, "nodes": [11265917346, 11265917319, 11265917320, 11265917321, 11265917322, 11265917323, 11265917324, 11265917325, 11265917326, 11265917327, 11265917328, 11265917329, 11265917330, 11265917331, 11265917345, 11265917332, 11265917333, 11265917334, 11265917335, 11265917336, 11265917337, 11265917338, 11265917339, 11265917340, 11265917341, 11265917342, 11265917343, 11265917344, 11265917346], "tags": {"leisure": "park"}}, {"type": "way", "id": 1215909943, "nodes": [11265917354, 11265917353, 11265917348, 11265917352, 11265917351, 11265917350, 11265917349, 11265917347, 11265917354], "tags": {"leisure": "park"}}, {"type": "way", "id": 1215909944, "nodes": [11265917358, 11265917357, 11265917356, 11265917355, 11265917358], "tags": {"leisure": "park"}}, {"type": "way", "id": 1215909945, "nodes": [11265917362, 11265917361, 11265917360, 11265917359, 11265917362], "tags": {"leisure": "park"}}, {"type": "way", "id": 1215909946, "nodes": [11265917366, 11265917365, 11265917364, 11265917363, 11265917366], "tags": {"leisure": "park"}}, {"type": "way", "id": 1215909948, "nodes": [11265937471, 11265917367, 11265937470, 11265937469, 11265917368, 11265937471], "tags": {"building": "yes", "name": "Chor Minar", "name:en": "Chor Minar", "tourism": "attraction", "wikidata": "Q5104929", "wikimedia_commons": "Category:Chor Minar", "wikipedia": "en:Chor Minar"}}, {"type": "way", "id": 1232285506, "nodes": [11430045810, 11430045811, 11430045812, 11430045813, 11430045814, 11430045815, 11430045816, 11430045817, 11430045818, 11430045819, 11430045810], "tags": {"leisure": "park", "name": "Rose Garden", "surface": "grass"}}, {"type": "way", "id": 1265678460, "nodes": [11756900504, 1040993023, 1040992390, 1040992484, 11756900503, 11756900504], "tags": {"barrier": "wall", "leisure": "park"}}, {"type": "way", "id": 1270331106, "nodes": [11795127234, 11795128672, 11795128680, 11795127250, 11795128690, 11795128670, 11795127220, 11795128681, 11795127234], "tags": {"leisure": "park"}}, {"type": "way", "id": 1294923149, "nodes": [12000370652, 12000370651, 12000370650, 12000370649, 12000370648, 12000370647, 12000370646, 12000370645, 12000370652], "tags": {"leisure": "park"}}, {"type": "way", "id": 1294923150, "nodes": [12000370656, 12000370655, 12000370654, 12000370653, 12000370656], "tags": {"leisure": "park"}}, {"type": "way", "id": 1294923151, "nodes": [12000370661, 12000370660, 12000370659, 12000370658, 12000370657, 12000370661], "tags": {"leisure": "park"}}, {"type": "way", "id": 1294923154, "nodes": [12000392873, 12000392872, 12000392871, 12000392870, 12000392869, 12000370668, 12000370667, 12000370666, 12000370665, 12000370664, 12000370663, 12000370662, 12000392873], "tags": {"leisure": "park"}}, {"type": "way", "id": 1300992164, "nodes": [12050124876, 12050124877, 12050124878, 12050124879, 12050124880, 12050124876], "tags": {"leisure": "park", "playground:theme": "playground"}}, {"type": "way", "id": 1304974276, "nodes": [12086593505, 12086593520, 12086593526, 12086593518, 12086593514, 12086593523, 12086593516, 12086593509, 12086593505], "tags": {"leisure": "park", "name": "Eco Park", "note": "Signed opening hours don't actually seem to be followed.", "opening_hours": "Mo-Su 06:00-09:00, 17:00-21:00"}}, {"type": "way", "id": 1354162312, "nodes": [12531561470, 12531561474, 12531561473, 12531561475, 12531561477, 12531561478, 12531561469, 12531561472, 12531561471, 12531561476, 12531561479, 12531561470], "tags": {"access": "private", "leisure": "park"}}, {"type": "way", "id": 1354254244, "nodes": [12531489738, 12532385719, 12532385720, 12532385721, 12531489738], "tags": {"amenity": "cafe", "building": "yes", "check_date": "2025-01-25", "cuisine": "pizza;coffee_shop;mediterranean", "name": "Cafe Tesu", "outdoor_seating": "yes"}}, {"type": "way", "id": 1380343527, "nodes": [12779128341, 12800204743, 12800204744, 12800204729, 12800204753, 12800204746, 12779128342, 12779128344, 12800399014, 12779128340, 12779128343, 11795127241, 11795127237, 11795128679, 939271361, 12779128345, 12800251231, 12779128341], "tags": {"leisure": "park"}}, {"type": "way", "id": 1385061182, "nodes": [12823360372, 12823360370, 12823360377, 12823360364, 12823360363, 12823360368, 12823360373, 12823360371, 12823360378, 12823360379, 12823360385, 12823360372], "tags": {"leisure": "park", "name": "Saket District Park"}}, {"type": "way", "id": 1385319906, "nodes": [12825579370, 12825579379, 12825579388, 12825579363, 12825579370], "tags": {"leisure": "park", "noname": "yes"}}, {"type": "way", "id": 1385366195, "nodes": [12826037615, 6077096429, 2800848453, 2800848452, 11484601266, 11484601267, 12826037643, 12826037624, 12826037632, 12826037640, 11484601268, 12826037615], "tags": {"brand": "Sheraton", "brand:wikidata": "Q634831", "name": "Sheraton", "tourism": "hotel"}}, {"type": "way", "id": 1388700954, "nodes": [12854775400, 12854776510, 12854776507, 12854776511, 12854776503, 12854776506, 12854775400], "tags": {"leisure": "park", "noname": "yes"}}, {"type": "way", "id": 1388700956, "nodes": [12854776513, 12854776514, 12854776515, 12854775398, 12854776513], "tags": {"leisure": "park", "noname": "yes"}}, {"type": "way", "id": 1388712948, "nodes": [12854855877, 12854855879, 12854855878, 12854855876, 12854855877], "tags": {"leisure": "park", "noname": "yes"}}, {"type": "way", "id": 1388932882, "nodes": [12856907858, 12856907859, 12856907825, 12856907829, 12856907858], "tags": {"leisure": "park"}}, {"type": "way", "id": 1393554759, "nodes": [12899449265, 12899449266, 12899449267, 12899449268, 12899449265], "tags": {"leisure": "park", "name": "Red Square", "opening_hours": "24/7", "operator": "IIT Delhi", "operator:type": "college"}}, {"type": "way", "id": 1424825478, "nodes": [13096639863, 13096639836, 13096639858, 13096639859, 13096639851, 13096639863], "tags": {"leisure": "park", "name": "Vaikunth Vatika", "name:hi": "\u0935\u0948\u0915\u0941\u0923\u094d\u0920 \u0935\u093e\u091f\u093f\u0915\u093e"}}, {"type": "way", "id": 1426586682, "nodes": [13114178091, 13114178030, 13114178024, 13114177185, 13114178091], "tags": {"leisure": "park"}}, {"type": "way", "id": 1426586690, "nodes": [13114178055, 13114178100, 13063852213, 13063852215, 13063852214, 13114177158, 13114178020, 13114178077, 13114177186, 13063852211, 5535518742, 5535518741, 13063852216, 13063852212, 13114177147, 5327652090, 13114178022, 13114177164, 13114178055], "tags": {"alt_name": "DDA Park Shahpur Jat", "alt_name:hi": "\u0921\u0940\u0921\u0940\u090f \u092a\u093e\u0930\u094d\u0915 \u0936\u093e\u0939\u092a\u0941\u0930 \u091c\u093e\u091f", "leisure": "park", "name": "D.D.A. Park Shahpur Jat", "name:hi": "\u0921\u0940.\u0921\u0940.\u090f. \u092a\u093e\u0930\u094d\u0915 \u0936\u093e\u0939\u092a\u0941\u0930 \u091c\u093e\u091f"}}, {"type": "way", "id": 1426586692, "nodes": [13114178104, 13114178026, 13114177143, 13114177142, 13114177180, 13114177192, 13114177155, 13114178104], "tags": {"leisure": "park"}}, {"type": "way", "id": 1426586711, "nodes": [13114178069, 13114178099, 13114178096, 13114178105, 13114178069], "tags": {"leisure": "park"}}, {"type": "way", "id": 1426586713, "nodes": [13114177175, 13114178056, 13114177126, 13114177151, 13114177175], "tags": {"leisure": "park"}}, {"type": "way", "id": 1428122030, "nodes": [13129053682, 13129053683, 13129053684, 13129053685, 13129053682], "tags": {"amenity": "cafe", "building": "yes", "name": "cafe chai"}}, {"type": "way", "id": 1428332357, "nodes": [13131404639, 13131404640, 13131404641, 13131404642, 13131404643, 13131404639], "tags": {"amenity": "cafe", "building": "yes", "cuisine": "coffee_shop", "name": "Sandwish Smugglers", "outdoor_seating": "yes"}}, {"type": "way", "id": 1429713341, "nodes": [13142484194, 13142496807, 13142496802, 13142496803, 13142484194], "tags": {"leisure": "park"}}, {"type": "way", "id": 1429713344, "nodes": [13142484182, 13142484199, 13142484179, 13142496806, 13142484188, 13142484180, 13142484182], "tags": {"leisure": "park"}}, {"type": "node", "id": 3568309432, "lat": 28.5102138, "lon": 77.1985582}, {"type": "node", "id": 3568309474, "lat": 28.5102973, "lon": 77.1987505}, {"type": "node", "id": 3568309475, "lat": 28.5103043, "lon": 77.1985729}, {"type": "node", "id": 3568309723, "lat": 28.5104384, "lon": 77.1985654}, {"type": "node", "id": 3568309724, "lat": 28.5104371, "lon": 77.1987518}, {"type": "node", "id": 3568309727, "lat": 28.5104391, "lon": 77.1984672}, {"type": "node", "id": 3568309729, "lat": 28.5104377, "lon": 77.1986592}, {"type": "node", "id": 5581205409, "lat": 28.5090341, "lon": 77.1981789}, {"type": "node", "id": 5581205412, "lat": 28.5090334, "lon": 77.1987315}, {"type": "node", "id": 5581205413, "lat": 28.5088547, "lon": 77.1987312}, {"type": "node", "id": 5581205414, "lat": 28.5088554, "lon": 77.1981786}, {"type": "node", "id": 5581205415, "lat": 28.5080933, "lon": 77.1976356}, {"type": "node", "id": 5581205416, "lat": 28.508087, "lon": 77.1980345}, {"type": "node", "id": 5581205417, "lat": 28.5078226, "lon": 77.198032}, {"type": "node", "id": 5581205418, "lat": 28.5078243, "lon": 77.1976304}, {"type": "node", "id": 6001178441, "lat": 28.5102094, "lon": 77.1983741}, {"type": "node", "id": 6001178442, "lat": 28.5104398, "lon": 77.1983762}, {"type": "node", "id": 6001178447, "lat": 28.5105978, "lon": 77.1991828}, {"type": "node", "id": 6001178448, "lat": 28.5104016, "lon": 77.1991804}, {"type": "node", "id": 6001178449, "lat": 28.5104048, "lon": 77.1988385}, {"type": "node", "id": 6001178450, "lat": 28.510601, "lon": 77.1988408}, {"type": "node", "id": 6191571719, "lat": 28.5088551, "lon": 77.1984555}, {"type": "node", "id": 6191571721, "lat": 28.508855, "lon": 77.1985008}, {"type": "node", "id": 6447604713, "lat": 28.510571, "lon": 77.1988404}, {"type": "node", "id": 13129053682, "lat": 28.5080262, "lon": 77.1963348}, {"type": "node", "id": 13129053683, "lat": 28.5080263, "lon": 77.1964557}, {"type": "node", "id": 13129053684, "lat": 28.5078748, "lon": 77.1964643}, {"type": "node", "id": 13129053685, "lat": 28.5078786, "lon": 77.1963372}, {"type": "node", "id": 2884641129, "lat": 28.5019152, "lon": 77.2068926}, {"type": "node", "id": 2884641131, "lat": 28.5019472, "lon": 77.2071537}, {"type": "node", "id": 2884641133, "lat": 28.5021032, "lon": 77.2053012}, {"type": "node", "id": 2884641134, "lat": 28.5021064, "lon": 77.2059529}, {"type": "node", "id": 2884641135, "lat": 28.5021288, "lon": 77.2059785}, {"type": "node", "id": 2884641137, "lat": 28.5022147, "lon": 77.2052907}, {"type": "node", "id": 2884641138, "lat": 28.502268, "lon": 77.2059682}, {"type": "node", "id": 2884641139, "lat": 28.5023263, "lon": 77.205981}, {"type": "node", "id": 2884641140, "lat": 28.5023488, "lon": 77.206737}, {"type": "node", "id": 2884641141, "lat": 28.5024162, "lon": 77.2069748}, {"type": "node", "id": 2884641142, "lat": 28.5024376, "lon": 77.2070317}, {"type": "node", "id": 2884641145, "lat": 28.502452, "lon": 77.2063718}, {"type": "node", "id": 2884641146, "lat": 28.502479, "lon": 77.2063641}, {"type": "node", "id": 2884641147, "lat": 28.5025146, "lon": 77.2067861}, {"type": "node", "id": 2884641150, "lat": 28.5025643, "lon": 77.2066834}, {"type": "node", "id": 2884641151, "lat": 28.5025726, "lon": 77.2069901}, {"type": "node", "id": 9120332546, "lat": 28.5045891, "lon": 77.2146799}, {"type": "node", "id": 9120332547, "lat": 28.5045729, "lon": 77.2148216}, {"type": "node", "id": 9120332548, "lat": 28.5044447, "lon": 77.2148196}, {"type": "node", "id": 9120332549, "lat": 28.5044411, "lon": 77.2146593}, {"type": "node", "id": 5974786561, "lat": 28.5166202, "lon": 77.1945829}, {"type": "node", "id": 5974786574, "lat": 28.516621, "lon": 77.1946052}, {"type": "node", "id": 5974786575, "lat": 28.5166131, "lon": 77.1946451}, {"type": "node", "id": 5974787304, "lat": 28.5161163, "lon": 77.1947238}, {"type": "node", "id": 5974787305, "lat": 28.5158759, "lon": 77.1944958}, {"type": "node", "id": 5974787306, "lat": 28.5162483, "lon": 77.1934068}, {"type": "node", "id": 5974787307, "lat": 28.5164321, "lon": 77.1934712}, {"type": "node", "id": 5974787308, "lat": 28.5176105, "lon": 77.1893728}, {"type": "node", "id": 5974787328, "lat": 28.5172664, "lon": 77.1904778}, {"type": "node", "id": 5974787386, "lat": 28.5166336, "lon": 77.1946675}, {"type": "node", "id": 2702480474, "lat": 28.5146506, "lon": 77.1985294}, {"type": "node", "id": 3568422842, "lat": 28.5156093, "lon": 77.2002086}, {"type": "node", "id": 3568422888, "lat": 28.5156851, "lon": 77.200075}, {"type": "node", "id": 3568423032, "lat": 28.5157591, "lon": 77.20032}, {"type": "node", "id": 3568423066, "lat": 28.5158351, "lon": 77.2001876}, {"type": "node", "id": 4154942036, "lat": 28.5122381, "lon": 77.1969473}, {"type": "node", "id": 4154942037, "lat": 28.5123536, "lon": 77.1992165}, {"type": "node", "id": 4154942038, "lat": 28.5126717, "lon": 77.1965209}, {"type": "node", "id": 4154942039, "lat": 28.5127189, "lon": 77.2002947}, {"type": "node", "id": 4154942041, "lat": 28.512997, "lon": 77.2010833}, {"type": "node", "id": 4154942042, "lat": 28.5130936, "lon": 77.1968347}, {"type": "node", "id": 4154942044, "lat": 28.5134919, "lon": 77.1968159}, {"type": "node", "id": 4154942045, "lat": 28.5137465, "lon": 77.1968883}, {"type": "node", "id": 4154942048, "lat": 28.5143632, "lon": 77.1968465}, {"type": "node", "id": 4154942050, "lat": 28.5142791, "lon": 77.1988195}, {"type": "node", "id": 4154942051, "lat": 28.5146869, "lon": 77.1972182}, {"type": "node", "id": 4154942052, "lat": 28.5146374, "lon": 77.1981382}, {"type": "node", "id": 4154942055, "lat": 28.5147292, "lon": 77.1971029}, {"type": "node", "id": 4154942057, "lat": 28.515005, "lon": 77.1980578}, {"type": "node", "id": 4154942061, "lat": 28.515335, "lon": 77.197288}, {"type": "node", "id": 5816260297, "lat": 28.5148177, "lon": 77.1986041}, {"type": "node", "id": 5974787302, "lat": 28.5176576, "lon": 77.1960193},