{"version": 0.6, "generator": "Overpass API 0.7.62.8 e802775f", "osm3s": {"timestamp_osm_base": "2025-11-21T17:58:05Z", "copyright": "The data included in this document is from www.openstreetmap.org. The data is made available under ODbL."}, "elements": [{"type": "node", "id": 5278740822, "lat": 28.4006808, "lon": 77.3184109, "tags": {"addr:housenumber": "Sector 15A", "addr:postcode": "121001", "addr:street": "Lal Bahadur Shastri Marg", "amenity": "restaurant", "email": "gymkhanaclubfaridabad@gmail.com", "name:en": "Gymkhana Club 15A", "opening_hours": "We-Mo 06:00-22:00", "wheelchair": "no"}}, {"type": "node", "id": 6303362387, "lat": 28.4191486, "lon": 77.3243679, "tags": {"name:en": "Saini Chowk", "tourism": "attraction", "wheelchair": "no"}}, {"type": "node", "id": 6303362388, "lat": 28.4300205, "lon": 77.3182345, "tags": {"name:en": "Anand Bhaiya's Home", "tourism": "apartment"}}, {"type": "node", "id": 6303363086, "lat": 28.4198748, "lon": 77.3254089, "tags": {"name:en": "Balmiki Park", "tourism": "attraction", "wheelchair": "no"}}, {"type": "node", "id": 6303363087, "lat": 28.4193479, "lon": 77.3252664, "tags": {"name:en": "Sharma House 525", "tourism": "apartment"}}, {"type": "node", "id": 6303363285, "lat": 28.421765, "lon": 77.3268451, "tags": {"name:en": "Chungi Local Market", "tourism": "attraction", "wheelchair": "no"}}, {"type": "node", "id": 6303688685, "lat": 28.4190607, "lon": 77.3249254, "tags": {"name:en": "Sharma House 501", "tourism": "apartment"}}, {"type": "node", "id": 7554426457, "lat": 28.4301046, "lon": 77.3159958, "tags": {"amenity": "restaurant", "name": "Anupam Restaurant And Cafe"}}, {"type": "node", "id": 8549700903, "lat": 28.4232884, "lon": 77.311025, "tags": {"addr:city": "Faridabad", "addr:housenumber": "SCO-2", "addr:postcode": "121002", "addr:street": "Special Huda Market, Sector-19", "air_conditioning": "yes", "amenity": "restaurant", "cuisine": "burger;italian;chinese;pizza;mexican;chicken", "delivery": "yes", "diet:non-vegetarian": "yes", "diet:vegetarian": "yes", "email": "djangomeal@gmail.com", "name": "Django Meals", "phone": "+917482501866"}}, {"type": "node", "id": 11684904989, "lat": 28.4106429, "lon": 77.3201412, "tags": {"amenity": "restaurant", "cuisine": "pizza", "name": "Crisp n Twist"}}, {"type": "node", "id": 11684905819, "lat": 28.4098134, "lon": 77.319889, "tags": {"amenity": "restaurant", "name": "Big Yellow Door"}}, {"type": "node", "id": 11684906245, "lat": 28.4091259, "lon": 77.3198271, "tags": {"amenity": "restaurant", "name": "Sagar Ratna"}}, {"type": "node", "id": 11696768815, "lat": 28.4380805, "lon": 77.3195019, "tags": {"name": "NACIN", "tourism": "hostel"}}, {"type": "node", "id": 11696787948, "lat": 28.4023604, "lon": 77.3002843, "tags": {"amenity": "restaurant", "name": "Eat N Joy"}}, {"type": "way", "id": 39347973, "nodes": [1574634815, 1832591181, 1574634910, 1832591198, 1832591167, 1832591143, 1832591141, 1574634815], "tags": {"leisure": "park", "name": "Talab Park"}}, {"type": "way", "id": 144196693, "nodes": [1577843483, 1577843656, 1577843810, 1577843452, 1577843200, 1577843483], "tags": {"leisure": "park", "name": "NIT 5 Park"}}, {"type": "way", "id": 144272804, "nodes": [1578318282, 1578318283, 1578318157, 1578318156, 1578318282], "tags": {"amenity": "marketplace", "landuse": "commercial"}}, {"type": "way", "id": 144272861, "nodes": [1578318226, 1578318225, 10209718401, 1578318228, 1578318229, 1578318161, 1578318160, 1578318165, 1578318164, 1578318226], "tags": {"leisure": "park"}}, {"type": "way", "id": 172314904, "nodes": [1832306520, 1832306556, 1832306553, 1832306521, 1832306520], "tags": {"leisure": "park"}}, {"type": "way", "id": 172314906, "nodes": [1832306502, 1832306499, 1832306436, 1832306438, 1832306502], "tags": {"leisure": "park"}}, {"type": "way", "id": 172314908, "nodes": [1832306346, 1832306389, 1832306390, 1832306348, 1832306346], "tags": {"leisure": "park"}}, {"type": "way", "id": 172314910, "nodes": [1832306462, 1832306478, 1832306476, 1832306452, 1832306462], "tags": {"leisure": "park"}}, {"type": "way", "id": 172314917, "nodes": [1832306393, 1832306427, 1832306425, 1832306391, 1832306393], "tags": {"leisure": "park"}}, {"type": "way", "id": 172314918, "nodes": [1832306897, 1832306899, 1832306886, 1832306884, 1832306897], "tags": {"leisure": "park"}}, {"type": "way", "id": 172314919, "nodes": [1832306667, 1832306664, 1832306630, 1832306633, 1832306667], "tags": {"leisure": "park"}}, {"type": "way", "id": 172314921, "nodes": [1832306792, 1832306891, 1832306901, 1832306893, 1832306798, 1832306795, 1832306792], "tags": {"leisure": "park"}}, {"type": "way", "id": 172320323, "nodes": [1832341487, 1832341486, 1832341500, 1832341499, 1832341487], "tags": {"leisure": "park"}}, {"type": "way", "id": 172320325, "nodes": [1832341408, 1832341417, 1832341418, 1832341409, 1832341408], "tags": {"leisure": "park"}}, {"type": "way", "id": 172320326, "nodes": [1832341278, 1832341338, 1832341336, 1832341279, 1832341278], "tags": {"leisure": "park"}}, {"type": "way", "id": 172320330, "nodes": [1832341459, 1832341473, 1832341472, 1832341458, 1832341459], "tags": {"leisure": "park"}}, {"type": "way", "id": 172320331, "nodes": [1832341315, 1832341354, 1832341357, 1832341318, 1832341315], "tags": {"leisure": "park"}}, {"type": "way", "id": 172320332, "nodes": [1832341309, 1832341369, 1832341371, 1832341312, 1832341309], "tags": {"leisure": "park"}}, {"type": "way", "id": 172320333, "nodes": [1832341333, 1832341337, 1832341339, 1832341335, 1832341333], "tags": {"leisure": "park"}}, {"type": "way", "id": 172320334, "nodes": [1832341639, 1832341652, 1832341653, 1832341640, 1832341639], "tags": {"leisure": "park"}}, {"type": "way", "id": 172330965, "nodes": [1832442866, 1832442874, 1832442855, 1832442851, 1832442866], "tags": {"leisure": "park"}}, {"type": "way", "id": 172330966, "nodes": [1832442985, 1832443045, 1832443050, 1832442986, 1832442985], "tags": {"leisure": "park"}}, {"type": "way", "id": 172330967, "nodes": [1832442973, 1832443007, 1832443011, 1832442979, 1832442973], "tags": {"leisure": "park"}}, {"type": "way", "id": 172330969, "nodes": [1832442573, 1832442733, 1832442736, 1832442577, 1832442573], "tags": {"leisure": "park"}}, {"type": "way", "id": 172330971, "nodes": [1832442681, 1832442688, 1832442690, 1832442682, 1832442681], "tags": {"leisure": "park"}}, {"type": "way", "id": 172330975, "nodes": [1832442635, 1832442674, 1832442676, 1832442638, 1832442635], "tags": {"leisure": "park"}}, {"type": "way", "id": 172330976, "nodes": [1832442419, 1832442535, 1832442538, 1832442443, 1832442419], "tags": {"leisure": "park"}}, {"type": "way", "id": 172330979, "nodes": [1832442598, 1832442609, 1832442610, 1832442599, 1832442598], "tags": {"leisure": "park"}}, {"type": "way", "id": 172330980, "nodes": [1832442823, 1832442832, 1832442834, 1832442825, 1832442823], "tags": {"leisure": "park"}}, {"type": "way", "id": 172330982, "nodes": [1832442343, 1832442306, 1832442353, 1832442357, 1832442343], "tags": {"leisure": "park"}}, {"type": "way", "id": 172330983, "nodes": [1832442708, 1832442762, 1832442764, 1832442712, 1832442708], "tags": {"leisure": "park"}}, {"type": "way", "id": 172330987, "nodes": [1832442908, 1832442936, 1832442942, 1832442910, 1832442908], "tags": {"leisure": "park"}}, {"type": "way", "id": 172330988, "nodes": [1832442806, 1832442862, 1832442860, 1832442912, 1832442916, 1832442812, 1832442806], "tags": {"leisure": "park"}}, {"type": "way", "id": 172330990, "nodes": [1832442648, 1832442651, 1832442620, 1832442619, 1832442625, 1832442624, 1832442648], "tags": {"leisure": "park"}}, {"type": "way", "id": 172330993, "nodes": [1832442447, 1832442456, 1832442464, 1832442468, 1832442444, 1832442439, 1832442436, 1832442426, 1832442447], "tags": {"leisure": "park"}}, {"type": "way", "id": 172338262, "nodes": [1832495525, 1832495582, 1832495544, 1832495525], "tags": {"leisure": "park"}}, {"type": "way", "id": 172338263, "nodes": [1832495484, 1832495485, 1832495479, 1832495478, 1832495484], "tags": {"leisure": "park"}}, {"type": "way", "id": 172338264, "nodes": [1832495591, 1832495605, 1832495613, 1832495561, 1832495591], "tags": {"leisure": "park"}}, {"type": "way", "id": 172338268, "nodes": [1832495765, 1832495783, 1832495782, 1832495764, 1832495765], "tags": {"leisure": "park"}}, {"type": "way", "id": 172338269, "nodes": [1832495316, 1832495371, 1832495373, 1832495341, 1832495316], "tags": {"leisure": "park"}}, {"type": "way", "id": 172338273, "nodes": [1832495663, 1832495685, 1832495689, 1832495664, 1832495663], "tags": {"leisure": "park"}}, {"type": "way", "id": 172338275, "nodes": [1832495811, 1832495813, 1832495812, 1832495810, 1832495811], "tags": {"leisure": "park"}}, {"type": "way", "id": 172338276, "nodes": [1832495763, 1832495771, 1832495772, 1832495766, 1832495763], "tags": {"leisure": "park"}}, {"type": "way", "id": 172338278, "nodes": [1832495352, 1832495395, 1832495402, 1832495360, 1832495352], "tags": {"leisure": "park"}}, {"type": "way", "id": 172338279, "nodes": [1832495796, 1832495805, 1832495804, 1832495795, 1832495796], "tags": {"leisure": "park"}}, {"type": "way", "id": 172338280, "nodes": [1832495589, 1832495594, 1832495580, 1832495574, 1832495589], "tags": {"leisure": "park"}}, {"type": "way", "id": 172338282, "nodes": [1832495667, 11527615750, 1832495687, 1832495688, 1832495669, 1832495667], "tags": {"leisure": "park"}}, {"type": "way", "id": 172338283, "nodes": [1832495624, 1832495650, 1832495662, 1832495665, 1832495624], "tags": {"leisure": "park"}}, {"type": "way", "id": 172338285, "nodes": [1832495584, 1832495622, 1832495600, 1832495560, 1832495564, 1832495575, 1832495584], "tags": {"leisure": "park"}}, {"type": "way", "id": 172343206, "nodes": [1832541356, 1832541411, 1832541415, 1832541371, 1832541356], "tags": {"leisure": "park"}}, {"type": "way", "id": 172343207, "nodes": [1832541672, 1832541686, 1832541690, 1832541676, 1832541672], "tags": {"leisure": "park"}}, {"type": "way", "id": 172343208, "nodes": [1832542012, 1832542018, 1832542017, 1832542011, 1832542012], "tags": {"leisure": "park"}}, {"type": "way", "id": 172343209, "nodes": [1832541688, 1832541736, 1832541738, 1832541694, 1832541688], "tags": {"leisure": "park"}}, {"type": "way", "id": 172343210, "nodes": [1832541733, 1832541748, 1832541752, 1832541735, 1832541733], "tags": {"leisure": "park"}}, {"type": "way", "id": 172343212, "nodes": [1832542069, 1832542097, 1832542099, 1832542071, 1832542069], "tags": {"leisure": "park", "name": "Park"}}, {"type": "way", "id": 172343214, "nodes": [1832541534, 1832541553, 1832541554, 1832541538, 1832541534], "tags": {"leisure": "park"}}, {"type": "way", "id": 172343215, "nodes": [1832541377, 1832541398, 1832541409, 1832541378, 1832541377], "tags": {"leisure": "park"}}, {"type": "way", "id": 172343218, "nodes": [1832541576, 1832541587, 1832541589, 1832541581, 1832541576], "tags": {"leisure": "park"}}, {"type": "way", "id": 172343219, "nodes": [1832541461, 1832541505, 1832541509, 1832541475, 1832541461], "tags": {"leisure": "park"}}, {"type": "way", "id": 172343220, "nodes": [1832541727, 1832541723, 1832541792, 1832541793, 1832541727], "tags": {"leisure": "park"}}, {"type": "way", "id": 172343221, "nodes": [1832541595, 1832541594, 1832541620, 1832541621, 1832541595], "tags": {"leisure": "park"}}, {"type": "way", "id": 172343222, "nodes": [1832542025, 1832542032, 1832542033, 1832542026, 1832542025], "tags": {"leisure": "park"}}, {"type": "way", "id": 172343223, "nodes": [1832541337, 1832541381, 1832541390, 1832541340, 1832541337], "tags": {"leisure": "park"}}, {"type": "way", "id": 172343225, "nodes": [1832542053, 1832542076, 1832542077, 1832542055, 1832542053], "tags": {"leisure": "park"}}, {"type": "way", "id": 172343226, "nodes": [1832541358, 1832541383, 1832541387, 1832541416, 1832541418, 1832541372, 1832541358], "tags": {"leisure": "park"}}, {"type": "way", "id": 172344591, "nodes": [1832555196, 1832555200, 1832555201, 1832555198, 1832555196], "tags": {"leisure": "park"}}, {"type": "way", "id": 172344593, "nodes": [1832555247, 1832555257, 1832555258, 1832555249, 1832555247], "tags": {"leisure": "park"}}, {"type": "way", "id": 172377605, "nodes": [1832855740, 1832855773, 1832855775, 1832855742, 1832855740], "tags": {"leisure": "park"}}, {"type": "way", "id": 172377609, "nodes": [1832856373, 1832856407, 1832856409, 1832856375, 1832856373], "tags": {"leisure": "park"}}, {"type": "way", "id": 172377610, "nodes": [1832856376, 1832856403, 1832856405, 1832856378, 1832856376], "tags": {"leisure": "park"}}, {"type": "way", "id": 172377611, "nodes": [1832856478, 1832856501, 1832856504, 1832856480, 1832856478], "tags": {"leisure": "park"}}, {"type": "way", "id": 172377612, "nodes": [1832856244, 1832856262, 1832856264, 1832856246, 1832856244], "tags": {"leisure": "park"}}, {"type": "way", "id": 172377613, "nodes": [1832856487, 1832856522, 1832856526, 1832856492, 1832856487], "tags": {"leisure": "park"}}, {"type": "way", "id": 172377614, "nodes": [1832856479, 1832856515, 1832856517, 1832856483, 1832856479], "tags": {"leisure": "park"}}, {"type": "way", "id": 172377615, "nodes": [1832856291, 1832856325, 1832856327, 1832856294, 1832856291], "tags": {"leisure": "park"}}, {"type": "way", "id": 172377617, "nodes": [1832856488, 1832856508, 1832856512, 1832856496, 1832856488], "tags": {"leisure": "park"}}, {"type": "way", "id": 172377618, "nodes": [1832855686, 1832855749, 1832855750, 1832855682, 1832855686], "tags": {"leisure": "park"}}, {"type": "way", "id": 172380080, "nodes": [1832885405, 1832885409, 1832885382, 1832885375, 1832885405], "tags": {"leisure": "park"}}, {"type": "way", "id": 172380082, "nodes": [1832885521, 1832885564, 1832885566, 1832885526, 1832885521], "tags": {"leisure": "park"}}, {"type": "way", "id": 172380084, "nodes": [1832885447, 1832885448, 1832885424, 1832885418, 1832885447], "tags": {"leisure": "park"}}, {"type": "way", "id": 172383378, "nodes": [1832913830, 1832913838, 1832913840, 1832913831, 1832913830], "tags": {"leisure": "park"}}, {"type": "way", "id": 172383379, "nodes": [1832913305, 1832913341, 1832913347, 1832913308, 1832913305], "tags": {"leisure": "park"}}, {"type": "way", "id": 172383381, "nodes": [1832913260, 1832913372, 1832913373, 1832913264, 1832913260], "tags": {"leisure": "park"}}, {"type": "way", "id": 172383385, "nodes": [1832913340, 1832913359, 1832913360, 1832913343, 1832913340], "tags": {"leisure": "park"}}, {"type": "way", "id": 172383386, "nodes": [1832913328, 1832913354, 1832913355, 1832913332, 1832913328], "tags": {"leisure": "park"}}, {"type": "way", "id": 172383387, "nodes": [1832913503, 1832913507, 1832913502, 1832913495, 1832913503], "tags": {"leisure": "park"}}, {"type": "way", "id": 172383388, "nodes": [1832913519, 1832913535, 1832913539, 1832913521, 1832913519], "tags": {"leisure": "park"}}, {"type": "way", "id": 172383389, "nodes": [1832913832, 1832913858, 1832913861, 1832913833, 1832913832], "tags": {"leisure": "park"}}, {"type": "way", "id": 172383391, "nodes": [1832913543, 1832913551, 1832913553, 1832913548, 1832913543], "tags": {"leisure": "park"}}, {"type": "way", "id": 172383392, "nodes": [1832913379, 1832913389, 1832913392, 1832913381, 1832913379], "tags": {"leisure": "park"}}, {"type": "way", "id": 172383397, "nodes": [1832913455, 1832913466, 1832913469, 1832913456, 1832913455], "tags": {"leisure": "park"}}, {"type": "way", "id": 172383398, "nodes": [1832913607, 1832913611, 1832913613, 1832913602, 1832913585, 1832913607], "tags": {"leisure": "park", "name": "Sector 16 HUDA Park"}}, {"type": "way", "id": 172383399, "nodes": [1832913618, 1832913621, 1832913620, 1832913614, 1832913609, 1832913618], "tags": {"leisure": "park"}}, {"type": "way", "id": 172383401, "nodes": [1832913384, 1832913564, 1832913566, 1832913395, 1832913413, 1832913390, 1832913384], "tags": {"leisure": "park"}}, {"type": "way", "id": 172384913, "nodes": [1832925640, 1832925645, 1832925647, 1832925641, 1832925640], "tags": {"leisure": "park"}}, {"type": "way", "id": 172384914, "nodes": [1832925536, 1832925541, 1832925530, 1832925529, 1832925536], "tags": {"leisure": "park"}}, {"type": "way", "id": 172384916, "nodes": [1832925592, 1832925597, 1832925598, 1832925594, 1832925592], "tags": {"leisure": "park"}}, {"type": "way", "id": 172384917, "nodes": [1832925444, 1832925461, 1832925462, 1832925446, 1832925444], "tags": {"leisure": "park"}}, {"type": "way", "id": 172384918, "nodes": [1832925421, 1832925422, 1832925415, 1832925412, 1832925421], "tags": {"leisure": "park"}}, {"type": "way", "id": 172384919, "nodes": [1832925622, 1832925624, 1832925619, 1832925616, 1832925622], "tags": {"leisure": "park"}}, {"type": "way", "id": 172384920, "nodes": [1832925638, 1832925642, 1832925644, 1832925639, 1832925638], "tags": {"leisure": "park"}}, {"type": "way", "id": 172384921, "nodes": [1832925418, 1832925424, 1832925435, 1832925419, 1832925418], "tags": {"leisure": "park"}}, {"type": "way", "id": 172384922, "nodes": [1832925607, 1832925612, 1832925613, 1832925608, 1832925607], "tags": {"leisure": "park"}}, {"type": "way", "id": 172384923, "nodes": [1832925456, 1832925480, 1832925482, 1832925458, 1832925456], "tags": {"leisure": "park"}}, {"type": "way", "id": 172384926, "nodes": [1832925600, 1832925603, 1832925604, 1832925601, 1832925600], "tags": {"leisure": "park"}}, {"type": "way", "id": 172384927, "nodes": [1832925403, 1832925465, 1832925468, 1832965381, 1832925404, 1832925403], "tags": {"leisure": "park"}}, {"type": "way", "id": 172387772, "nodes": [1832965297, 1832965321, 1832965327, 1832965299, 1832965297], "tags": {"leisure": "park"}}, {"type": "way", "id": 172387778, "nodes": [1832965291, 1832965354, 1832965358, 1832965293, 1832965291], "tags": {"leisure": "park"}}, {"type": "way", "id": 172387788, "nodes": [1832965335, 1832965339, 1832965244, 1832965232, 12095157001, 1832965335], "tags": {"leisure": "park"}}, {"type": "way", "id": 172387791, "nodes": [1832965341, 1832965347, 1832965325, 1832965317, 1832965341], "tags": {"leisure": "park"}}, {"type": "way", "id": 172390120, "nodes": [1832989294, 1832989316, 1832989317, 1832989295, 1832989294], "tags": {"leisure": "park"}}, {"type": "way", "id": 172390128, "nodes": [1832989282, 1832989285, 1832989272, 1832989270, 1832989282], "tags": {"leisure": "park"}}, {"type": "way", "id": 172390135, "nodes": [1832989288, 1832989289, 1832989283, 1832989281, 1832989288], "tags": {"leisure": "park"}}, {"type": "way", "id": 172390144, "nodes": [1832989276, 1832989305, 1832989311, 1832989292, 1832989291, 1832989278, 1832989276], "tags": {"leisure": "park"}}, {"type": "way", "id": 172396599, "nodes": [1833034543, 1833034546, 1833034539, 1833034533, 1833034531, 1833034527, 1833034524, 1833034522, 1833034535, 1833034537, 1833034543], "tags": {"leisure": "park"}}, {"type": "way", "id": 172396612, "nodes": [1833034525, 1833034541, 1833034542, 1833034529, 1833034525], "tags": {"leisure": "park"}}, {"type": "way", "id": 172579432, "nodes": [1834686583, 1834686608, 1834686606, 1834686437, 1834686583], "tags": {"leisure": "park"}}, {"type": "way", "id": 172579436, "nodes": [1834686351, 1834686370, 1834686397, 1834686383, 1834686351], "tags": {"leisure": "park"}}, {"type": "way", "id": 172579437, "nodes": [1834686634, 1834686649, 1834686654, 1834686621, 1834686620, 1834686634], "tags": {"leisure": "park"}}, {"type": "way", "id": 172579438, "nodes": [1834686406, 1834686579, 1834686555, 1834686425, 1834686420, 1834686406], "tags": {"leisure": "park"}}, {"type": "way", "id": 172579439, "nodes": [1834686138, 1834686261, 1834686246, 1834686205, 1834686183, 1834686137, 1834686138], "tags": {"leisure": "park"}}, {"type": "way", "id": 172579440, "nodes": [1834686263, 1834686313, 1834686320, 1834686338, 1834686343, 1834686347, 1834686354, 1834686265, 1834686263], "tags": {"leisure": "park"}}, {"type": "way", "id": 172581742, "nodes": [1834714495, 1834714504, 1834714526, 1834714561, 1834714537, 1834714521, 1834714495], "tags": {"leisure": "park"}}, {"type": "way", "id": 172581743, "nodes": [1834714834, 1834714906, 1834714963, 1834714950, 1834714939, 1834714914, 1834714904, 1834714889, 1834714844, 1834714834], "tags": {"leisure": "park"}}, {"type": "way", "id": 172656828, "nodes": [1835395609, 1835395675, 1835395674, 1835395569, 1835395570, 1835395607, 1835395609], "tags": {"leisure": "park"}}, {"type": "way", "id": 172656829, "nodes": [1835395708, 1835395776, 1835395751, 1835395747, 1835395733, 1835395721, 1835395714, 1835395708], "tags": {"leisure": "park"}}, {"type": "way", "id": 172662245, "nodes": [1835441799, 1835441801, 1835441804, 1835441838, 1835441840, 1835441844, 1835441849, 1835441855, 1835441862, 1835441866, 1835441868, 1835441875, 1835441880, 1835441885, 1835441890, 1835441893, 1835441892, 1835441887, 1835441869, 1835441835, 1835441818, 1835441816, 1835441822, 1835441830, 1835441827, 1835441815, 1835441811, 1835441810, 1835441807, 1835441806, 1835441805, 1835441803, 1835441802, 1835441800, 1835441799], "tags": {"leisure": "park"}}, {"type": "way", "id": 188594254, "nodes": [1992172886, 1992172898, 1992172897, 1992172885, 1992172886], "tags": {"addr:city": "Faridabad", "addr:housenumber": "H.No. 3", "addr:postcode": "121003", "addr:street": "Block no-6 , Sector 30, Block F ,Spring Field Colony ,Sector 31", "leisure": "park", "name": "Apna park", "opening_hours": "24/7", "operator": "Municipal Corporation of Faridabad"}}, {"type": "way", "id": 188594257, "nodes": [1992172840, 1992172844, 1992172845, 1992172841, 1992172840], "tags": {"leisure": "park"}}, {"type": "way", "id": 188594258, "nodes": [1992172873, 1992172888, 1992172887, 1992172874, 1992172873], "tags": {"addr:city": "Faridabad", "addr:postcode": "121003", "addr:street": "Block F, Spring Field Colony, Sector 32, Faridabad, Haryana 121003, India", "leisure": "park", "name": "Vivekananda Park", "name:etymology:wikidata": "Q47478", "opening_hours": "24/7", "operator": "Municipal Corporation of Faridabad"}}, {"type": "way", "id": 188594259, "nodes": [1992172876, 1992172890, 1992172889, 1992172875, 1992172876], "tags": {"leisure": "park"}}, {"type": "way", "id": 188594260, "nodes": [1992172847, 1992172846, 1992172853, 1992172854, 1992172847], "tags": {"leisure": "park"}}, {"type": "way", "id": 250265007, "nodes": [2567531687, 1832885200, 1832885191, 2567531688, 2567531687], "tags": {"leisure": "park"}}, {"type": "way", "id": 358624930, "nodes": [3635290328, 3635290337, 3635290339, 3635290329, 3635290328], "tags": {"leisure": "park"}}, {"type": "way", "id": 358624931, "nodes": [3635290330, 3635290334, 3635290335, 3635290331, 3635290330], "tags": {"leisure": "park"}}, {"type": "way", "id": 358624932, "nodes": [3635290332, 3635290336, 3635290338, 3635290333, 3635290332], "tags": {"leisure": "park"}}, {"type": "way", "id": 358624933, "nodes": [3635290324, 3635290326, 3635290327, 3635290325, 3635290324], "tags": {"leisure": "park"}}, {"type": "way", "id": 359950463, "nodes": [3645631523, 3645631524, 3645631525, 3645631526, 3645631523], "tags": {"addr:street": "Sector-21A", "leisure": "park"}}, {"type": "way", "id": 560016716, "nodes": [5400705908, 5400705909, 5400705910, 5400705911, 5400705912, 5400705913, 5400705914, 5400705908], "tags": {"leisure": "park"}}, {"type": "way", "id": 560102773, "nodes": [5401397718, 5401397719, 5401397720, 5401398321, 5401398322, 5401397718], "tags": {"leisure": "park"}}, {"type": "way", "id": 560102775, "nodes": [5401398323, 5401398324, 5401398325, 5401398326, 5401398323], "tags": {"leisure": "park"}}, {"type": "way", "id": 560102787, "nodes": [5401398347, 5401398348, 5401398349, 5401398350, 5401398351, 5401398352, 5401398353, 5401398354, 5401398355, 5401398347], "tags": {"leisure": "park"}}, {"type": "way", "id": 560102848, "nodes": [5401398630, 5401398631, 5401398632, 5401398633, 5401398634, 5401398635, 5401398636, 5401398637, 5401398638, 5401398630], "tags": {"leisure": "park"}}, {"type": "way", "id": 560102849, "nodes": [5401398639, 5401398640, 5401398641, 5401398642, 5401398639], "tags": {"leisure": "park"}}, {"type": "way", "id": 560102850, "nodes": [5401398643, 5401398644, 5401398645, 5401398646, 5401398647, 5401398648, 5401398649, 5401398650, 5401398651, 5401398652, 5401398643], "tags": {"leisure": "park"}}, {"type": "way", "id": 560102851, "nodes": [5401398653, 5401398654, 5401398655, 5401398656, 5401398657, 5401398658, 5401398659, 9633439826, 5401398653], "tags": {"leisure": "park"}}, {"type": "way", "id": 560102852, "nodes": [5401398661, 5401398662, 5401398663, 5401398664, 5401398661], "tags": {"leisure": "park"}}, {"type": "way", "id": 560102853, "nodes": [5401398665, 5401398666, 5401398667, 5401398668, 5401398669, 5401398670, 5401398665], "tags": {"leisure": "park"}}, {"type": "way", "id": 560102864, "nodes": [5401398711, 5401398712, 5401398714, 5401398715, 5401398716, 5401398717, 5401398711], "tags": {"leisure": "park"}}, {"type": "way", "id": 560114630, "nodes": [5401508739, 5401508740, 5401508741, 5401508742, 5401508743, 5401508744, 5401508739], "tags": {"leisure": "park"}}, {"type": "way", "id": 560114632, "nodes": [5401508745, 5401508746, 5401508747, 5401508748, 5401508749, 5401508750, 5401508751, 5401508752, 3582362054, 3582362053, 5401508745], "tags": {"leisure": "park"}}, {"type": "way", "id": 560117254, "nodes": [5401529639, 5401529640, 5401529641, 5401529642, 5401529643, 5401529644, 5401529639], "tags": {"leisure": "park"}}, {"type": "way", "id": 560117255, "nodes": [5401529645, 5401529646, 5401529647, 5401529648, 5401529649, 9854853897, 5401529650, 5401529651, 5401529652, 5401529645], "tags": {"leisure": "park"}}, {"type": "way", "id": 560117256, "nodes": [5401529653, 5401529654, 5401529655, 5401529656, 5401529657, 5401529658, 9854853896, 5401529653], "tags": {"leisure": "park"}}, {"type": "way", "id": 560135325, "nodes": [5401701533, 5401701534, 5401701535, 5401701536, 5401701537, 5401701538, 5401701539, 5401701540, 5401701541, 9857729449, 5401701543, 5401701544, 5401701545, 5401701546, 5401701547, 5401701548, 5401701549, 5401701550, 5401701551, 5401701552, 5401701553, 5401701554, 5401701555, 5401701556, 5401701557, 5401701558, 5401701559, 5401701560, 5401701533], "tags": {"leisure": "park"}}, {"type": "way", "id": 560135326, "nodes": [5401701561, 5401701562, 5401701563, 5401701564, 5401701565, 5401701566, 5401701567, 3583049453, 9857729450, 5401701569, 5401701561], "tags": {"leisure": "park"}}, {"type": "way", "id": 560135327, "nodes": [5401701570, 5401701571, 9857659561, 9857659562, 3604323242, 5401701574, 5401701575, 5401701576, 5401701577, 5401701578, 5401701570], "tags": {"leisure": "park"}}, {"type": "way", "id": 560135328, "nodes": [5401701579, 5401701580, 5401701581, 5401701582, 5401701583, 5401701584, 5401701579], "tags": {"leisure": "park"}}, {"type": "way", "id": 560542451, "nodes": [5405778941, 5405778942, 5405778943, 5405778944, 5405778941], "tags": {"leisure": "park"}}, {"type": "way", "id": 560542452, "nodes": [5405778945, 5405778946, 5405778947, 3583049442, 5405778945], "tags": {"leisure": "park"}}, {"type": "way", "id": 560542453, "nodes": [5405778948, 5405778949, 5405778950, 5405778951, 5405778952, 5405778953, 5405778954, 5405778955, 5405778956, 5405778948], "tags": {"leisure": "park"}}, {"type": "way", "id": 560542454, "nodes": [5405778957, 5405778958, 5405778959, 5405778960, 5405778961, 5405778962, 5405778963, 5405778964, 5405778965, 5405778966, 5405778957], "tags": {"leisure": "park"}}, {"type": "way", "id": 560542455, "nodes": [5405778967, 5405778968, 5405778969, 5405778970, 5405778971, 5405778972, 5405778973, 5405778974, 10239660839, 5405778967], "tags": {"leisure": "park"}}, {"type": "way", "id": 560655817, "nodes": [5406761260, 5406761261, 5406761262, 5406761265, 5406761264, 5406761263, 5406761260], "tags": {"leisure": "park"}}, {"type": "way", "id": 560661826, "nodes": [5406808034, 5406808035, 5406808036, 5406808037, 5406808034], "tags": {"leisure": "park"}}, {"type": "way", "id": 761709949, "nodes": [7116697792, 7116697791, 7116697790, 7116697789, 7116697788, 7116697787, 7116697786, 7116697785, 7116650484, 7116650483, 7116650482, 7116697792], "tags": {"leisure": "park", "name": "Town Park"}}, {"type": "way", "id": 1176619118, "nodes": [10931742589, 10931742590, 10931742591, 10931742592, 10931742589], "tags": {"leisure": "park"}}, {"type": "node", "id": 5406808034, "lat": 28.3993956, "lon": 77.2896673}, {"type": "node", "id": 5406808035, "lat": 28.3989909, "lon": 77.2898796}, {"type": "node", "id": 5406808036, "lat": 28.4000992, "lon": 77.2915077}, {"type": "node", "id": 5406808037, "lat": 28.4004448, "lon": 77.2911608}, {"type": "node", "id": 1577843200, "lat": 28.3986161, "lon": 77.2986042}, {"type": "node", "id": 1577843452, "lat": 28.3994621, "lon": 77.2984162}, {"type": "node", "id": 1577843483, "lat": 28.3995413, "lon": 77.2974564}, {"type": "node", "id": 1577843656, "lat": 28.399914, "lon": 77.2977451}, {"type": "node", "id": 1577843810, "lat": 28.4005571, "lon": 77.2982137}, {"type": "node", "id": 1834714495, "lat": 28.4026951, "lon": 77.298535}, {"type": "node", "id": 1834714504, "lat": 28.4028392, "lon": 77.2979293}, {"type": "node", "id": 1834714521, "lat": 28.4031498, "lon": 77.2987145}, {"type": "node", "id": 1834714526, "lat": 28.4032851, "lon": 77.2981168}, {"type": "node", "id": 1834714537, "lat": 28.4035906, "lon": 77.298969}, {"type": "node", "id": 1834714561, "lat": 28.4038665, "lon": 77.2984344}, {"type": "node", "id": 1834686137, "lat": 28.4006481, "lon": 77.2998617}, {"type": "node", "id": 1834686138, "lat": 28.4006551, "lon": 77.2997651}, {"type": "node", "id": 1834686183, "lat": 28.4009535, "lon": 77.2999288}, {"type": "node", "id": 1834686205, "lat": 28.4013301, "lon": 77.3000294}, {"type": "node", "id": 1834686246, "lat": 28.4017032, "lon": 77.3002011}, {"type": "node", "id": 1834686261, "lat": 28.4017986, "lon": 77.2999525}, {"type": "node", "id": 1834686263, "lat": 28.401806, "lon": 77.3034314}, {"type": "node", "id": 1834686265, "lat": 28.4018256, "lon": 77.3034649}, {"type": "node", "id": 1834686313, "lat": 28.4023336, "lon": 77.3029125}, {"type": "node", "id": 1834686320, "lat": 28.402449, "lon": 77.302865}, {"type": "node", "id": 1834686338, "lat": 28.4025815, "lon": 77.3028734}, {"type": "node", "id": 1834686343, "lat": 28.4027287, "lon": 77.302932}, {"type": "node", "id": 1834686347, "lat": 28.402822, "lon": 77.3030687}, {"type": "node", "id": 1834686351, "lat": 28.4028586, "lon": 77.3008916}, {"type": "node", "id": 1834686354, "lat": 28.4028956, "lon": 77.3032584}, {"type": "node", "id": 1834686370, "lat": 28.4030096, "lon": 77.3005247}, {"type": "node", "id": 1834686383, "lat": 28.4031623, "lon": 77.3010988}, {"type": "node", "id": 1834686397, "lat": 28.4033532, "lon": 77.3007516}, {"type": "node", "id": 1834686406, "lat": 28.4034699, "lon": 77.3028176}, {"type": "node", "id": 1834686420, "lat": 28.4036515, "lon": 77.3035862}, {"type": "node", "id": 1834686425, "lat": 28.4038479, "lon": 77.3035234}, {"type": "node", "id": 1834686437, "lat": 28.4039579, "lon": 77.3019775}, {"type": "node", "id": 1834686555, "lat": 28.4039914, "lon": 77.303423}, {"type": "node", "id": 1834686579, "lat": 28.4041755, "lon": 77.3032654}, {"type": "node", "id": 1834686583, "lat": 28.4042078, "lon": 77.3015692}, {"type": "node", "id": 1834686606, "lat": 28.4046538, "lon": 77.3024609}, {"type": "node", "id": 1834686608, "lat": 28.40481, "lon": 77.302307}, {"type": "node", "id": 1834686620, "lat": 28.405295, "lon": 77.3031754}, {"type": "node", "id": 1834686621, "lat": 28.4054234, "lon": 77.3035463}, {"type": "node", "id": 1834686634, "lat": 28.4057843, "lon": 77.3028381}, {"type": "node", "id": 1834686649, "lat": 28.405878, "lon": 77.3031162}, {"type": "node", "id": 1834686654, "lat": 28.4059527, "lon": 77.3034339}, {"type": "node", "id": 1833034522, "lat": 28.3987977, "lon": 77.3161294}, {"type": "node", "id": 1833034524, "lat": 28.3988117, "lon": 77.3163565}, {"type": "node", "id": 1833034525, "lat": 28.3997677, "lon": 77.3140991}, {"type": "node", "id": 1833034527, "lat": 28.3997862, "lon": 77.3162784}, {"type": "node", "id": 1833034529, "lat": 28.3997883, "lon": 77.31439}, {"type": "node", "id": 1833034531, "lat": 28.3997996, "lon": 77.3164948}, {"type": "node", "id": 1832885191, "lat": 28.4047444, "lon": 77.3165207}, {"type": "node", "id": 1832885200, "lat": 28.4052668, "lon": 77.3165049}, {"type": "node", "id": 1832913305, "lat": 28.4027985, "lon": 77.319224}, {"type": "node", "id": 1832913341, "lat": 28.403204, "lon": 77.3191927}, {"type": "node", "id": 1833034533, "lat": 28.4000441, "lon": 77.3164752}, {"type": "node", "id": 1833034535, "lat": 28.400078, "lon": 77.3160268}, {"type": "node", "id": 1833034537, "lat": 28.4000907, "lon": 77.3162317}, {"type": "node", "id": 1833034539, "lat": 28.4001287, "lon": 77.3178404}, {"type": "node", "id": 1833034541, "lat": 28.4001976, "lon": 77.3140598}, {"type": "node", "id": 1833034542, "lat": 28.4002182, "lon": 77.3143508}, {"type": "node", "id": 1833034543, "lat": 28.4003268, "lon": 77.3162128}, {"type": "node", "id": 1833034546, "lat": 28.4004262, "lon": 77.3178166}, {"type": "node", "id": 2567531687, "lat": 28.4052363, "lon": 77.3157594}, {"type": "node", "id": 2567531688, "lat": 28.4047095, "lon": 77.3158053}, {"type": "node", "id": 1832913260, "lat": 28.4021001, "lon": 77.3210117}, {"type": "node", "id": 1832913264, "lat": 28.4021222, "lon": 77.3213608}, {"type": "node", "id": 1832913308, "lat": 28.40283, "lon": 77.3197522}, {"type": "node", "id": 1832913328, "lat": 28.4030513, "lon": 77.3230179}, {"type": "node", "id": 1832913332, "lat": 28.4030778, "lon": 77.3233978}, {"type": "node", "id": 1832913340, "lat": 28.4031999, "lon": 77.325253}, {"type": "node", "id": 1832913343, "lat": 28.403221, "lon": 77.3256785}, {"type": "node", "id": 1832913347, "lat": 28.4032355, "lon": 77.3197209}, {"type": "node", "id": 1832913354, "lat": 28.4034453, "lon": 77.3229824}, {"type": "node", "id": 1832913355, "lat": 28.4034718, "lon": 77.3233623}, {"type": "node", "id": 1832913359, "lat": 28.4035649, "lon": 77.3252295}, {"type": "node", "id": 1832913360, "lat": 28.403586, "lon": 77.325655}, {"type": "node", "id": 1832913372, "lat": 28.4037899, "lon": 77.3208721}, {"type": "node", "id": 1832913373, "lat": 28.4038292, "lon": 77.3212519}, {"type": "node", "id": 1832913379, "lat": 28.4039393, "lon": 77.3203536}, {"type": "node", "id": 1832913381, "lat": 28.4039691, "lon": 77.3208161}, {"type": "node", "id": 1832913384, "lat": 28.4040621, "lon": 77.3220591}, {"type": "node", "id": 1832913389, "lat": 28.404149, "lon": 77.3203362}, {"type": "node", "id": 1832913390, "lat": 28.4041751, "lon": 77.3238552}, {"type": "node", "id": 1832913392, "lat": 28.4041788, "lon": 77.3207987}, {"type": "node", "id": 1832913395, "lat": 28.4043278, "lon": 77.3226879}, {"type": "node", "id": 1832913413, "lat": 28.4044001, "lon": 77.3238369}, {"type": "node", "id": 1832913455, "lat": 28.4051566, "lon": 77.3208233}, {"type": "node", "id": 1832913456, "lat": 28.4051727, "lon": 77.3211768}, {"type": "node", "id": 1832913466, "lat": 28.4054682, "lon": 77.320805}, {"type": "node", "id": 1832913469, "lat": 28.4054843, "lon": 77.3211585}, {"type": "node", "id": 1832913495, "lat": 28.4061984, "lon": 77.3201568}, {"type": "node", "id": 1832913502, "lat": 28.4062691, "lon": 77.3211553}, {"type": "node", "id": 1832913503, "lat": 28.4065497, "lon": 77.3201246}, {"type": "node", "id": 1832989270, "lat": 28.4002983, "lon": 77.3200627}, {"type": "node", "id": 1832989272, "lat": 28.4003622, "lon": 77.3210646}, {"type": "node", "id": 1832989276, "lat": 28.400487, "lon": 77.3231457}, {"type": "node", "id": 1832989278, "lat": 28.4005003, "lon": 77.3233552}, {"type": "node", "id": 1832989281, "lat": 28.400615, "lon": 77.3251645}, {"type": "node", "id": 1832989282, "lat": 28.4006183, "lon": 77.3200363}, {"type": "node", "id": 1832989283, "lat": 28.4006304, "lon": 77.3253937}, {"type": "node", "id": 1832989285, "lat": 28.4006822, "lon": 77.3210382}, {"type": "node", "id": 1832989288, "lat": 28.4011178, "lon": 77.3251207}, {"type": "node", "id": 1832989289, "lat": 28.4011332, "lon": 77.3253498}, {"type": "node", "id": 1832989291, "lat": 28.401166, "lon": 77.3233005}, {"type": "node", "id": 1832989292, "lat": 28.4011826, "lon": 77.3235619}, {"type": "node", "id": 1832989294, "lat": 28.4012212, "lon": 77.3251015}, {"type": "node", "id": 1832989295, "lat": 28.4012417, "lon": 77.3253449}, {"type": "node", "id": 1832989305, "lat": 28.4016238, "lon": 77.3230523}, {"type": "node", "id": 1832989311, "lat": 28.4016537, "lon": 77.3235232}, {"type": "node", "id": 1832989316, "lat": 28.4017777, "lon": 77.3250411}, {"type": "node", "id": 1832989317, "lat": 28.4017982, "lon": 77.3252845}, {"type": "node", "id": 1832925412, "lat": 28.4033321, "lon": 77.3277831}, {"type": "node", "id": 1832925415, "lat": 28.4034005, "lon": 77.3287925}, {"type": "node", "id": 1832925418, "lat": 28.4036804, "lon": 77.32943}, {"type": "node", "id": 1832925419, "lat": 28.4037129, "lon": 77.3299132}, {"type": "node", "id": 1832925421, "lat": 28.4038945, "lon": 77.3277338}, {"type": "node", "id": 1832925422, "lat": 28.4039629, "lon": 77.3287433}, {"type": "node", "id": 1832925424, "lat": 28.4041409, "lon": 77.3293901}, {"type": "node", "id": 1832925435, "lat": 28.4041733, "lon": 77.3298732}, {"type": "node", "id": 1832925444, "lat": 28.4042848, "lon": 77.3271595}, {"type": "node", "id": 1832925446, "lat": 28.4043089, "lon": 77.3275814}, {"type": "node", "id": 1832925456, "lat": 28.4046994, "lon": 77.3288002}, {"type": "node", "id": 1832925458, "lat": 28.4047348, "lon": 77.3292914}, {"type": "node", "id": 1832925461, "lat": 28.40482, "lon": 77.3271199}, {"type": "node", "id": 1832925462, "lat": 28.4048442, "lon": 77.3275418}, {"type": "node", "id": 1832925480, "lat": 28.4056611, "lon": 77.3287106}, {"type": "node", "id": 1832925482, "lat": 28.4056965, "lon": 77.3292019}, {"type": "node", "id": 1832965291, "lat": 28.4008754, "lon": 77.3297599}, {"type": "node", "id": 1832965293, "lat": 28.4008903, "lon": 77.3299886}, {"type": "node", "id": 1832965317, "lat": 28.4016234, "lon": 77.3279234}, {"type": "node", "id": 1832965325, "lat": 28.4016902, "lon": 77.3289501}, {"type": "node", "id": 1832965341, "lat": 28.4019751, "lon": 77.3278938}, {"type": "node", "id": 1832965347, "lat": 28.4020419, "lon": 77.3289205}, {"type": "node", "id": 1832965354, "lat": 28.4021006, "lon": 77.3296539}, {"type": "node", "id": 1832965358, "lat": 28.4021155, "lon": 77.3298826}, {"type": "node", "id": 5406761260, "lat": 28.4146003, "lon": 77.2914398}, {"type": "node", "id": 5406761261, "lat": 28.4147183, "lon": 77.2914264}, {"type": "node", "id": 5406761262, "lat": 28.4147159, "lon": 77.2918287}, {"type": "node", "id": 5406761263, "lat": 28.4145744, "lon": 77.2928614}, {"type": "node", "id": 5406761264, "lat": 28.4152809, "lon": 77.2928265}, {"type": "node", "id": 5406761265, "lat": 28.4152815, "lon": 77.2920487}, {"type": "node", "id": 10931742589, "lat": 28.4196707, "lon": 77.2902109}, {"type": "node", "id": 10931742592, "lat": 28.4196649, "lon": 77.2909419}, {"type": "node", "id": 1832442306, "lat": 28.4130986, "lon": 77.2943183}, {"type": "node", "id": 1834714834, "lat": 28.4075726, "lon": 77.2966228}, {"type": "node", "id": 1834714844, "lat": 28.4077538, "lon": 77.2965447}, {"type": "node", "id": 1834714889, "lat": 28.4080679, "lon": 77.2963928}, {"type": "node", "id": 1834714904, "lat": 28.4083386, "lon": 77.2963494}, {"type": "node", "id": 1834714906, "lat": 28.408467, "lon": 77.2978329}, {"type": "node", "id": 1834714914, "lat": 28.4085884, "lon": 77.2963375}, {"type": "node", "id": 1834714939, "lat": 28.4089546, "lon": 77.296375}, {"type": "node", "id": 1834714950, "lat": 28.4092721, "lon": 77.2964598}, {"type": "node", "id": 1834714963, "lat": 28.4096226, "lon": 77.2966551}, {"type": "node", "id": 1832442343, "lat": 28.4133512, "lon": 77.2947138}, {"type": "node", "id": 1832442353, "lat": 28.4134613, "lon": 77.2942917}, {"type": "node", "id": 1832442357, "lat": 28.4134848, "lon": 77.2947039}, {"type": "node", "id": 1832442419, "lat": 28.4140453, "lon": 77.2957599}, {"type": "node", "id": 1832442426, "lat": 28.4141349, "lon": 77.2971153}, {"type": "node", "id": 1832442436, "lat": 28.4141995, "lon": 77.2973125}, {"type": "node", "id": 1832442439, "lat": 28.4142418, "lon": 77.2975625}, {"type": "node", "id": 1832442443, "lat": 28.4142622, "lon": 77.2964929}, {"type": "node", "id": 1832442444, "lat": 28.414268, "lon": 77.2979973}, {"type": "node", "id": 1832442447, "lat": 28.4142701, "lon": 77.297074}, {"type": "node", "id": 1832442456, "lat": 28.4143407, "lon": 77.2973033}, {"type": "node", "id": 1832442464, "lat": 28.414379, "lon": 77.2975442}, {"type": "node", "id": 1832442468, "lat": 28.4144063, "lon": 77.2979861}, {"type": "node", "id": 1832442535, "lat": 28.4151009, "lon": 77.2956885}, {"type": "node", "id": 1832442538, "lat": 28.4151379, "lon": 77.2964313}, {"type": "node", "id": 1832442598, "lat": 28.4159737, "lon": 77.2979142}, {"type": "node", "id": 1832442599, "lat": 28.4159992, "lon": 77.2983615}, {"type": "node", "id": 1832442609, "lat": 28.416471, "lon": 77.2978775}, {"type": "node", "id": 1832442610, "lat": 28.4164965, "lon": 77.2983249}, {"type": "node", "id": 1832442635, "lat": 28.4171282, "lon": 77.2964031}, {"type": "node", "id": 1832442638, "lat": 28.4171726, "lon": 77.2971911}, {"type": "node", "id": 1832442674, "lat": 28.418183, "lon": 77.2963263}, {"type": "node", "id": 1832442676, "lat": 28.4182274, "lon": 77.2971143}, {"type": "node", "id": 1832442681, "lat": 28.4184436, "lon": 77.298967}, {"type": "node", "id": 1832442682, "lat": 28.4184764, "lon": 77.2995054}, {"type": "node", "id": 1832442688, "lat": 28.4188957, "lon": 77.2989314}, {"type": "node", "id": 1832442690, "lat": 28.4189285, "lon": 77.2994698}, {"type": "node", "id": 1832442573, "lat": 28.415557, "lon": 77.3056853}, {"type": "node", "id": 1832442619, "lat": 28.4168874, "lon": 77.3043796}, {"type": "node", "id": 1832442620, "lat": 28.416899, "lon": 77.3047206}, {"type": "node", "id": 1832442624, "lat": 28.4170179, "lon": 77.3040424}, {"type": "node", "id": 1832442625, "lat": 28.4170291, "lon": 77.3043734}, {"type": "node", "id": 1832442648, "lat": 28.4172956, "lon": 77.3040303}, {"type": "node", "id": 1832442651, "lat": 28.4173183, "lon": 77.3047023}, {"type": "node", "id": 1832442708, "lat": 28.419338, "lon": 77.3046576}, {"type": "node", "id": 1832442712, "lat": 28.4193668, "lon": 77.3052547}, {"type": "node", "id": 1832442733, "lat": 28.4196104, "lon": 77.3054483}, {"type": "node", "id": 1835395569, "lat": 28.4219746, "lon": 77.2913652}, {"type": "node", "id": 1835395570, "lat": 28.4219781, "lon": 77.2912468}, {"type": "node", "id": 1835395607, "lat": 28.4227833, "lon": 77.2913751}, {"type": "node", "id": 1835395609, "lat": 28.4228094, "lon": 77.2909686}, {"type": "node", "id": 1835395674, "lat": 28.423448, "lon": 77.2916001}, {"type": "node", "id": 1835395675, "lat": 28.4234862, "lon": 77.2913869}, {"type": "node", "id": 1835395708, "lat": 28.4242828, "lon": 77.2916481}, {"type": "node", "id": 1835395714, "lat": 28.4243453, "lon": 77.2915218}, {"type": "node", "id": 1835395721, "lat": 28.4246732, "lon": 77.2915731}, {"type": "node", "id": 1835395733, "lat": 28.4248398, "lon": 77.2913738}, {"type": "node", "id": 1835395747, "lat": 28.4250255, "lon": 77.2915593}, {"type": "node", "id": 1835395751, "lat": 28.4250515, "lon": 77.2913126}, {"type": "node", "id": 1835395776, "lat": 28.4260442, "lon": 77.2919519}, {"type": "node", "id": 10931742590, "lat": 28.4203409, "lon": 77.2902308}, {"type": "node", "id": 10931742591, "lat": 28.4203448, "lon": 77.2909463}, {"type": "node", "id": 1832442806, "lat": 28.4206423, "lon": 77.2995777}, {"type": "node", "id": 1832442851, "lat": 28.4223133, "lon": 77.2946023}, {"type": "node", "id": 1832442855, "lat": 28.4223478, "lon": 77.2951579}, {"type": "node", "id": 1832442860, "lat": 28.4224364, "lon": 77.2992744}, {"type": "node", "id": 1832442862, "lat": 28.4224452, "lon": 77.2994763}, {"type": "node", "id": 1832442866, "lat": 28.4225821, "lon": 77.2945808}, {"type": "node", "id": 1832442874, "lat": 28.4226166, "lon": 77.2951364}, {"type": "node", "id": 1832442908, "lat": 28.4235119, "lon": 77.2972853}, {"type": "node", "id": 1832442910, "lat": 28.4235444, "lon": 77.2978861}, {"type": "node", "id": 1832442912, "lat": 28.4235452, "lon": 77.299212}, {"type": "node", "id": 1832442936, "lat": 28.4239829, "lon": 77.2972523}, {"type": "node", "id": 1832442942, "lat": 28.4240154, "lon": 77.2978531}, {"type": "node", "id": 1832442973, "lat": 28.4247539, "lon": 77.2944526}, {"type": "node", "id": 1832442979, "lat": 28.42481, "lon": 77.2952554}, {"type": "node", "id": 1832442985, "lat": 28.424851, "lon": 77.2963184}, {"type": "node", "id": 1832442986, "lat": 28.4248927, "lon": 77.297076}, {"type": "node", "id": 1832443007, "lat": 28.4254299, "lon": 77.2943915}, {"type": "node", "id": 1832443011, "lat": 28.425486, "lon": 77.2951943}, {"type": "node", "id": 1832442762, "lat": 28.4198512, "lon": 77.3046255}, {"type": "node", "id": 1832442764, "lat": 28.41988, "lon": 77.3052227}, {"type": "node", "id": 1832442812, "lat": 28.4207066, "lon": 77.3010566}, {"type": "node", "id": 1832442823, "lat": 28.4213829, "lon": 77.3027172}, {"type": "node", "id": 1832442825, "lat": 28.4214164, "lon": 77.303248}, {"type": "node", "id": 1832442832, "lat": 28.4218718, "lon": 77.3026774}, {"type": "node", "id": 1832442834, "lat": 28.4219052, "lon": 77.3032081}, {"type": "node", "id": 1832442916, "lat": 28.4236183, "lon": 77.3008929}, {"type": "node", "id": 3645631523, "lat": 28.4241263, "lon": 77.3021519}, {"type": "node", "id": 3645631524, "lat": 28.4241531, "lon": 77.3028105}, {"type": "node", "id": 3645631525, "lat": 28.4234934, "lon": 77.3028205}, {"type": "node", "id": 3645631526, "lat": 28.4234698, "lon": 77.3021634}, {"type": "node", "id": 1578318156, "lat": 28.4303039, "lon": 77.2960167}, {"type": "node", "id": 1578318157, "lat": 28.4303139, "lon": 77.2970077}, {"type": "node", "id": 1578318160, "lat": 28.4303371, "lon": 77.2963191}, {"type": "node", "id": 1578318161, "lat": 28.4303385, "lon": 77.2967016}, {"type": "node", "id": 1578318164, "lat": 28.4303883, "lon": 77.2963012}, {"type": "node", "id": 1578318165, "lat": 28.4303884, "lon": 77.2963189}, {"type": "node", "id": 1578318225, "lat": 28.4308306, "lon": 77.2964322}, {"type": "node", "id": 1578318226, "lat": 28.4308301, "lon": 77.2962992}, {"type": "node", "id": 1578318228, "lat": 28.4308313, "lon": 77.2966459}, {"type": "node", "id": 1578318229, "lat": 28.4308315, "lon": 77.2966994}, {"type": "node", "id": 1578318282, "lat": 28.4317834, "lon": 77.2960318}, {"type": "node", "id": 1578318283, "lat": 28.4317917, "lon": 77.2971924}, {"type": "node", "id": 1832306346, "lat": 28.4287878, "lon": 77.2936223}, {"type": "node", "id": 1832306348, "lat": 28.428789, "lon": 77.2939657}, {"type": "node", "id": 1832306389, "lat": 28.4291514, "lon": 77.2936207}, {"type": "node", "id": 1832306390, "lat": 28.4291526, "lon": 77.2939641}, {"type": "node", "id": 1832306393, "lat": 28.4291878, "lon": 77.2992498}, {"type": "node", "id": 1832306427, "lat": 28.4296883, "lon": 77.2992617}, {"type": "node", "id": 1832306452, "lat": 28.4302059, "lon": 77.2958783}, {"type": "node", "id": 1832306462, "lat": 28.4302184, "lon": 77.2953683}, {"type": "node", "id": 1832306476, "lat": 28.4304896, "lon": 77.2958872}, {"type": "node", "id": 1832306478, "lat": 28.430502, "lon": 77.2953772}, {"type": "node", "id": 1832306520, "lat": 28.4306744, "lon": 77.2936503}, {"type": "node", "id": 1832306521, "lat": 28.4306831, "lon": 77.294116}, {"type": "node", "id": 1832306553, "lat": 28.4310874, "lon": 77.294114}, {"type": "node", "id": 1832306556, "lat": 28.4310891, "lon": 77.2937845}, {"type": "node", "id": 1832443045, "lat": 28.4263726, "lon": 77.2962101}, {"type": "node", "id": 1832443050, "lat": 28.4264143, "lon": 77.2969677}, {"type": "node", "id": 10209718401, "lat": 28.4308308, "lon": 77.2964839}, {"type": "node", "id": 1832306391, "lat": 28.4291764, "lon": 77.2998661}, {"type": "node", "id": 1832306425, "lat": 28.429677, "lon": 77.2998781}, {"type": "node", "id": 1832306436, "lat": 28.4297729, "lon": 77.3019462}, {"type": "node", "id": 1832306438, "lat": 28.4297835, "lon": 77.3014208}, {"type": "node", "id": 1832306499, "lat": 28.4305122, "lon": 77.3019654}, {"type": "node", "id": 1832306502, "lat": 28.4305228, "lon": 77.3014399}, {"type": "node", "id": 1832306630, "lat": 28.4318502, "lon": 77.3027316}, {"type": "node", "id": 1832306633, "lat": 28.4318545, "lon": 77.3022684}, {"type": "node", "id": 1832306664, "lat": 28.4322642, "lon": 77.3027366}, {"type": "node", "id": 1832306667, "lat": 28.4322686, "lon": 77.3022734}, {"type": "node", "id": 1832885521, "lat": 28.4129257, "lon": 77.3118567}, {"type": "node", "id": 1832885526, "lat": 28.4129336, "lon": 77.3120645}, {"type": "node", "id": 1832885375, "lat": 28.4097656, "lon": 77.315937}, {"type": "node", "id": 1832885382, "lat": 28.40983, "lon": 77.3170945}, {"type": "node", "id": 1832885405, "lat": 28.4101038, "lon": 77.3159127}, {"type": "node", "id": 1832885409, "lat": 28.4101683, "lon": 77.3170702}, {"type": "node", "id": 1832885418, "lat": 28.4107357, "lon": 77.3171687}, {"type": "node", "id": 1832885424, "lat": 28.4107812, "lon": 77.3177066}, {"type": "node", "id": 1832885447, "lat": 28.4110747, "lon": 77.3171316}, {"type": "node", "id": 1832885448, "lat": 28.4111202, "lon": 77.3176696}, {"type": "node", "id": 1832913543, "lat": 28.4075162, "lon": 77.318941}, {"type": "node", "id": 1832913548, "lat": 28.4075413, "lon": 77.3193068}, {"type": "node", "id": 1832913551, "lat": 28.4078177, "lon": 77.3189143}, {"type": "node", "id": 1832913553, "lat": 28.4078427, "lon": 77.3192801}, {"type": "node", "id": 1832913585, "lat": 28.408419, "lon": 77.3185825}, {"type": "node", "id": 1832913607, "lat": 28.4086343, "lon": 77.3185568}, {"type": "node", "id": 1832913611, "lat": 28.4087594, "lon": 77.3187819}, {"type": "node", "id": 1832442577, "lat": 28.4155953, "lon": 77.3065337}, {"type": "node", "id": 1832442736, "lat": 28.4196488, "lon": 77.3062967}, {"type": "node", "id": 1832855740, "lat": 28.4170497, "lon": 77.3125615}, {"type": "node", "id": 1832855773, "lat": 28.4174472, "lon": 77.3125284}, {"type": "node", "id": 1832885564, "lat": 28.4138892, "lon": 77.3118094}, {"type": "node", "id": 1832885566, "lat": 28.413897, "lon": 77.3120173}, {"type": "node", "id": 1574634815, "lat": 28.4196324, "lon": 77.3169441}, {"type": "node", "id": 1832591141, "lat": 28.4187703, "lon": 77.3168838}, {"type": "node", "id": 1832591143, "lat": 28.4189249, "lon": 77.3155384}, {"type": "node", "id": 1832591167, "lat": 28.4191901, "lon": 77.3144861}, {"type": "node", "id": 1832855682, "lat": 28.4164375, "lon": 77.3156767}, {"type": "node", "id": 1832855686, "lat": 28.416472, "lon": 77.315346}, {"type": "node", "id": 1832855742, "lat": 28.4170739, "lon": 77.312939}, {"type": "node", "id": 1832855749, "lat": 28.4172029, "lon": 77.3153129}, {"type": "node", "id": 1832855750, "lat": 28.4172138, "lon": 77.3156147}, {"type": "node", "id": 1832855775, "lat": 28.4174715, "lon": 77.3129059}, {"type": "node", "id": 1832913507, "lat": 28.4066204, "lon": 77.3211231}, {"type": "node", "id": 1832913519, "lat": 28.4068823, "lon": 77.3206756}, {"type": "node", "id": 1832913521, "lat": 28.4069156, "lon": 77.3210612}, {"type": "node", "id": 1832913535, "lat": 28.407217, "lon": 77.3206383}, {"type": "node", "id": 1832913539, "lat": 28.4072503, "lon": 77.3210239}, {"type": "node", "id": 1832913564, "lat": 28.4079503, "lon": 77.3217428}, {"type": "node", "id": 1832913566, "lat": 28.407991, "lon": 77.3223899}, {"type": "node", "id": 1832913602, "lat": 28.408478, "lon": 77.3198165}, {"type": "node", "id": 1832913609, "lat": 28.4087264, "lon": 77.3199863}, {"type": "node", "id": 1832913613, "lat": 28.4088115, "lon": 77.3197948}, {"type": "node", "id": 1832913614, "lat": 28.4088115, "lon": 77.3213289}, {"type": "node", "id": 1832913618, "lat": 28.408841, "lon": 77.3199784}, {"type": "node", "id": 1832913620, "lat": 28.4088462, "lon": 77.321323}, {"type": "node", "id": 1832913621, "lat": 28.4088914, "lon": 77.321015}, {"type": "node", "id": 3635290324, "lat": 28.406609, "lon": 77.3243647}, {"type": "node", "id": 3635290325, "lat": 28.4066774, "lon": 77.3253731}, {"type": "node", "id": 3635290326, "lat": 28.4069677, "lon": 77.3243381}, {"type": "node", "id": 3635290327, "lat": 28.4070427, "lon": 77.3253475}, {"type": "node", "id": 1832925465, "lat": 28.4085565, "lon": 77.3321009}, {"type": "node", "id": 1832925468, "lat": 28.4085963, "lon": 77.3324708}, {"type": "node", "id": 1832925529, "lat": 28.4078403, "lon": 77.3309603}, {"type": "node", "id": 1832925530, "lat": 28.4078992, "lon": 77.3318398}, {"type": "node", "id": 1832925536, "lat": 28.4082873, "lon": 77.3309407}, {"type": "node", "id": 1832925541, "lat": 28.4083364, "lon": 77.3317142}, {"type": "node", "id": 1832925592, "lat": 28.4111077, "lon": 77.3265788}, {"type": "node", "id": 1832925594, "lat": 28.4111461, "lon": 77.3270312}, {"type": "node", "id": 1832925597, "lat": 28.4114036, "lon": 77.3265464}, {"type": "node", "id": 1832925598, "lat": 28.4114419, "lon": 77.3269988}, {"type": "node", "id": 1832925600, "lat": 28.411454, "lon": 77.3302462}, {"type": "node", "id": 1832925601, "lat": 28.4114835, "lon": 77.3308214}, {"type": "node", "id": 1832925603, "lat": 28.4119477, "lon": 77.3301987}, {"type": "node", "id": 1832925604, "lat": 28.4119673, "lon": 77.3306985}, {"type": "node", "id": 1832925607, "lat": 28.4122528, "lon": 77.3270511}, {"type": "node", "id": 1832925608, "lat": 28.4122736, "lon": 77.3275007}, {"type": "node", "id": 1832925612, "lat": 28.4126765, "lon": 77.3270258}, {"type": "node", "id": 1832925613, "lat": 28.4126972, "lon": 77.3274754}, {"type": "node", "id": 1832925616, "lat": 28.4127448, "lon": 77.3287848}, {"type": "node", "id": 1832925619, "lat": 28.4128907, "lon": 77.330781}, {"type": "node", "id": 3635290328, "lat": 28.4082438, "lon": 77.3279923}, {"type": "node", "id": 3635290329, "lat": 28.4082704, "lon": 77.3283924}, {"type": "node", "id": 3635290330, "lat": 28.4092241, "lon": 77.3267443}, {"type": "node", "id": 3635290331, "lat": 28.4092449, "lon": 77.3271874}, {"type": "node", "id": 3635290332, "lat": 28.4092731, "lon": 77.3289736}, {"type": "node", "id": 3635290333, "lat": 28.4093066, "lon": 77.3294267}, {"type": "node", "id": 3635290334, "lat": 28.4096258, "lon": 77.32672}, {"type": "node", "id": 3635290335, "lat": 28.4096465, "lon": 77.3271631}, {"type": "node", "id": 3635290336, "lat": 28.4096772, "lon": 77.328935}, {"type": "node", "id": 3635290337, "lat": 28.409705, "lon": 77.327867}, {"type": "node", "id": 3635290338, "lat": 28.4097108, "lon": 77.329388}, {"type": "node", "id": 3635290339, "lat": 28.4097315, "lon": 77.3282672}, {"type": "node", "id": 1832913830, "lat": 28.4150381, "lon": 77.3214401}, {"type": "node", "id": 1832913831, "lat": 28.4150833, "lon": 77.3220641}, {"type": "node", "id": 1832913832, "lat": 28.4155231, "lon": 77.3242557}, {"type": "node", "id": 1832913833, "lat": 28.4155497, "lon": 77.3246647}, {"type": "node", "id": 1832913838, "lat": 28.4157949, "lon": 77.3213692}, {"type": "node", "id": 1832913840, "lat": 28.4158401, "lon": 77.3219932}, {"type": "node", "id": 1832913858, "lat": 28.4159271, "lon": 77.3242217}, {"type": "node", "id": 1832913861, "lat": 28.4159537, "lon": 77.3246307}, {"type": "node", "id": 1832925622, "lat": 28.4132901, "lon": 77.3287394}, {"type": "node", "id": 1832925624, "lat": 28.4134429, "lon": 77.3306507}, {"type": "node", "id": 1832925638, "lat": 28.4145977, "lon": 77.3293866}, {"type": "node", "id": 1832925639, "lat": 28.4146255, "lon": 77.3299059}, {"type": "node", "id": 1832925640, "lat": 28.414731, "lon": 77.3268445}, {"type": "node", "id": 1832925641, "lat": 28.4147602, "lon": 77.3273027}, {"type": "node", "id": 1832925642, "lat": 28.4150718, "lon": 77.3293431}, {"type": "node", "id": 1832925644, "lat": 28.4151013, "lon": 77.3297834}, {"type": "node", "id": 1832925645, "lat": 28.4151425, "lon": 77.3268106}, {"type": "node", "id": 1832925647, "lat": 28.4151717, "lon": 77.3272688}, {"type": "node", "id": 1574634910, "lat": 28.4207441, "lon": 77.3149654}, {"type": "node", "id": 1832591181, "lat": 28.4204395, "lon": 77.3170903}, {"type": "node", "id": 1832591198, "lat": 28.4207022, "lon": 77.3147736}, {"type": "node", "id": 1832856244, "lat": 28.4235575, "lon": 77.317702}, {"type": "node", "id": 1832856246, "lat": 28.4236156, "lon": 77.3185404}, {"type": "node", "id": 1832856262, "lat": 28.4238723, "lon": 77.3176738}, {"type": "node", "id": 1832856264, "lat": 28.4239304, "lon": 77.3185122}, {"type": "node", "id": 1832856291, "lat": 28.4244912, "lon": 77.3149084}, {"type": "node", "id": 1832856294, "lat": 28.424511, "lon": 77.3152797}, {"type": "node", "id": 1832856325, "lat": 28.4249068, "lon": 77.3148797}, {"type": "node", "id": 1832856327, "lat": 28.4249266, "lon": 77.3152511}, {"type": "node", "id": 1832856373, "lat": 28.425495, "lon": 77.3140393}, {"type": "node", "id": 1832856375, "lat": 28.4255185, "lon": 77.3143961}, {"type": "node", "id": 1832856376, "lat": 28.4255299, "lon": 77.3129935}, {"type": "node", "id": 1832856378, "lat": 28.4255515, "lon": 77.313375}, {"type": "node", "id": 1832856403, "lat": 28.4258719, "lon": 77.3129684}, {"type": "node", "id": 1832856405, "lat": 28.4258935, "lon": 77.3133499}, {"type": "node", "id": 1832856407, "lat": 28.4259094, "lon": 77.3140039}, {"type": "node", "id": 1832856409, "lat": 28.425933, "lon": 77.3143607}, {"type": "node", "id": 1832495316, "lat": 28.4283746, "lon": 77.3126436}, {"type": "node", "id": 1832495371, "lat": 28.4287546, "lon": 77.3126077}, {"type": "node", "id": 1832495478, "lat": 28.4298696, "lon": 77.3120097}, {"type": "node", "id": 1832495479, "lat": 28.4299032, "lon": 77.3126676}, {"type": "node", "id": 1832495484, "lat": 28.4302838, "lon": 77.3119824}, {"type": "node", "id": 1832495485, "lat": 28.4303174, "lon": 77.3126402}, {"type": "node", "id": 1832495525, "lat": 28.4313045, "lon": 77.3107498}, {"type": "node", "id": 1832495544, "lat": 28.4313707, "lon": 77.3118437}, {"type": "node", "id": 1832495560, "lat": 28.4317692, "lon": 77.3123699}, {"type": "node", "id": 1832495564, "lat": 28.4320563, "lon": 77.3119792}, {"type": "node", "id": 1832495575, "lat": 28.4321496, "lon": 77.3119708}, {"type": "node", "id": 1832495582, "lat": 28.432264, "lon": 77.3106632}, {"type": "node", "id": 1832495584, "lat": 28.4323876, "lon": 77.3117029}, {"type": "node", "id": 1832856479, "lat": 28.4269969, "lon": 77.3127286}, {"type": "node", "id": 1832856515, "lat": 28.4273882, "lon": 77.3126942}, {"type": "node", "id": 1832495341, "lat": 28.4284072, "lon": 77.3130896}, {"type": "node", "id": 1832495352, "lat": 28.4285233, "lon": 77.3149707}, {"type": "node", "id": 1832495360, "lat": 28.4285689, "lon": 77.3156236}, {"type": "node", "id": 1832495373, "lat": 28.4287873, "lon": 77.3130537}, {"type": "node", "id": 1832495395, "lat": 28.4289063, "lon": 77.3149361}, {"type": "node", "id": 1832495402, "lat": 28.4289519, "lon": 77.315589}, {"type": "node", "id": 1832495561, "lat": 28.4318311, "lon": 77.3152502}, {"type": "node", "id": 1832495574, "lat": 28.4321427, "lon": 77.3172723}, {"type": "node", "id": 1832495580, "lat": 28.4322041, "lon": 77.3183179}, {"type": "node", "id": 1832495589, "lat": 28.4325008, "lon": 77.3172676}, {"type": "node", "id": 1832495591, "lat": 28.4325149, "lon": 77.314301}, {"type": "node", "id": 1832495594, "lat": 28.4325327, "lon": 77.3183048}, {"type": "node", "id": 1832495600, "lat": 28.4325618, "lon": 77.3131066}, {"type": "node", "id": 1832495605, "lat": 28.4326797, "lon": 77.3144609}, {"type": "node", "id": 1832495613, "lat": 28.4327214, "lon": 77.3151812}, {"type": "node", "id": 1832856478, "lat": 28.4269727, "lon": 77.3164082}, {"type": "node", "id": 1832856480, "lat": 28.4270059, "lon": 77.3170064}, {"type": "node", "id": 1832856483, "lat": 28.4270166, "lon": 77.3130184}, {"type": "node", "id": 1832856487, "lat": 28.4270579, "lon": 77.3136469}, {"type": "node", "id": 1832856488, "lat": 28.4270652, "lon": 77.3180198}, {"type": "node", "id": 1832856492, "lat": 28.4270789, "lon": 77.3139746}, {"type": "node", "id": 1832856496, "lat": 28.4271092, "lon": 77.3187535}, {"type": "node", "id": 1832856501, "lat": 28.4272205, "lon": 77.3163904}, {"type": "node", "id": 1832856504, "lat": 28.4272537, "lon": 77.3169886}, {"type": "node", "id": 1832856508, "lat": 28.4272999, "lon": 77.3180016}, {"type": "node", "id": 1832856512, "lat": 28.4273439, "lon": 77.3187353}, {"type": "node", "id": 1832856517, "lat": 28.427408, "lon": 77.312984}, {"type": "node", "id": 1832856522, "lat": 28.4274559, "lon": 77.3136139}, {"type": "node", "id": 1832856526, "lat": 28.4274769, "lon": 77.3139416}, {"type": "node", "id": 1832541337, "lat": 28.4291628, "lon": 77.3222555}, {"type": "node", "id": 1832541340, "lat": 28.4292045, "lon": 77.322852}, {"type": "node", "id": 1832541356, "lat": 28.429339, "lon": 77.3212497}, {"type": "node", "id": 1832541358, "lat": 28.4293628, "lon": 77.3250977}, {"type": "node", "id": 1832541371, "lat": 28.4293828, "lon": 77.3218452}, {"type": "node", "id": 1832541372, "lat": 28.429401, "lon": 77.3256936}, {"type": "node", "id": 1832541377, "lat": 28.4296573, "lon": 77.3204723}, {"type": "node", "id": 1832541378, "lat": 28.4296831, "lon": 77.3207912}, {"type": "node", "id": 1832541381, "lat": 28.429766, "lon": 77.322201}, {"type": "node", "id": 1832541383, "lat": 28.4297758, "lon": 77.3250641}, {"type": "node", "id": 1832541387, "lat": 28.4297984, "lon": 77.3253167}, {"type": "node", "id": 1832541390, "lat": 28.4298076, "lon": 77.3227975}, {"type": "node", "id": 1832541398, "lat": 28.4299521, "lon": 77.3204414}, {"type": "node", "id": 1832541409, "lat": 28.4299779, "lon": 77.3207603}, {"type": "node", "id": 1832541411, "lat": 28.4299858, "lon": 77.3211881}, {"type": "node", "id": 1832541415, "lat": 28.4300296, "lon": 77.3217836}, {"type": "node", "id": 1832541416, "lat": 28.4300483, "lon": 77.325293}, {"type": "node", "id": 1832541418, "lat": 28.4300604, "lon": 77.3255358}, {"type": "node", "id": 1832541461, "lat": 28.4306055, "lon": 77.3221971}, {"type": "node", "id": 1832541475, "lat": 28.4306609, "lon": 77.32301}, {"type": "node", "id": 1832541505, "lat": 28.4311114, "lon": 77.3221525}, {"type": "node", "id": 1832541509, "lat": 28.4311668, "lon": 77.3229654}, {"type": "node", "id": 1832541534, "lat": 28.4316707, "lon": 77.3212897}, {"type": "node", "id": 1832541538, "lat": 28.4317019, "lon": 77.3217308}, {"type": "node", "id": 1832541553, "lat": 28.432049, "lon": 77.3212551}, {"type": "node", "id": 1832541554, "lat": 28.4320802, "lon": 77.3216962}, {"type": "node", "id": 1832541576, "lat": 28.4322316, "lon": 77.3224079}, {"type": "node", "id": 1832541581, "lat": 28.4322548, "lon": 77.3228536}, {"type": "node", "id": 1832541587, "lat": 28.4326327, "lon": 77.3223809}, {"type": "node", "id": 1832541589, "lat": 28.4326559, "lon": 77.3228266}, {"type": "node", "id": 5401398323, "lat": 28.4282219, "lon": 77.33194}, {"type": "node", "id": 5401398324, "lat": 28.4283579, "lon": 77.3323872}, {"type": "node", "id": 5401398711, "lat": 28.4273905, "lon": 77.3316844}, {"type": "node", "id": 5401398712, "lat": 28.4277283, "lon": 77.3319768}, {"type": "node", "id": 5401398714, "lat": 28.427804, "lon": 77.3318463}, {"type": "node", "id": 5401398715, "lat": 28.4280138, "lon": 77.3320046}, {"type": "node", "id": 5401398717, "lat": 28.4270416, "lon": 77.3322225}, {"type": "node", "id": 1832965232, "lat": 28.3995772, "lon": 77.33568}, {"type": "node", "id": 1832965244, "lat": 28.3996896, "lon": 77.3362023}, {"type": "node", "id": 1832925403, "lat": 28.4029483, "lon": 77.3336789}, {"type": "node", "id": 1832925404, "lat": 28.4028703, "lon": 77.3340682}, {"type": "node", "id": 1832965297, "lat": 28.4009235, "lon": 77.33329}, {"type": "node", "id": 1832965299, "lat": 28.4009554, "lon": 77.3337675}, {"type": "node", "id": 1832965321, "lat": 28.4016702, "lon": 77.3332091}, {"type": "node", "id": 1832965327, "lat": 28.4016997, "lon": 77.3335749}, {"type": "node", "id": 1832965335, "lat": 28.4018321, "lon": 77.3350673}, {"type": "node", "id": 1832965339, "lat": 28.4019344, "lon": 77.3355492}, {"type": "node", "id": 1832965381, "lat": 28.4057737, "lon": 77.3332855}, {"type": "node", "id": 12095157001, "lat": 28.4008372, "lon": 77.3353433}, {"type": "node", "id": 5400705908, "lat": 28.4079648, "lon": 77.3363909}, {"type": "node", "id": 5400705909, "lat": 28.4076721, "lon": 77.3364587}, {"type": "node", "id": 5400705910, "lat": 28.4072331, "lon": 77.336585}, {"type": "node", "id": 5400705911, "lat": 28.4072737, "lon": 77.336622}, {"type": "node", "id": 5400705912, "lat": 28.4073089, "lon": 77.3366404}, {"type": "node", "id": 5400705913, "lat": 28.4073496, "lon": 77.3366343}, {"type": "node", "id": 5400705914, "lat": 28.4079648, "lon": 77.3364248}, {"type": "node", "id": 3604323242, "lat": 28.4179687, "lon": 77.3366961}, {"type": "node", "id": 5401701535, "lat": 28.4196642, "lon": 77.3347967}, {"type": "node", "id": 5401701536, "lat": 28.4196726, "lon": 77.3348681}, {"type": "node", "id": 5401701540, "lat": 28.4196935, "lon": 77.3352827}, {"type": "node", "id": 5401701541, "lat": 28.4194547, "lon": 77.3353017}, {"type": "node", "id": 5401701566, "lat": 28.4194338, "lon": 77.3372033}, {"type": "node", "id": 5401701567, "lat": 28.4194593, "lon": 77.3365314}, {"type": "node", "id": 5401701570, "lat": 28.4189243, "lon": 77.336604}, {"type": "node", "id": 5401701571, "lat": 28.4184676, "lon": 77.336604}, {"type": "node", "id": 5401701574, "lat": 28.4181198, "lon": 77.336685}, {"type": "node", "id": 5401701575, "lat": 28.4180821, "lon": 77.3380333}, {"type": "node", "id": 5401701576, "lat": 28.4191344, "lon": 77.3380673}, {"type": "node", "id": 5401701577, "lat": 28.4191464, "lon": 77.3370375}, {"type": "node", "id": 5401701578, "lat": 28.418962, "lon": 77.3369613}, {"type": "node", "id": 5401701581, "lat": 28.4185053, "lon": 77.3389386}, {"type": "node", "id": 5401701582, "lat": 28.418103, "lon": 77.3389243}, {"type": "node", "id": 5405778941, "lat": 28.4195915, "lon": 77.3331391}, {"type": "node", "id": 5405778942, "lat": 28.41967, "lon": 77.3334283}, {"type": "node", "id": 5405778943, "lat": 28.4195058, "lon": 77.3334859}, {"type": "node", "id": 5405778944, "lat": 28.4194273, "lon": 77.3331967}, {"type": "node", "id": 5405778948, "lat": 28.4193194, "lon": 77.3359013}, {"type": "node", "id": 5405778949, "lat": 28.4193578, "lon": 77.3361273}, {"type": "node", "id": 5405778950, "lat": 28.4191847, "lon": 77.3361653}, {"type": "node", "id": 5405778951, "lat": 28.4191753, "lon": 77.3362028}, {"type": "node", "id": 5405778952, "lat": 28.4191053, "lon": 77.3362255}, {"type": "node", "id": 5405778953, "lat": 28.4190443, "lon": 77.3359821}, {"type": "node", "id": 5405778954, "lat": 28.4190998, "lon": 77.3359641}, {"type": "node", "id": 5405778955, "lat": 28.4191437, "lon": 77.3360018}, {"type": "node", "id": 5405778956, "lat": 28.4191918, "lon": 77.3359293}, {"type": "node", "id": 5405778957, "lat": 28.4177649, "lon": 77.3355404}, {"type": "node", "id": 5405778958, "lat": 28.4176115, "lon": 77.335567}, {"type": "node", "id": 5405778959, "lat": 28.417594, "lon": 77.335437}, {"type": "node", "id": 5405778960, "lat": 28.4175433, "lon": 77.3353986}, {"type": "node", "id": 5405778961, "lat": 28.4174879, "lon": 77.3354933}, {"type": "node", "id": 5405778962, "lat": 28.4175775, "lon": 77.3355335}, {"type": "node", "id": 5405778963, "lat": 28.4175717, "lon": 77.3356038}, {"type": "node", "id": 5405778964, "lat": 28.4176412, "lon": 77.3356113}, {"type": "node", "id": 5405778965, "lat": 28.4176601, "lon": 77.3356489}, {"type": "node", "id": 5405778966, "lat": 28.4177827, "lon": 77.335673}, {"type": "node", "id": 5405778967, "lat": 28.4168337, "lon": 77.3337166}, {"type": "node", "id": 5405778968, "lat": 28.4162852, "lon": 77.3337383}, {"type": "node", "id": 5405778969, "lat": 28.4163137, "lon": 77.3346709}, {"type": "node", "id": 5405778970, "lat": 28.416648, "lon": 77.3346577}, {"type": "node", "id": 5405778971, "lat": 28.4166453, "lon": 77.3345694}, {"type": "node", "id": 5405778972, "lat": 28.4167073, "lon": 77.334567}, {"type": "node", "id": 5405778973, "lat": 28.4167132, "lon": 77.3347605}, {"type": "node", "id": 5405778974, "lat": 28.4168654, "lon": 77.3347545}, {"type": "node", "id": 9857659561, "lat": 28.418409, "lon": 77.3364379}, {"type": "node", "id": 9857659562, "lat": 28.4179904, "lon": 77.3364282}, {"type": "node", "id": 9857729449, "lat": 28.4194761, "lon": 77.3364091}, {"type": "node", "id": 10239660839, "lat": 28.4168525, "lon": 77.3343331}, {"type": "node", "id": 5401701579, "lat": 28.4191129, "lon": 77.339577}, {"type": "node", "id": 5401701580, "lat": 28.418543, "lon": 77.3395436}, {"type": "node", "id": 5401701583, "lat": 28.4180695, "lon": 77.3397325}, {"type": "node", "id": 5401701584, "lat": 28.4190629, "lon": 77.339796}, {"type": "node", "id": 3583049442, "lat": 28.4197004, "lon": 77.3343181}, {"type": "node", "id": 3583049453, "lat": 28.4197813, "lon": 77.3364923}, {"type": "node", "id": 5401397718, "lat": 28.4243834, "lon": 77.333075}, {"type": "node", "id": 5401397719, "lat": 28.4237904, "lon": 77.3331012}, {"type": "node", "id": 5401397720, "lat": 28.4237702, "lon": 77.3325079}, {"type": "node", "id": 5401398321, "lat": 28.4239319, "lon": 77.3325007}, {"type": "node", "id": 5401398322, "lat": 28.4243298, "lon": 77.3328923}, {"type": "node", "id": 5401398630, "lat": 28.4233067, "lon": 77.3372691}, {"type": "node", "id": 5401398631, "lat": 28.4233008, "lon": 77.337486}, {"type": "node", "id": 5401398632, "lat": 28.4229783, "lon": 77.3374746}, {"type": "node", "id": 5401398633, "lat": 28.4229744, "lon": 77.3376181}, {"type": "node", "id": 5401398634, "lat": 28.4228336, "lon": 77.3376131}, {"type": "node", "id": 5401398635, "lat": 28.4228394, "lon": 77.3374038}, {"type": "node", "id": 5401398636, "lat": 28.4229568, "lon": 77.3373669}, {"type": "node", "id": 5401398637, "lat": 28.4229391, "lon": 77.3372939}, {"type": "node", "id": 5401398638, "lat": 28.4230464, "lon": 77.3372602}, {"type": "node", "id": 5401398639, "lat": 28.4222593, "lon": 77.3376883}, {"type": "node", "id": 5401398640, "lat": 28.4221254, "lon": 77.3376642}, {"type": "node", "id": 5401398641, "lat": 28.4220833, "lon": 77.3379663}, {"type": "node", "id": 5401398642, "lat": 28.4222171, "lon": 77.3379905}, {"type": "node", "id": 5401398643, "lat": 28.4233559, "lon": 77.3381358}, {"type": "node", "id": 5401398644, "lat": 28.4233562, "lon": 77.3383441}, {"type": "node", "id": 5401398645, "lat": 28.4235373, "lon": 77.3383437}, {"type": "node", "id": 5401398646, "lat": 28.4235379, "lon": 77.3387328}, {"type": "node", "id": 5401398647, "lat": 28.4231698, "lon": 77.3387336}, {"type": "node", "id": 5401398648, "lat": 28.4231696, "lon": 77.3386603}, {"type": "node", "id": 5401398649, "lat": 28.4230851, "lon": 77.3386605}, {"type": "node", "id": 5401398650, "lat": 28.423085, "lon": 77.338577}, {"type": "node", "id": 5401398651, "lat": 28.4230453, "lon": 77.3385771}, {"type": "node", "id": 5401398652, "lat": 28.4230446, "lon": 77.3381365}, {"type": "node", "id": 5401398653, "lat": 28.4240667, "lon": 77.3377309}, {"type": "node", "id": 5401398654, "lat": 28.4235771, "lon": 77.3377214}, {"type": "node", "id": 5401398655, "lat": 28.4235771, "lon": 77.3383841}, {"type": "node", "id": 5401398656, "lat": 28.4237737, "lon": 77.33838}, {"type": "node", "id": 5401398657, "lat": 28.4237666, "lon": 77.3385507}, {"type": "node", "id": 5401398658, "lat": 28.423999, "lon": 77.3385507}, {"type": "node", "id": 5401398659, "lat": 28.4240051, "lon": 77.3380902}, {"type": "node", "id": 5401398661, "lat": 28.4244347, "lon": 77.3348267}, {"type": "node", "id": 5401398662, "lat": 28.4244257, "lon": 77.3353704}, {"type": "node", "id": 5401398663, "lat": 28.4240296, "lon": 77.3353619}, {"type": "node", "id": 5401398664, "lat": 28.4240386, "lon": 77.3348183}, {"type": "node", "id": 5401398665, "lat": 28.4239468, "lon": 77.3356443}, {"type": "node", "id": 5401398666, "lat": 28.4237175, "lon": 77.3356414}, {"type": "node", "id": 5401398667, "lat": 28.4237148, "lon": 77.3359106}, {"type": "node", "id": 5401398668, "lat": 28.4238633, "lon": 77.3359125}, {"type": "node", "id": 5401398669, "lat": 28.4238647, "lon": 77.3357715}, {"type": "node", "id": 5401398670, "lat": 28.4239455, "lon": 77.3357726}, {"type": "node", "id": 5401701533, "lat": 28.421114, "lon": 77.334506}, {"type": "node", "id": 5401701534, "lat": 28.4206824, "lon": 77.3345203}, {"type": "node", "id": 5401701537, "lat": 28.4197731, "lon": 77.3349301}, {"type": "node", "id": 5401701538, "lat": 28.4197228, "lon": 77.335073}, {"type": "node", "id": 5401701539, "lat": 28.419748, "lon": 77.3352207}, {"type": "node", "id": 5401701543, "lat": 28.4201083, "lon": 77.3363547}, {"type": "node", "id": 5401701544, "lat": 28.4201125, "lon": 77.3358877}, {"type": "node", "id": 5401701545, "lat": 28.4202047, "lon": 77.3358687}, {"type": "node", "id": 5401701546, "lat": 28.4202466, "lon": 77.3359687}, {"type": "node", "id": 5401701547, "lat": 28.4203053, "lon": 77.3359973}, {"type": "node", "id": 5401701548, "lat": 28.4203179, "lon": 77.3360593}, {"type": "node", "id": 5401701549, "lat": 28.4203598, "lon": 77.3360974}, {"type": "node", "id": 5401701550, "lat": 28.4203975, "lon": 77.3361355}, {"type": "node", "id": 5401701551, "lat": 28.4205609, "lon": 77.3361498}, {"type": "node", "id": 5401701552, "lat": 28.4205944, "lon": 77.3360116}, {"type": "node", "id": 5401701553, "lat": 28.4207285, "lon": 77.3359735}, {"type": "node", "id": 5401701554, "lat": 28.420783, "lon": 77.3357972}, {"type": "node", "id": 5401701555, "lat": 28.4208584, "lon": 77.3357782}, {"type": "node", "id": 5401701556, "lat": 28.4209632, "lon": 77.3356447}, {"type": "node", "id": 5401701557, "lat": 28.421047, "lon": 77.3355018}, {"type": "node", "id": 5401701558, "lat": 28.4210679, "lon": 77.3353303}, {"type": "node", "id": 5401701559, "lat": 28.4209506, "lon": 77.335135}, {"type": "node", "id": 5401701560, "lat": 28.4211433, "lon": 77.3350206}, {"type": "node", "id": 5401701561, "lat": 28.4203494, "lon": 77.3366268}, {"type": "node", "id": 5401701562, "lat": 28.4203567, "lon": 77.3373028}, {"type": "node", "id": 5401701563, "lat": 28.4202326, "lon": 77.3373982}, {"type": "node", "id": 5401701564, "lat": 28.419908, "lon": 77.3373941}, {"type": "node", "id": 5401701565, "lat": 28.4199116, "lon": 77.3372199}, {"type": "node", "id": 5401701569, "lat": 28.420353, "lon": 77.3364484}, {"type": "node", "id": 5405778945, "lat": 28.4198468, "lon": 77.334274}, {"type": "node", "id": 5405778946, "lat": 28.4198818, "lon": 77.3344246}, {"type": "node", "id": 5405778947, "lat": 28.4197355, "lon": 77.3344687}, {"type": "node", "id": 9633439826, "lat": 28.4240568, "lon": 77.3380892}, {"type": "node", "id": 9857729450, "lat": 28.4198381, "lon": 77.3363976}, {"type": "node", "id": 5401398325, "lat": 28.4278014, "lon": 77.333174}, {"type": "node", "id": 5401398326, "lat": 28.4274947, "lon": 77.332887}, {"type": "node", "id": 5401398347, "lat": 28.4281157, "lon": 77.3369283}, {"type": "node", "id": 5401398348, "lat": 28.4280413, "lon": 77.336929}, {"type": "node", "id": 5401398349, "lat": 28.4280418, "lon": 77.3370168}, {"type": "node", "id": 5401398350, "lat": 28.4280015, "lon": 77.3370172}, {"type": "node", "id": 5401398351, "lat": 28.4280023, "lon": 77.3371384}, {"type": "node", "id": 5401398352, "lat": 28.4280602, "lon": 77.3371153}, {"type": "node", "id": 5401398353, "lat": 28.4280994, "lon": 77.3370807}, {"type": "node", "id": 5401398354, "lat": 28.4281182, "lon": 77.337051}, {"type": "node", "id": 5401398355, "lat": 28.4281159, "lon": 77.3369636}, {"type": "node", "id": 5401398716, "lat": 28.4275764, "lon": 77.332668}, {"type": "node", "id": 1835441799, "lat": 28.4388175, "lon": 77.2851307}, {"type": "node", "id": 1835441800, "lat": 28.4390517, "lon": 77.2850222}, {"type": "node", "id": 1835441801, "lat": 28.4391194, "lon": 77.2864745}, {"type": "node", "id": 1835441802, "lat": 28.4392547, "lon": 77.2848742}, {"type": "node", "id": 1835441803, "lat": 28.4396278, "lon": 77.2845703}, {"type": "node", "id": 1835441805, "lat": 28.4399349, "lon": 77.2842704}, {"type": "node", "id": 1835441806, "lat": 28.4402281, "lon": 77.284083}, {"type": "node", "id": 1835441807, "lat": 28.4407677, "lon": 77.2838955}, {"type": "node", "id": 1835441810, "lat": 28.4418052, "lon": 77.2833391}, {"type": "node", "id": 1835441811, "lat": 28.4418989, "lon": 77.2834298}, {"type": "node", "id": 1835441815, "lat": 28.4421783, "lon": 77.2835107}, {"type": "node", "id": 1835441816, "lat": 28.4422165, "lon": 77.2842309}, {"type": "node", "id": 1835441818, "lat": 28.4422425, "lon": 77.2844006}, {"type": "node", "id": 1835441822, "lat": 28.4422564, "lon": 77.283933}, {"type": "node", "id": 1835441827, "lat": 28.4423101, "lon": 77.2835758}, {"type": "node", "id": 1835441830, "lat": 28.4423206, "lon": 77.2836923}, {"type": "node", "id": 1835441835, "lat": 28.4426797, "lon": 77.2850104}, {"type": "node", "id": 1835441804, "lat": 28.4397423, "lon": 77.2872559}, {"type": "node", "id": 1835441838, "lat": 28.4429365, "lon": 77.2908727}, {"type": "node", "id": 1835441840, "lat": 28.4430944, "lon": 77.2908096}, {"type": "node", "id": 1835441844, "lat": 28.4432453, "lon": 77.2907011}, {"type": "node", "id": 1835441849, "lat": 28.4433668, "lon": 77.2903854}, {"type": "node", "id": 1835441855, "lat": 28.443509, "lon": 77.290119}, {"type": "node", "id": 1835441862, "lat": 28.443745, "lon": 77.2899532}, {"type": "node", "id": 1835441866, "lat": 28.4439619, "lon": 77.2897283}, {"type": "node", "id": 1835441868, "lat": 28.4440486, "lon": 77.2895744}, {"type": "node", "id": 1835441869, "lat": 28.4440556, "lon": 77.2867487}, {"type": "node", "id": 1835441875, "lat": 28.4441354, "lon": 77.289306}, {"type": "node", "id": 1835441880, "lat": 28.4441978, "lon": 77.2885444}, {"type": "node", "id": 1835441885, "lat": 28.4442655, "lon": 77.2882247}, {"type": "node", "id": 1835441887, "lat": 28.4443401, "lon": 77.2869027}, {"type": "node", "id": 1835441890, "lat": 28.4444008, "lon": 77.2878735}, {"type": "node", "id": 1835441892, "lat": 28.4445362, "lon": 77.2870842}, {"type": "node", "id": 1835441893, "lat": 28.444668, "lon": 77.2873111}, {"type": "node", "id": 1832306792, "lat": 28.4334094, "lon": 77.2938969}, {"type": "node", "id": 1832306795, "lat": 28.4334147, "lon": 77.2940054}, {"type": "node", "id": 1832306798, "lat": 28.4334233, "lon": 77.2942619}, {"type": "node", "id": 1832306884, "lat": 28.4340854, "lon": 77.2947712}, {"type": "node", "id": 1832306886, "lat": 28.4340887, "lon": 77.2973226}, {"type": "node", "id": 1832306891, "lat": 28.4342285, "lon": 77.2941455}, {"type": "node", "id": 1832306893, "lat": 28.4342354, "lon": 77.2942915}, {"type": "node", "id": 1832306897, "lat": 28.4342451, "lon": 77.2947709}, {"type": "node", "id": 1832306899, "lat": 28.4342483, "lon": 77.2973224}, {"type": "node", "id": 1832306901, "lat": 28.4342545, "lon": 77.2942047}, {"type": "node", "id": 1832341309, "lat": 28.4350813, "lon": 77.2958923}, {"type": "node", "id": 1832341312, "lat": 28.4350985, "lon": 77.2963946}, {"type": "node", "id": 1832341315, "lat": 28.43512, "lon": 77.2981109}, {"type": "node", "id": 1832341318, "lat": 28.4351212, "lon": 77.2983523}, {"type": "node", "id": 1832341354, "lat": 28.4360108, "lon": 77.2981053}, {"type": "node", "id": 1832341357, "lat": 28.436012, "lon": 77.2983467}, {"type": "node", "id": 1832341369, "lat": 28.4360507, "lon": 77.2962188}, {"type": "node", "id": 1832341371, "lat": 28.436058, "lon": 77.2963807}, {"type": "node", "id": 1832341408, "lat": 28.4367684, "lon": 77.2991781}, {"type": "node", "id": 1832341417, "lat": 28.4374028, "lon": 77.2991781}, {"type": "node", "id": 1832341278, "lat": 28.4348707, "lon": 77.3024169}, {"type": "node", "id": 1832341279, "lat": 28.4348732, "lon": 77.3026066}, {"type": "node", "id": 1832341333, "lat": 28.435188, "lon": 77.2999435}, {"type": "node", "id": 1832341335, "lat": 28.4351931, "lon": 77.3002282}, {"type": "node", "id": 1832341336, "lat": 28.4359627, "lon": 77.3025285}, {"type": "node", "id": 1832341337, "lat": 28.4359647, "lon": 77.2999256}, {"type": "node", "id": 1832341338, "lat": 28.4359652, "lon": 77.3024364}, {"type": "node", "id": 1832341339, "lat": 28.4359698, "lon": 77.3002103}, {"type": "node", "id": 1832341409, "lat": 28.4367684, "lon": 77.2999357}, {"type": "node", "id": 1832341418, "lat": 28.4374028, "lon": 77.2999357}, {"type": "node", "id": 1832341458, "lat": 28.4397542, "lon": 77.2960103}, {"type": "node", "id": 1832341459, "lat": 28.4397805, "lon": 77.2958945}, {"type": "node", "id": 1832341472, "lat": 28.4404662, "lon": 77.2962192}, {"type": "node", "id": 1832341473, "lat": 28.4404925, "lon": 77.2961034}, {"type": "node", "id": 1832341486, "lat": 28.441047, "lon": 77.2976109}, {"type": "node", "id": 1832341487, "lat": 28.441049, "lon": 77.2970697}, {"type": "node", "id": 1832341499, "lat": 28.4417289, "lon": 77.297279}, {"type": "node", "id": 1832341500, "lat": 28.4417338, "lon": 77.2976142}, {"type": "node", "id": 1832341639, "lat": 28.4498506, "lon": 77.2998824}, {"type": "node", "id": 1832341640, "lat": 28.449851, "lon": 77.3003255}, {"type": "node", "id": 1832341652, "lat": 28.4504162, "lon": 77.2998819}, {"type": "node", "id": 1832341653, "lat": 28.4504166, "lon": 77.3003249}, {"type": "node", "id": 1832495622, "lat": 28.4331803, "lon": 77.3123615}, {"type": "node", "id": 1832495650, "lat": 28.4337059, "lon": 77.3127995}, {"type": "node", "id": 1832495795, "lat": 28.437805, "lon": 77.3120983}, {"type": "node", "id": 1832495796, "lat": 28.4378087, "lon": 77.3116504}, {"type": "node", "id": 1832495804, "lat": 28.4381573, "lon": 77.312102}, {"type": "node", "id": 1832495805, "lat": 28.438161, "lon": 77.3116541}, {"type": "node", "id": 1832495624, "lat": 28.4332183, "lon": 77.3134724}, {"type": "node", "id": 1832495662, "lat": 28.4341466, "lon": 77.3132277}, {"type": "node", "id": 1832495663, "lat": 28.4341714, "lon": 77.3178575}, {"type": "node", "id": 1832495664, "lat": 28.434176, "lon": 77.3183515}, {"type": "node", "id": 1832495665, "lat": 28.4341761, "lon": 77.3134152}, {"type": "node", "id": 1832495667, "lat": 28.434197, "lon": 77.3166015}, {"type": "node", "id": 1832495669, "lat": 28.4342019, "lon": 77.317168}, {"type": "node", "id": 1832495685, "lat": 28.4346794, "lon": 77.3178515}, {"type": "node", "id": 1832495687, "lat": 28.4346805, "lon": 77.3165485}, {"type": "node", "id": 1832495688, "lat": 28.4346829, "lon": 77.3171736}, {"type": "node", "id": 1832495689, "lat": 28.434684, "lon": 77.3183455}, {"type": "node", "id": 1832495763, "lat": 28.4369899, "lon": 77.3132081}, {"type": "node", "id": 1832495764, "lat": 28.4369909, "lon": 77.3158547}, {"type": "node", "id": 1832495765, "lat": 28.4369937, "lon": 77.3154738}, {"type": "node", "id": 1832495766, "lat": 28.4369945, "lon": 77.3136826}, {"type": "node", "id": 1832495771, "lat": 28.4372849, "lon": 77.3132044}, {"type": "node", "id": 1832495772, "lat": 28.4372894, "lon": 77.313679}, {"type": "node", "id": 1832495782, "lat": 28.4374013, "lon": 77.3158585}, {"type": "node", "id": 1832495783, "lat": 28.437404, "lon": 77.3154776}, {"type": "node", "id": 1832495810, "lat": 28.438251, "lon": 77.3136463}, {"type": "node", "id": 1832495811, "lat": 28.4382557, "lon": 77.3131586}, {"type": "node", "id": 1832495812, "lat": 28.438605, "lon": 77.3136507}, {"type": "node", "id": 1832495813, "lat": 28.4386097, "lon": 77.313163}, {"type": "node", "id": 7116650482, "lat": 28.4391242, "lon": 77.3153561}, {"type": "node", "id": 7116650483, "lat": 28.4391382, "lon": 77.3177171}, {"type": "node", "id": 11527615750, "lat": 28.4346578, "lon": 77.316551}, {"type": "node", "id": 1832542011, "lat": 28.4418494, "lon": 77.3140134}, {"type": "node", "id": 1832542012, "lat": 28.441859, "lon": 77.313082}, {"type": "node", "id": 1832542017, "lat": 28.4422408, "lon": 77.3140186}, {"type": "node", "id": 1832542018, "lat": 28.4422504, "lon": 77.3130872}, {"type": "node", "id": 1832542025, "lat": 28.442707, "lon": 77.3163052}, {"type": "node", "id": 1832542026, "lat": 28.4427122, "lon": 77.3169682}, {"type": "node", "id": 1832542032, "lat": 28.443172, "lon": 77.3163052}, {"type": "node", "id": 1832542033, "lat": 28.4431738, "lon": 77.3168853}, {"type": "node", "id": 1832542053, "lat": 28.443889, "lon": 77.3142482}, {"type": "node", "id": 1832542055, "lat": 28.4438904, "lon": 77.3145999}, {"type": "node", "id": 1832542069, "lat": 28.4442283, "lon": 77.3130456}, {"type": "node", "id": 1832542071, "lat": 28.4442283, "lon": 77.3133525}, {"type": "node", "id": 1832542076, "lat": 28.4443884, "lon": 77.3142456}, {"type": "node", "id": 1832542077, "lat": 28.4443898, "lon": 77.3145973}, {"type": "node", "id": 1832542097, "lat": 28.4447706, "lon": 77.3130456}, {"type": "node", "id": 1832542099, "lat": 28.4447706, "lon": 77.3133525}, {"type": "node", "id": 7116650484, "lat": 28.440669, "lon": 77.3177071}, {"type": "node", "id": 7116697785, "lat": 28.4413483, "lon": 77.317699}, {"type": "node", "id": 7116697786, "lat": 28.4413459, "lon": 77.3171318}, {"type": "node", "id": 7116697787, "lat": 28.4414049, "lon": 77.3171291}, {"type": "node", "id": 7116697788, "lat": 28.4414084, "lon": 77.3168488}, {"type": "node", "id": 7116697789, "lat": 28.4413506, "lon": 77.3168434}, {"type": "node", "id": 7116697790, "lat": 28.4413494, "lon": 77.316303}, {"type": "node", "id": 7116697791, "lat": 28.4414367, "lon": 77.316307}, {"type": "node", "id": 7116697792, "lat": 28.4414544, "lon": 77.3153199}, {"type": "node", "id": 1832541594, "lat": 28.4329309, "lon": 77.324437}, {"type": "node", "id": 1832541595, "lat": 28.4329642, "lon": 77.3249178}, {"type": "node", "id": 1832541620, "lat": 28.4333541, "lon": 77.3243991}, {"type": "node", "id": 1832541621, "lat": 28.4333827, "lon": 77.3248112}, {"type": "node", "id": 1832541672, "lat": 28.4344427, "lon": 77.3204378}, {"type": "node", "id": 1832541676, "lat": 28.4344633, "lon": 77.3207926}, {"type": "node", "id": 1832541686, "lat": 28.4349073, "lon": 77.320403}, {"type": "node", "id": 1832541688, "lat": 28.43492, "lon": 77.3232236}, {"type": "node", "id": 1832541690, "lat": 28.4349278, "lon": 77.3207578}, {"type": "node", "id": 1832541694, "lat": 28.4349398, "lon": 77.3234507}, {"type": "node", "id": 1832541723, "lat": 28.4349949, "lon": 77.3239571}, {"type": "node", "id": 1832541727, "lat": 28.4350268, "lon": 77.3243534}, {"type": "node", "id": 1832541733, "lat": 28.4350438, "lon": 77.3210161}, {"type": "node", "id": 1832541735, "lat": 28.4350684, "lon": 77.3214185}, {"type": "node", "id": 1832541736, "lat": 28.4352365, "lon": 77.3231879}, {"type": "node", "id": 1832541738, "lat": 28.4352563, "lon": 77.323415}, {"type": "node", "id": 1832541748, "lat": 28.4355142, "lon": 77.3209789}, {"type": "node", "id": 1832541752, "lat": 28.4355388, "lon": 77.3213813}, {"type": "node", "id": 1832541792, "lat": 28.4357213, "lon": 77.3239041}, {"type": "node", "id": 1832541793, "lat": 28.4357311, "lon": 77.3241692}, {"type": "node", "id": 3582362053, "lat": 28.4346074, "lon": 77.3317152}, {"type": "node", "id": 3582362054, "lat": 28.4346169, "lon": 77.3315243}, {"type": "node", "id": 5401508739, "lat": 28.4342008, "lon": 77.3304955}, {"type": "node", "id": 5401508740, "lat": 28.4342473, "lon": 77.3302109}, {"type": "node", "id": 5401508741, "lat": 28.4344046, "lon": 77.3301336}, {"type": "node", "id": 5401508742, "lat": 28.4344189, "lon": 77.3302231}, {"type": "node", "id": 5401508743, "lat": 28.4344296, "lon": 77.3303694}, {"type": "node", "id": 5401508744, "lat": 28.434326, "lon": 77.3305686}, {"type": "node", "id": 5401508745, "lat": 28.4343988, "lon": 77.331713}, {"type": "node", "id": 5401508746, "lat": 28.4344548, "lon": 77.3310901}, {"type": "node", "id": 5401508747, "lat": 28.4348407, "lon": 77.3311326}, {"type": "node", "id": 5401508748, "lat": 28.4348438, "lon": 77.3312423}, {"type": "node", "id": 5401508749, "lat": 28.4348127, "lon": 77.3312458}, {"type": "node", "id": 5401508750, "lat": 28.4348127, "lon": 77.3313166}, {"type": "node", "id": 5401508751, "lat": 28.4348438, "lon": 77.3313379}, {"type": "node", "id": 5401508752, "lat": 28.4348345, "lon": 77.3315219}, {"type": "node", "id": 1832555196, "lat": 28.4401373, "lon": 77.3196383}, {"type": "node", "id": 1832555198, "lat": 28.4402484, "lon": 77.3203277}, {"type": "node", "id": 1832555200, "lat": 28.4409434, "lon": 77.3194702}, {"type": "node", "id": 1832555201, "lat": 28.4410545, "lon": 77.3201597}, {"type": "node", "id": 1832555247, "lat": 28.4442629, "lon": 77.3204567}, {"type": "node", "id": 1832555249, "lat": 28.4443157, "lon": 77.3209511}, {"type": "node", "id": 1832555257, "lat": 28.4452719, "lon": 77.3203174}, {"type": "node", "id": 1832555258, "lat": 28.4453247, "lon": 77.3208118}, {"type": "node", "id": 1992172840, "lat": 28.4454458, "lon": 77.3209003}, {"type": "node", "id": 1992172841, "lat": 28.4454857, "lon": 77.3212705}, {"type": "node", "id": 1992172844, "lat": 28.4457438, "lon": 77.3208588}, {"type": "node", "id": 1992172845, "lat": 28.4457837, "lon": 77.321229}, {"type": "node", "id": 1992172874, "lat": 28.4492469, "lon": 77.3127985}, {"type": "node", "id": 1992172887, "lat": 28.4499826, "lon": 77.3126974}, {"type": "node", "id": 1992172873, "lat": 28.4492453, "lon": 77.3130928}, {"type": "node", "id": 1992172875, "lat": 28.4492531, "lon": 77.3147527}, {"type": "node", "id": 1992172876, "lat": 28.4492578, "lon": 77.3137412}, {"type": "node", "id": 1992172885, "lat": 28.4497488, "lon": 77.3165345}, {"type": "node", "id": 1992172886, "lat": 28.4497576, "lon": 77.3160155}, {"type": "node", "id": 1992172888, "lat": 28.4499826, "lon": 77.3131105}, {"type": "node", "id": 1992172889, "lat": 28.4499998, "lon": 77.3147571}, {"type": "node", "id": 1992172890, "lat": 28.4500044, "lon": 77.3137456}, {"type": "node", "id": 1992172897, "lat": 28.450377, "lon": 77.3163515}, {"type": "node", "id": 1992172898, "lat": 28.4503837, "lon": 77.316008}, {"type": "node", "id": 1992172846, "lat": 28.4461611, "lon": 77.3201225}, {"type": "node", "id": 1992172847, "lat": 28.4462391, "lon": 77.3208778}, {"type": "node", "id": 1992172853, "lat": 28.4469156, "lon": 77.3199948}, {"type": "node", "id": 1992172854, "lat": 28.4469343, "lon": 77.3201544}, {"type": "node", "id": 5401529641, "lat": 28.4463769, "lon": 77.3258418}, {"type": "node", "id": 5401529642, "lat": 28.446502, "lon": 77.3257849}, {"type": "node", "id": 5401529643, "lat": 28.4466986, "lon": 77.3258133}, {"type": "node", "id": 5401529644, "lat": 28.446739, "lon": 77.3258583}, {"type": "node", "id": 5401529645, "lat": 28.4474983, "lon": 77.3258516}, {"type": "node", "id": 5401529646, "lat": 28.4472058, "lon": 77.3258577}, {"type": "node", "id": 5401529647, "lat": 28.4471651, "lon": 77.325907}, {"type": "node", "id": 5401529653, "lat": 28.447959, "lon": 77.3252275}, {"type": "node", "id": 5401529654, "lat": 28.4478346, "lon": 77.325224}, {"type": "node", "id": 5401529655, "lat": 28.4478221, "lon": 77.3253514}, {"type": "node", "id": 5401529656, "lat": 28.447707, "lon": 77.3253691}, {"type": "node", "id": 5401529657, "lat": 28.4476852, "lon": 77.325677}, {"type": "node", "id": 5401529658, "lat": 28.4479746, "lon": 77.3256735}, {"type": "node", "id": 9854853896, "lat": 28.447999, "lon": 77.3253983}, {"type": "node", "id": 5401529639, "lat": 28.4467415, "lon": 77.3265695}, {"type": "node", "id": 5401529640, "lat": 28.4463626, "lon": 77.3265939}, {"type": "node", "id": 5401529648, "lat": 28.4471353, "lon": 77.3265633}, {"type": "node", "id": 5401529649, "lat": 28.4479589, "lon": 77.3265879}, {"type": "node", "id": 5401529650, "lat": 28.4475254, "lon": 77.3264801}, {"type": "node", "id": 5401529651, "lat": 28.4475119, "lon": 77.3261258}, {"type": "node", "id": 5401529652, "lat": 28.4474794, "lon": 77.3261104}, {"type": "node", "id": 9854853897, "lat": 28.4479735, "lon": 77.3265029}]}