{"version": 0.6, "generator": "Overpass API 0.7.62.8 e802775f", "osm3s": {"timestamp_osm_base": "2025-11-22T14:26:00Z", "copyright": "The data included in this document is from www.openstreetmap.org. The data is made available under ODbL."}, "elements": [{"type": "node", "id": 5162645434, "lat": 28.5751812, "lon": 77.1393042, "tags": {"access": "private", "amenity": "restaurant", "delivery": "no", "name": "Canteen"}}, {"type": "node", "id": 5257509521, "lat": 28.5546855, "lon": 77.1224691, "tags": {"amenity": "restaurant", "name": "Anna Maya"}}, {"type": "node", "id": 5395035823, "lat": 28.5501016, "lon": 77.1289221, "tags": {"addr:housenumber": "A-147", "addr:postcode": "110037", "addr:street": "National Highway No. 8", "email": "delhi37@stargroupofhotels.in", "name": "Hotel Delhi 37", "phone": "01126784444", "tourism": "hotel"}}, {"type": "node", "id": 5766365019, "lat": 28.5851062, "lon": 77.1353157, "tags": {"amenity": "marketplace", "landuse": "retail", "name": "Shopping Complex"}}, {"type": "node", "id": 6691176215, "lat": 28.5508972, "lon": 77.1308872, "tags": {"name": "Hotel Almati Inn", "tourism": "hotel"}}, {"type": "node", "id": 7389622179, "lat": 28.5516096, "lon": 77.1207961, "tags": {"addr:city": "New Delhi", "addr:housenumber": "Asset No.6", "addr:postcode": "110037", "addr:street": "Aerocity Hospitality District, IGI Airport", "check_date": "2025-03-11", "facebook": "https://www.facebook.com/lemontreehotelsltd/", "name": "Lemon Tree Premier, Delhi Airport", "phone": "+91 11 6676 3950, +91 11 4423 2323", "tourism": "hotel", "website": "https://www.lemontreehotels.com/"}}, {"type": "node", "id": 8823889495, "lat": 28.5505324, "lon": 77.1313496, "tags": {"name": "Backpackers by OPO Rooms", "tourism": "hostel"}}, {"type": "node", "id": 9765973817, "lat": 28.550666, "lon": 77.1217458, "tags": {"amenity": "cafe", "brand": "Starbucks", "brand:wikidata": "Q37158", "cuisine": "coffee_shop", "internet_access": "wlan", "name": "Starbucks", "official_name": "Starbucks Coffee", "takeaway": "yes"}}, {"type": "node", "id": 9937843117, "lat": 28.5517564, "lon": 77.1225963, "tags": {"amenity": "restaurant", "name": "Dhaba est 1986"}}, {"type": "node", "id": 9937845917, "lat": 28.551561, "lon": 77.1225437, "tags": {"addr:city": "New Delhi", "amenity": "restaurant", "name": "One8 commune", "name:en": "One8 commune", "owner": "Virat Kohli"}}, {"type": "node", "id": 9941764517, "lat": 28.5508858, "lon": 77.1310181, "tags": {"internet_access": "wlan", "name": "Hotel Z", "tourism": "hotel"}}, {"type": "node", "id": 10706966644, "lat": 28.5518221, "lon": 77.1225864, "tags": {"amenity": "cafe", "brand": "Costa", "brand:wikidata": "Q608845", "cuisine": "coffee_shop", "name": "Costa", "takeaway": "yes"}}, {"type": "node", "id": 11010620367, "lat": 28.5544852, "lon": 77.0940231, "tags": {"historic": "aircraft"}}, {"type": "node", "id": 11690687469, "lat": 28.5650318, "lon": 77.122799, "tags": {"amenity": "cafe", "name": "Cheap food places"}}, {"type": "node", "id": 11841104170, "lat": 28.5949002, "lon": 77.1208227, "tags": {"artwork_subject": "Tiger", "material": "plastic", "tourism": "artwork"}}, {"type": "node", "id": 11841104171, "lat": 28.5949627, "lon": 77.1207651, "tags": {"artwork_subject": "Rhinoceros", "material": "plastic", "tourism": "artwork"}}, {"type": "node", "id": 11841104176, "lat": 28.5947721, "lon": 77.1209354, "tags": {"artwork_subject": "Elephant", "material": "plastic", "tourism": "artwork"}}, {"type": "node", "id": 11847019909, "lat": 28.5956745, "lon": 77.122579, "tags": {"amenity": "restaurant", "level": "0", "name": "Shahi Pakwan", "opening_hours": "Mo-Su 10:00-15:30; Mo-Su 18:00-22:00", "outdoor_seating": "no", "wheelchair": "no"}}, {"type": "node", "id": 11847019930, "lat": 28.5953981, "lon": 77.1224262, "tags": {"amenity": "restaurant", "level": "0", "name": "Sainik Hotel", "outdoor_seating": "no", "wheelchair": "no"}}, {"type": "node", "id": 11873753849, "lat": 28.5948052, "lon": 77.1226288, "tags": {"amenity": "restaurant", "contact:mobile": "+91 99104 11507;+91 99104 10533;+91 92127 35808", "level": "0", "name": "Dilli' See Us", "outdoor_seating": "no", "takeaway": "yes", "wheelchair": "no"}}, {"type": "node", "id": 11873857924, "lat": 28.5951164, "lon": 77.1227767, "tags": {"amenity": "restaurant", "contact:mobile": "9205306869", "level": "0", "name": "Nashta Nukkad", "wheelchair": "no"}}, {"type": "node", "id": 11876083322, "lat": 28.5957076, "lon": 77.1230774, "tags": {"amenity": "restaurant", "contact:mobile": "+91 88820 90199;+91 98733 14325", "cuisine": "chicken;fish;kebab", "level": "0", "microbrewery": "yes", "name": "Janta Hotel", "outdoor_seating": "no", "wheelchair": "no"}}, {"type": "node", "id": 11878999601, "lat": 28.5940504, "lon": 77.1216872, "tags": {"amenity": "restaurant", "contact:mobile": "+91 79083 03945", "cuisine": "indian", "delivery": "yes", "level": "0", "name": "Bengali Dhaba", "outdoor_seating": "no", "takeaway": "yes", "toilets": "no", "wheelchair": "no"}}, {"type": "node", "id": 11886578477, "lat": 28.5935922, "lon": 77.1220031, "tags": {"amenity": "restaurant", "contact:mobile": "+91 95606 99836;+91 95606 99866", "cuisine": "indian", "level": "0", "name": "Shubham's Cookhouse", "outdoor_seating": "no", "takeaway": "yes", "wheelchair": "no"}}, {"type": "node", "id": 11891024862, "lat": 28.5964062, "lon": 77.1347801, "tags": {"amenity": "restaurant", "bar": "no", "contact:mobile": "+91 99534 28236", "cuisine": "indian", "level": "0", "name": "Binge-ish", "outdoor_seating": "no", "takeaway": "yes", "wheelchair": "no"}}, {"type": "node", "id": 11907578769, "lat": 28.55072, "lon": 77.1217364, "tags": {"amenity": "restaurant", "name": "The Walk (food court)"}}, {"type": "node", "id": 11925829932, "lat": 28.5969199, "lon": 77.1326067, "tags": {"air_conditioning": "yes", "amenity": "restaurant", "cuisine": "indian;chinese", "level": "1", "name": "Capital Restaurant", "smoking": "no", "toilets": "no", "wheelchair": "no"}}, {"type": "node", "id": 11925829937, "lat": 28.5969043, "lon": 77.1325547, "tags": {"air_conditioning": "yes", "amenity": "restaurant", "bar": "no", "cuisine": "indian;chinese", "level": "1", "name": "Turning Point Restaurant", "smoking": "no", "toilets": "no", "wheelchair": "no"}}, {"type": "node", "id": 11925835868, "lat": 28.597035, "lon": 77.1323933, "tags": {"air_conditioning": "no", "amenity": "restaurant", "bar": "no", "cuisine": "indian", "level": "0", "name": "The Naan Corner", "outdoor_seating": "yes", "smoking": "no", "toilets": "no", "wheelchair": "no"}}, {"type": "node", "id": 11942183990, "lat": 28.5939741, "lon": 77.1216084, "tags": {"amenity": "restaurant", "bar": "no", "contact:mobile": "+91 96678 78145", "cuisine": "chicken;chinese;fish;indian", "level": "0", "name": "Al-Dijaaj", "wheelchair": "limited"}}, {"type": "node", "id": 12061322835, "lat": 28.595236, "lon": 77.1213629, "tags": {"amenity": "restaurant", "bar": "no", "contact:mobile": "+91 99716 68040", "cuisine": "chicken;indian", "level": "0", "name": "Quereshi's Cantt Biryani Corner", "wheelchair": "yes"}}, {"type": "node", "id": 12676301797, "lat": 28.5949259, "lon": 77.1222859, "tags": {"amenity": "restaurant", "level": "0", "name": "Sardar Jee"}}, {"type": "node", "id": 13042461176, "lat": 28.5743071, "lon": 77.1191006, "tags": {"historic": "aircraft"}}, {"type": "node", "id": 13042477232, "lat": 28.573688, "lon": 77.1172004, "tags": {"historic": "aircraft", "model": "Liberator B-24"}}, {"type": "node", "id": 13042484343, "lat": 28.5741516, "lon": 77.1172733, "tags": {"amenity": "cafe", "name": "Longewala Lounge"}}, {"type": "node", "id": 13042494633, "lat": 28.5742213, "lon": 77.1175077, "tags": {"historic": "tank", "model": "T-59"}}, {"type": "node", "id": 13042494811, "lat": 28.5835219, "lon": 77.1329297, "tags": {"historic": "tank"}}, {"type": "node", "id": 13042495688, "lat": 28.573951, "lon": 77.1203071, "tags": {"historic": "aircraft"}}, {"type": "node", "id": 13042498353, "lat": 28.5738045, "lon": 77.1173164, "tags": {"historic": "aircraft", "model": "Camberra"}}, {"type": "node", "id": 13042499547, "lat": 28.57449, "lon": 77.1167079, "tags": {"historic": "memorial"}}, {"type": "node", "id": 13042502797, "lat": 28.5742553, "lon": 77.117679, "tags": {"historic": "tank", "model": "T-59"}}, {"type": "node", "id": 13042502967, "lat": 28.5745125, "lon": 77.1171209, "tags": {"historic": "aircraft"}}, {"type": "node", "id": 13042504546, "lat": 28.5842063, "lon": 77.129928, "tags": {"historic": "cannon"}}, {"type": "node", "id": 13063894812, "lat": 28.5740119, "lon": 77.1171912, "tags": {"historic": "missile", "model": "KH-29 L"}}, {"type": "node", "id": 13063894813, "lat": 28.5745478, "lon": 77.115903, "tags": {"historic": "aircraft"}}, {"type": "node", "id": 13063894814, "lat": 28.5744618, "lon": 77.115836, "tags": {"historic": "aircraft"}}, {"type": "node", "id": 13063894815, "lat": 28.5743582, "lon": 77.1158749, "tags": {"historic": "aircraft"}}, {"type": "node", "id": 13063894816, "lat": 28.5741839, "lon": 77.1160492, "tags": {"historic": "aircraft"}}, {"type": "node", "id": 13063894817, "lat": 28.5741191, "lon": 77.1162128, "tags": {"historic": "aircraft"}}, {"type": "node", "id": 13063894818, "lat": 28.5744383, "lon": 77.1161726, "tags": {"historic": "aircraft"}}, {"type": "node", "id": 13063894819, "lat": 28.5746055, "lon": 77.1160197, "tags": {"historic": "aircraft"}}, {"type": "node", "id": 13063894820, "lat": 28.5738953, "lon": 77.1175539, "tags": {"historic": "helicopter", "model": "MI-4"}}, {"type": "node", "id": 13063894821, "lat": 28.5740225, "lon": 77.1175835, "tags": {"historic": "helicopter", "model": "S-55"}}, {"type": "node", "id": 13063894822, "lat": 28.5744819, "lon": 77.1173608, "tags": {"historic": "missile"}}, {"type": "way", "id": 203600636, "nodes": [2136103097, 2136103096, 2136103085, 2136103088, 2136103097], "tags": {"landuse": "brownfield", "name": "MGM", "tourism": "hotel"}}, {"type": "way", "id": 258880202, "nodes": [2641915086, 2641915105, 2641915088, 2641915109, 2641915099, 2641915087, 2641915098, 2641915106, 2641915095, 2641915093, 2641915092, 2641915096, 2641915104, 2641915090, 2641915086], "tags": {"barrier": "wall", "leisure": "park", "name": "Nagar Van Park", "operator": "Government"}}, {"type": "way", "id": 313541232, "nodes": [3195399608, 3195399609, 3195399605, 3195399595, 3195399590, 3195399586, 3195399585, 3195399584, 3195399582, 3195399580, 3195399579, 3195399581, 3195399583, 3195399588, 3195399569, 3195399702, 3195399694, 3195399704, 3195399705, 3195399698, 3195399684, 3195399687, 3195399683, 3195399676, 3195399681, 3195399699, 3195399608], "tags": {"brand": "Novotel", "brand:wikidata": "Q420545", "brand:wikipedia": "en:Novotel", "building": "yes", "name": "Novotel - Pullman", "tourism": "hotel"}}, {"type": "way", "id": 313541233, "nodes": [3195399564, 3195399260, 3195399259, 3195399254, 3195399258, 3195393359, 3195393360, 3195399664, 3195399666, 3195399663, 3195399566, 3195393358, 3195399564], "tags": {"building": "yes", "name": "Pride Plaza", "tourism": "hotel"}}, {"type": "way", "id": 313544660, "nodes": [3195431731, 3195431726, 3195431732, 3195431735, 3195431745, 3195431741, 10882832262, 3195431749, 3195431752, 3195431763, 3195431760, 3195431766, 3195431768, 3195431731], "tags": {"brand": "Ibis", "brand:wikidata": "Q920166", "building": "yes", "name": "ibis New Delhi Aerocity", "tourism": "hotel"}}, {"type": "way", "id": 350514023, "nodes": [3562726215, 3562726217, 3562726218, 3562726216, 3562726215], "tags": {"building": "yes", "internet_access": "wlan", "name": "Airport Hotel", "tourism": "hotel", "website": "http://www.airporthoteldelhi.com/"}}, {"type": "way", "id": 505667468, "nodes": [4955499915, 4955499914, 4955499913, 4955499912, 4955499911, 4955499910, 4955499909, 4955499908, 4955499907, 4955499906, 4955499905, 4955499904, 4955499915], "tags": {"brand": "Holiday Inn", "brand:wikidata": "Q2717882", "brand:wikipedia": "en:Holiday Inn", "building": "yes", "name": "Holiday Inn New Delhi Int'l Airport", "tourism": "hotel"}}, {"type": "way", "id": 532890551, "nodes": [5170793183, 5170793188, 5170793184, 5170793185, 5170793195, 5170793186, 5170793183], "tags": {"addr:city": "Delhi Cantonment", "addr:postcode": "110010", "addr:suburb": "New Pinto Park", "amenity": "restaurant", "building": "yes", "cuisine": "indian", "name": "Tripati", "outdoor_seating": "yes", "takeaway": "yes"}}, {"type": "way", "id": 532890557, "nodes": [5170793206, 5170793207, 5170823782, 5170793181, 5170793182, 5170793206], "tags": {"addr:city": "Delhi Cantonment", "addr:postcode": "110010", "addr:suburb": "New Pinto Park", "leisure": "park", "name": "Enviroment Park"}}, {"type": "way", "id": 532895194, "nodes": [5170823795, 5170823801, 5170823802, 5170823796, 5170836121, 5170823795], "tags": {"addr:city": "Delhi Cantonment", "addr:neighbourhood": "Basant Nagar", "addr:postcode": "110010", "addr:suburb": "New Pinto Park", "leisure": "park"}}, {"type": "way", "id": 532895195, "nodes": [5170823807, 5170823808, 5170823809, 5170823810, 5170823811, 5170823812, 5170823807], "tags": {"leisure": "park"}}, {"type": "way", "id": 532898620, "nodes": [5170864614, 5170864615, 5170864616, 5170864617, 5170864614], "tags": {"addr:city": "Delhi Cantonment", "addr:postcode": "110010", "addr:suburb": "Old PintoPark", "leisure": "park"}}, {"type": "way", "id": 532898622, "nodes": [5170864618, 5170864619, 5170864620, 5170864821, 5170864822, 5170864618], "tags": {"addr:city": "Delhi Cantonment", "addr:postcode": "110010", "addr:suburb": "Old Pinto Park", "leisure": "park", "name": "Children's Park"}}, {"type": "way", "id": 532898632, "nodes": [5170864836, 5170864837, 5170864838, 5170864839, 5170864840, 5170864841, 5170864842, 5170864843, 5170864844, 5170864836], "tags": {"addr:city": "Delhi Cantonment", "addr:postcode": "110010", "addr:suburb": "Old Pinto Park", "leisure": "park"}}, {"type": "way", "id": 662185760, "nodes": [6199393109, 6199393108, 6199393107, 6199393106, 6199393105, 6199393104, 6199393103, 6199393102, 6199393101, 6199393100, 6199393099, 6199393109], "tags": {"leisure": "park", "name": "Shahid Bhagat Singh Park", "name:etymology:wikidata": "Q377808"}}, {"type": "way", "id": 729191980, "nodes": [6831705247, 6831705248, 6831705249, 6831705250, 6831705251, 6831705252, 6831705247], "tags": {"leisure": "park"}}, {"type": "way", "id": 729191981, "nodes": [6831705253, 6831705254, 6831705255, 6831705256, 6831705253], "tags": {"leisure": "park"}}, {"type": "way", "id": 789655294, "nodes": [7382998670, 7382998671, 7382998672, 7382998673, 7382998674, 7382998675, 7382998676, 7382998677, 7382998678, 7382998679, 7382998680, 7382998681, 7382998682, 7382998670], "tags": {"leisure": "park"}}, {"type": "way", "id": 789655295, "nodes": [7382998683, 7382998684, 7383006485, 7383006486, 7382998683], "tags": {"leisure": "park"}}, {"type": "way", "id": 1182767452, "nodes": [10983013278, 10983013279, 10983013280, 10983013281, 10983013282, 10983013283, 10983013284, 10983013266, 10983013267, 10983013270, 10983013271, 10983013272, 10983013273, 10983013274, 10983013275, 10983013276, 10983013277, 10983013268, 10983013269, 10983013278], "tags": {"leisure": "park"}}, {"type": "way", "id": 1182767453, "nodes": [10983013285, 10983013286, 10983013287, 10983013288, 10983013289, 10983013290, 10983013291, 10983013292, 10983013293, 10983013294, 10983013295, 10983013296, 10983013297, 10983013298, 10983013299, 10983013300, 10983013285], "tags": {"leisure": "park"}}, {"type": "way", "id": 1182767454, "nodes": [10983013301, 10983035745, 10983013302, 10983013303, 10983013304, 10983035705, 10983035706, 10983035707, 10983035708, 10983035709, 10983035710, 10983035711, 10983035712, 10983035713, 10983035714, 10983035715, 10983035716, 10983035717, 10983035718, 10983035719, 10983013301], "tags": {"leisure": "park"}}, {"type": "way", "id": 1182767455, "nodes": [10983035720, 10983035721, 10983035744, 10983035722, 10983035723, 10983035724, 10983035725, 10983035726, 10983035727, 10983035728, 10983035729, 10983035730, 10983035731, 10983035732, 10983035733, 10983035734, 10983035735, 10983035736, 10983035737, 10983035738, 10983035739, 10983035747, 10983035749, 10983035754, 10983035755, 10983035756, 10983035757, 10983035753, 10983035752, 10983035751, 10983035750, 10983035748, 10983035746, 10983035740, 10983035741, 10983035742, 10983035743, 10983035720], "tags": {"leisure": "park"}}, {"type": "way", "id": 1182768135, "nodes": [10983035627, 10983035628, 10983035645, 10983035629, 10983035630, 10983035631, 10983035632, 10983035633, 10983035634, 10983035635, 10983035636, 10983035637, 10983035638, 10983035639, 10983035640, 10983035641, 10983035642, 10983035643, 10983035644, 10983035627], "tags": {"leisure": "park"}}, {"type": "way", "id": 1182768136, "nodes": [10983035646, 10983035647, 10983035648, 10983035649, 10983035650, 10983035651, 10983035652, 10983035653, 10983035646], "tags": {"leisure": "park"}}, {"type": "way", "id": 1182768137, "nodes": [10983035654, 10983035655, 10983035656, 10983035657, 10983035658, 10983035659, 10983035660, 10983035661, 10983035662, 10983035663, 10983035664, 10983035665, 10983035666, 10983035667, 10983035668, 10983035669, 10983035670, 10983035671, 10983035654], "tags": {"leisure": "park"}}, {"type": "way", "id": 1182768138, "nodes": [10983035672, 10983035673, 10983035674, 10983035675, 10983035676, 10983035677, 10983035678, 10983035679, 10983035680, 10983035681, 10983035682, 10983035683, 10983035684, 10983035685, 10983035686, 10983035687, 10983035672], "tags": {"leisure": "park"}}, {"type": "way", "id": 1182768139, "nodes": [10983035688, 10983035689, 10983035690, 10983035691, 10983035692, 10983035693, 10983035694, 10983035695, 10983035696, 10983035697, 10983035698, 10983035699, 10983035700, 10983035701, 10983035702, 10983035703, 10983035704, 10983041505, 10983041506, 10983041507, 10983041508, 10983041509, 10983041510, 10983035688], "tags": {"leisure": "park"}}, {"type": "way", "id": 1182817817, "nodes": [10983530481, 10983530482, 10983530483, 10983530484, 10983530485, 10983530486, 10983530487, 10983530488, 10983530470, 10983530471, 10983530474, 10983530475, 10983530476, 10983530477, 10983530478, 10983530479, 10983530480, 10983530472, 10983530473, 10983530481], "tags": {"leisure": "park"}}, {"type": "way", "id": 1182818011, "nodes": [10983513909, 10983513910, 10983513911, 10983513912, 10983513913, 10983513914, 10983513915, 10983513916, 10983513917, 10983513918, 10983513919, 10983513920, 10983513921, 10983513922, 10983513923, 10983513924, 10983513925, 10983513926, 10983513927, 10983513928, 10983513929, 10983513930, 10983513931, 10983513932, 10983513933, 10983513934, 10983513909], "tags": {"leisure": "park"}}, {"type": "way", "id": 1182818012, "nodes": [10983513936, 10983513937, 10983513938, 10983513939, 10983513940, 10983513941, 10983513942, 10983513943, 10983513944, 10983513945, 10983513946, 10983513947, 10983513948, 10983513949, 10983513950, 10983513951, 10983513952, 10983513953, 10983513936], "tags": {"leisure": "park"}}, {"type": "way", "id": 1182818013, "nodes": [10983513954, 10983513955, 10983513956, 10983513957, 10983513958, 10983513959, 10983513960, 10983513961, 10983513962, 10983513963, 10983513964, 10983513965, 10983513966, 10983513967, 10983513968, 10983513969, 10983513970, 10983513971, 10983513954], "tags": {"leisure": "park"}}, {"type": "way", "id": 1182818014, "nodes": [10983513972, 10983513973, 10983513974, 10983513975, 10983513976, 10983513977, 10983513978, 10983513979, 10983513980, 10983513981, 10983513982, 10983513983, 10983513984, 10983513985, 10983513986, 10983513987, 10983513988, 10983513989, 10983513972], "tags": {"leisure": "park"}}, {"type": "way", "id": 1182818984, "nodes": [10983535044, 10983535045, 10983535046, 10983535047, 10983535048, 10983535049, 10983535050, 10983535051, 10983535052, 10983535053, 10983535054, 10983535055, 10983535056, 10983535057, 10983535058, 10983535059, 10983535060, 10983535061, 10983535062, 10983535063, 10983535064, 10983535065, 10983535066, 10983535067, 10983535068, 10983535044], "tags": {"leisure": "park"}}, {"type": "way", "id": 1183406526, "nodes": [10989524720, 10989524721, 10989524722, 10989524723, 10989524724, 10989581708, 10989524725, 10989524726, 10989524727, 10989524728, 10989524729, 10989524730, 10989524731, 10989524732, 10989524733, 10989524734, 10989524735, 10989524720], "tags": {"leisure": "park"}}, {"type": "way", "id": 1263760037, "nodes": [11741404575, 11862255385, 11862255382, 11741404576, 11741404578, 11908775004, 11908775003, 11741404580, 11741404575], "tags": {"access": "yes", "leisure": "park", "name": "Ramleela Maidan", "opening_hours": "24/7"}}, {"type": "way", "id": 1268312717, "nodes": [11779952615, 11779952614, 11779952613, 11779952612, 11779952615], "tags": {"leisure": "park"}}, {"type": "way", "id": 1274009113, "nodes": [11829911094, 11829911087, 11829815848, 11829911093, 11829911094], "tags": {"leisure": "park"}}, {"type": "way", "id": 1274009115, "nodes": [11829815844, 11829815859, 11829911134, 11829815842, 11829911116, 11829815857, 11829815844], "tags": {"leisure": "park"}}, {"type": "way", "id": 1274009118, "nodes": [11829911145, 11829911081, 11829815845, 11829911142, 11829911137, 11829911122, 11829911095, 11829911153, 11829911079, 11829815867, 11829911103, 11829911107, 11829911072, 11829815868, 11829911108, 11829815847, 11829911149, 11829911080, 11829911123, 11829911124, 11829911098, 11829911147, 11829911145], "tags": {"female": "yes", "male": "no", "name": "Girls' Hostel", "smoking": "no", "tourism": "hostel", "wheelchair": "designated"}}, {"type": "way", "id": 1274009119, "nodes": [11829815850, 11829815860, 11829815865, 11829911105, 11829815850], "tags": {"leisure": "park"}}, {"type": "way", "id": 1274009122, "nodes": [11829911128, 11829911125, 11829911096, 11829911156, 11829911146, 11829911148, 11829911128], "tags": {"abandoned:building": "yes", "female": "no", "male": "yes", "name": "Boys' Hostel", "smoking": "no", "tourism": "hostel"}}, {"type": "way", "id": 1274009123, "nodes": [11829911154, 11829911160, 11829815846, 11829911078, 11829911154], "tags": {"leisure": "park"}}, {"type": "way", "id": 1275259742, "nodes": [11841093563, 11841104175, 11841104183, 11841104169, 11841104177, 11841104179, 11841093559, 11841093550, 11841093551, 11841093560, 11841104180, 11841093554, 11841104182, 11841093561, 11841104178, 11841104174, 11841121315, 11841093563], "tags": {"access": "yes", "leisure": "park", "name": "Sadar Bazar Park", "official_name": "Cantonment Board Public Park", "opening_hours": "24/7"}}, {"type": "way", "id": 1278049252, "nodes": [11865385535, 11865385537, 11933083761, 11933083702, 11933083752, 11933083708, 11933083707, 11865385536, 11865385535], "tags": {"leisure": "park"}}, {"type": "way", "id": 1278183032, "nodes": [11866361324, 11866361323, 11866361325, 11866361321, 11866361324], "tags": {"leisure": "park", "name": "Delhi Cantonment Children Park 3"}}, {"type": "way", "id": 1278970648, "nodes": [11873300999, 11873300955, 11873301022, 11873300835, 11873300939, 11927952980, 11927937468, 11873300942, 11873300839, 11873232746, 11873300815, 11873300828, 11873300918, 11873300876, 11873232750, 12793822764, 12793822762, 12793822763, 11873300999], "tags": {"leisure": "park", "name": "Srinagesh Garden", "opening_hours": "mo-su 06:00-19:00"}}, {"type": "way", "id": 1283259036, "nodes": [11906995647, 11906995607, 11906995601, 11906995585, 11906995641, 11906995583, 11906995614, 11906995587, 11906995647], "tags": {"material": "metal", "tourism": "artwork"}}, {"type": "way", "id": 1283259038, "nodes": [11906995618, 11906995590, 11906995592, 11906995606, 11906995645, 11907052771, 11906995622, 11906995582, 11906995618], "tags": {"material": "metal", "tourism": "artwork"}}, {"type": "way", "id": 1283259039, "nodes": [11906995659, 11906995609, 11906995621, 11906995626, 11906995650, 11906995600, 11906995586, 11906995648, 11906995659], "tags": {"material": "metal", "tourism": "artwork"}}, {"type": "way", "id": 1283297045, "nodes": [3606798204, 11907323674, 11907323685, 11778265118, 11778265123, 3606798204], "tags": {"leisure": "park", "name": "Delhi Cantonment Children Park 1"}}, {"type": "way", "id": 1288640323, "nodes": [11949851643, 11949851624, 11949851618, 11949851658, 11949851654, 11949851616, 11949851631, 11949851643], "tags": {"leisure": "park", "name": "Cantonment Board Children Park"}}, {"type": "way", "id": 1289164909, "nodes": [11954160768, 11954160765, 11954160767, 11955773590, 11954163172, 11955773596, 11954163170, 11954160763, 11954160764, 11954163169, 11954163175, 11955773601, 11954163173, 11955773591, 11955773595, 11954160768], "tags": {"amenity": "marketplace", "name": "Sadar Bazar Sabzi Mandi", "organic": "no", "wheelchair": "yes"}}, {"type": "way", "id": 1298956672, "nodes": [12032809905, 12032809967, 12032793664, 12032809869, 12032809786, 12032809905], "tags": {"leisure": "park", "noname": "yes"}}, {"type": "way", "id": 1298956696, "nodes": [12032809788, 12032809906, 12032809825, 12032809790, 12032809788], "tags": {"leisure": "park"}}, {"type": "way", "id": 1319191467, "nodes": [12208495350, 12208495353, 12208495352, 12208495347, 11966383950, 12208495345, 12208495346, 11966383920, 12208495349, 12208493822, 12208493821, 12208495350], "tags": {"bar": "no", "barrier": "wall", "material": "brick", "name": "Taurus Officers' Hostel", "smoking": "no", "swimming_pool": "no", "tourism": "hostel", "wall": "brick", "wheelchair": "no"}}, {"type": "way", "id": 1326191682, "nodes": [12270431850, 12270431849, 12270431848, 12270431847, 12270431846, 12270431845, 12270431844, 12270431843, 12270431850], "tags": {"leisure": "park", "noname": "yes"}}, {"type": "way", "id": 1390986704, "nodes": [2656210814, 2656210804, 12877080210, 12875625538, 12875625518, 9865278129, 2656210814], "tags": {"guest_house": "bed_and_breakfast", "name": "Chitrakoot Guest House", "operator": "Delhi Cantonment Board", "rooms": "18", "tourism": "guest_house"}}, {"type": "way", "id": 1391838389, "nodes": [12883608947, 12883608943, 12883608966, 12883608938, 12883608962, 12883608963, 12883608949, 12883608946, 12883608968, 12883608947], "tags": {"leisure": "park", "name": "Indian Air Force Legacy Park"}}, {"type": "way", "id": 1391978825, "nodes": [12885457023, 12885456919, 12885456995, 12885457056, 12885457023], "tags": {"access": "private", "leisure": "park"}}, {"type": "way", "id": 1394901131, "nodes": [12911983367, 12911983372, 12911983368, 12911983365, 12911983367], "tags": {"leisure": "park"}}, {"type": "way", "id": 1394901132, "nodes": [12911983370, 12911983369, 12911983371, 12911983366, 12911983370], "tags": {"leisure": "park"}}, {"type": "way", "id": 1421584049, "nodes": [4004947187, 13063894824, 13063894823, 13063894833, 13063894832, 13063894831, 13063894830, 13063894829, 13063894828, 13063894827, 1986190671, 3832492004, 1986190697, 1986190711, 3832492014, 1986190742, 4004947187], "tags": {"fee": "yes", "name": "Air Force Museum", "name:hi": "\u0935\u093e\u092f\u0941\u0938\u0947\u0928\u093e \u0938\u0902\u0917\u094d\u0930\u0939\u093e\u0932\u092f", "outdoor": "yes", "tourism": "museum", "wheelchair": "yes"}}, {"type": "way", "id": 1430856178, "nodes": [13152728331, 13152728332, 13152728333, 13152728334, 13152728335, 13152728336, 13152728337, 13152728338, 13152728362, 13152728363, 13152728339, 13152728340, 13152728341, 13152728342, 13152728343, 13152728344, 13152728345, 13152728346, 13152728347, 13152728348, 13152728349, 13152728364, 13152728350, 13152728351, 13152728352, 13152728353, 13152728354, 13152728355, 13152728356, 13152728357, 13152728358, 13152728359, 13152728360, 13152728361, 13152728331], "tags": {"leisure": "park"}}, {"type": "way", "id": 1430856181, "nodes": [13152748507, 13152748508, 13152748509, 13152748510, 13152748511, 13152748512, 13152748513, 13152748514, 13152748515, 13152748516, 13152748529, 13152748517, 13152748518, 13152748519, 13152748520, 13152748521, 13152748522, 13152748523, 13152748524, 13152748525, 13152748526, 13152748527, 13152748528, 13152748573, 13152748572, 13152748507], "tags": {"leisure": "park"}}, {"type": "way", "id": 1430856186, "nodes": [13152748596, 13152748750, 13152748815, 13152748597, 13152748598, 13152748599, 13152748600, 13152748601, 13152748602, 13152748603, 13152748604, 13152748605, 13152748606, 13152748607, 13152748608, 13152748682, 13152748609, 13152748610, 13152748611, 13152748612, 13152748613, 13152748614, 13152748615, 13152748616, 13152748617, 13152748618, 13152748619, 13152748620, 13152748621, 13152748622, 13152748623, 13152748624, 13152748625, 13152748626, 13152748627, 13152748628, 13152748629, 13152748630, 13152748631, 13152748632, 13152748633, 13152748634, 13152748635, 13152748636, 13152748637, 13152748638, 13152748639, 13152748640, 13152748641, 13152748642, 13152748643, 13152748644, 13152748645, 13152748646, 13152748647, 13152748648, 13152748649, 13152748650, 13152748651, 13152748652, 13152748653, 13152748654, 13152748655, 13152748656, 13152748596], "tags": {"leisure": "park"}}, {"type": "node", "id": 10983035647, "lat": 28.5559798, "lon": 77.0897007}, {"type": "node", "id": 10989524720, "lat": 28.5567892, "lon": 77.088748}, {"type": "node", "id": 10989524721, "lat": 28.5563309, "lon": 77.0886039}, {"type": "node", "id": 10989524722, "lat": 28.5561566, "lon": 77.0893546}, {"type": "node", "id": 10989524733, "lat": 28.5565992, "lon": 77.0897254}, {"type": "node", "id": 10989524734, "lat": 28.5566046, "lon": 77.0895505}, {"type": "node", "id": 10989524735, "lat": 28.5566369, "lon": 77.0893878}, {"type": "node", "id": 10983013301, "lat": 28.5543843, "lon": 77.0946925}, {"type": "node", "id": 10983013302, "lat": 28.5540276, "lon": 77.0960472}, {"type": "node", "id": 10983013303, "lat": 28.553963, "lon": 77.0962135}, {"type": "node", "id": 10983013304, "lat": 28.5538605, "lon": 77.0963836}, {"type": "node", "id": 10983035627, "lat": 28.5558498, "lon": 77.0905614}, {"type": "node", "id": 10983035628, "lat": 28.5558531, "lon": 77.0904734}, {"type": "node", "id": 10983035629, "lat": 28.5558072, "lon": 77.0903675}, {"type": "node", "id": 10983035630, "lat": 28.5557694, "lon": 77.0903336}, {"type": "node", "id": 10983035631, "lat": 28.5557231, "lon": 77.0903177}, {"type": "node", "id": 10983035632, "lat": 28.5556615, "lon": 77.0903177}, {"type": "node", "id": 10983035633, "lat": 28.5555842, "lon": 77.0903586}, {"type": "node", "id": 10983035634, "lat": 28.5555449, "lon": 77.090416}, {"type": "node", "id": 10983035635, "lat": 28.5555214, "lon": 77.09049}, {"type": "node", "id": 10983035636, "lat": 28.5552558, "lon": 77.0916166}, {"type": "node", "id": 10983035637, "lat": 28.5552513, "lon": 77.0916982}, {"type": "node", "id": 10983035638, "lat": 28.5552726, "lon": 77.0917774}, {"type": "node", "id": 10983035639, "lat": 28.5553118, "lon": 77.0918348}, {"type": "node", "id": 10983035640, "lat": 28.5553768, "lon": 77.0918692}, {"type": "node", "id": 10983035641, "lat": 28.5554295, "lon": 77.0918743}, {"type": "node", "id": 10983035642, "lat": 28.5554811, "lon": 77.0918603}, {"type": "node", "id": 10983035643, "lat": 28.5555248, "lon": 77.0918297}, {"type": "node", "id": 10983035644, "lat": 28.5555696, "lon": 77.0917633}, {"type": "node", "id": 10983035645, "lat": 28.5558375, "lon": 77.0904189}, {"type": "node", "id": 10983035646, "lat": 28.5559249, "lon": 77.0903757}, {"type": "node", "id": 10983035648, "lat": 28.5556649, "lon": 77.0901932}, {"type": "node", "id": 10983035649, "lat": 28.5556806, "lon": 77.0902188}, {"type": "node", "id": 10983035650, "lat": 28.5557456, "lon": 77.09022}, {"type": "node", "id": 10983035651, "lat": 28.5558072, "lon": 77.0902404}, {"type": "node", "id": 10983035652, "lat": 28.5558554, "lon": 77.0902749}, {"type": "node", "id": 10983035653, "lat": 28.5558958, "lon": 77.0903259}, {"type": "node", "id": 10983035654, "lat": 28.555512, "lon": 77.0919734}, {"type": "node", "id": 10983035655, "lat": 28.5554364, "lon": 77.0919871}, {"type": "node", "id": 10983035656, "lat": 28.5553733, "lon": 77.0919827}, {"type": "node", "id": 10983035657, "lat": 28.5553112, "lon": 77.0919577}, {"type": "node", "id": 10983035658, "lat": 28.5552521, "lon": 77.0919067}, {"type": "node", "id": 10983035659, "lat": 28.5552134, "lon": 77.0918445}, {"type": "node", "id": 10983035660, "lat": 28.5544964, "lon": 77.0950626}, {"type": "node", "id": 10983035661, "lat": 28.5544884, "lon": 77.0952932}, {"type": "node", "id": 10983035662, "lat": 28.5544498, "lon": 77.0954617}, {"type": "node", "id": 10983035663, "lat": 28.5543845, "lon": 77.0956043}, {"type": "node", "id": 10983035745, "lat": 28.5543434, "lon": 77.0946781}, {"type": "node", "id": 10983513909, "lat": 28.5519189, "lon": 77.0930761}, {"type": "node", "id": 10983513910, "lat": 28.5519529, "lon": 77.0930761}, {"type": "node", "id": 10983513911, "lat": 28.5519815, "lon": 77.0930874}, {"type": "node", "id": 10983513912, "lat": 28.5520029, "lon": 77.0931102}, {"type": "node", "id": 10983513913, "lat": 28.5520148, "lon": 77.0931383}, {"type": "node", "id": 10983513914, "lat": 28.5520175, "lon": 77.0931739}, {"type": "node", "id": 10983513915, "lat": 28.5520102, "lon": 77.0932103}, {"type": "node", "id": 10983513916, "lat": 28.5519949, "lon": 77.0932354}, {"type": "node", "id": 10983513917, "lat": 28.5519769, "lon": 77.0932574}, {"type": "node", "id": 10983513918, "lat": 28.5519615, "lon": 77.093268}, {"type": "node", "id": 10983513919, "lat": 28.5519316, "lon": 77.0932748}, {"type": "node", "id": 10983513920, "lat": 28.5518776, "lon": 77.0932695}, {"type": "node", "id": 10983513921, "lat": 28.5518276, "lon": 77.0932726}, {"type": "node", "id": 10983513922, "lat": 28.5517823, "lon": 77.0932847}, {"type": "node", "id": 10983513923, "lat": 28.551733, "lon": 77.093315}, {"type": "node", "id": 10983513924, "lat": 28.551697, "lon": 77.0933492}, {"type": "node", "id": 10983513925, "lat": 28.5516577, "lon": 77.0934015}, {"type": "node", "id": 10983513926, "lat": 28.551631, "lon": 77.0934637}, {"type": "node", "id": 10983513927, "lat": 28.5516077, "lon": 77.0934561}, {"type": "node", "id": 10983513928, "lat": 28.5516377, "lon": 77.0933613}, {"type": "node", "id": 10983513929, "lat": 28.551671, "lon": 77.0932877}, {"type": "node", "id": 10983513930, "lat": 28.5517123, "lon": 77.093227}, {"type": "node", "id": 10983513931, "lat": 28.551757, "lon": 77.0931724}, {"type": "node", "id": 10983513932, "lat": 28.5518009, "lon": 77.0931337}, {"type": "node", "id": 10983513933, "lat": 28.5518376, "lon": 77.0931102}, {"type": "node", "id": 10983513934, "lat": 28.5518782, "lon": 77.0930882}, {"type": "node", "id": 10983513936, "lat": 28.5521281, "lon": 77.0930867}, {"type": "node", "id": 10983513937, "lat": 28.5521201, "lon": 77.0930965}, {"type": "node", "id": 10983513938, "lat": 28.5521348, "lon": 77.0931368}, {"type": "node", "id": 10983513939, "lat": 28.5521355, "lon": 77.0931861}, {"type": "node", "id": 10983513940, "lat": 28.5521301, "lon": 77.0932293}, {"type": "node", "id": 10983513941, "lat": 28.5521188, "lon": 77.0932612}, {"type": "node", "id": 10983513942, "lat": 28.5521041, "lon": 77.0932877}, {"type": "node", "id": 10983513943, "lat": 28.5520835, "lon": 77.0933052}, {"type": "node", "id": 10983513944, "lat": 28.5520848, "lon": 77.0933181}, {"type": "node", "id": 10983513945, "lat": 28.5524727, "lon": 77.0934334}, {"type": "node", "id": 10983513946, "lat": 28.552482, "lon": 77.0934258}, {"type": "node", "id": 10983513947, "lat": 28.5524766, "lon": 77.0933955}, {"type": "node", "id": 10983513948, "lat": 28.552474, "lon": 77.0933583}, {"type": "node", "id": 10983513949, "lat": 28.5524753, "lon": 77.0933196}, {"type": "node", "id": 10983513950, "lat": 28.5524846, "lon": 77.0932854}, {"type": "node", "id": 10983513951, "lat": 28.552504, "lon": 77.093249}, {"type": "node", "id": 10983513952, "lat": 28.5525306, "lon": 77.093221}, {"type": "node", "id": 10983513953, "lat": 28.5525313, "lon": 77.0932043}, {"type": "node", "id": 10983513954, "lat": 28.5526665, "lon": 77.0932359}, {"type": "node", "id": 10983513955, "lat": 28.5532457, "lon": 77.0934109}, {"type": "node", "id": 10983513956, "lat": 28.5532735, "lon": 77.0934353}, {"type": "node", "id": 10983513957, "lat": 28.5532925, "lon": 77.0934768}, {"type": "node", "id": 10983513958, "lat": 28.5532996, "lon": 77.0935228}, {"type": "node", "id": 10983513959, "lat": 28.5532933, "lon": 77.093567}, {"type": "node", "id": 10983513960, "lat": 28.5532766, "lon": 77.0936031}, {"type": "node", "id": 10983513961, "lat": 28.5532529, "lon": 77.0936247}, {"type": "node", "id": 10983513962, "lat": 28.5532212, "lon": 77.0936419}, {"type": "node", "id": 10983513963, "lat": 28.5531768, "lon": 77.0936455}, {"type": "node", "id": 10983513964, "lat": 28.5526007, "lon": 77.093475}, {"type": "node", "id": 10983513965, "lat": 28.5525706, "lon": 77.0934506}, {"type": "node", "id": 10983513966, "lat": 28.5525452, "lon": 77.0934172}, {"type": "node", "id": 10983513967, "lat": 28.5525357, "lon": 77.0933784}, {"type": "node", "id": 10983513968, "lat": 28.5525373, "lon": 77.0933342}, {"type": "node", "id": 10983513969, "lat": 28.5525508, "lon": 77.0932963}, {"type": "node", "id": 10983513970, "lat": 28.5525777, "lon": 77.0932594}, {"type": "node", "id": 10983513971, "lat": 28.5526157, "lon": 77.0932386}, {"type": "node", "id": 10983513972, "lat": 28.5533538, "lon": 77.093467}, {"type": "node", "id": 10983513973, "lat": 28.5533728, "lon": 77.0934534}, {"type": "node", "id": 10983513974, "lat": 28.5536391, "lon": 77.0935355}, {"type": "node", "id": 10983513975, "lat": 28.5536961, "lon": 77.0935626}, {"type": "node", "id": 10983513976, "lat": 28.5537278, "lon": 77.0935978}, {"type": "node", "id": 10983513977, "lat": 28.5538197, "lon": 77.0937503}, {"type": "node", "id": 10983513978, "lat": 28.5538237, "lon": 77.0937746}, {"type": "node", "id": 10983513979, "lat": 28.5538158, "lon": 77.0937945}, {"type": "node", "id": 10983513980, "lat": 28.5538039, "lon": 77.0938089}, {"type": "node", "id": 10983513981, "lat": 28.5537833, "lon": 77.0938125}, {"type": "node", "id": 10983513982, "lat": 28.5537595, "lon": 77.093808}, {"type": "node", "id": 10983513983, "lat": 28.5533237, "lon": 77.0936862}, {"type": "node", "id": 10983513984, "lat": 28.5533118, "lon": 77.0936664}, {"type": "node", "id": 10983513985, "lat": 28.5533308, "lon": 77.0936393}, {"type": "node", "id": 10983513986, "lat": 28.5533498, "lon": 77.0936032}, {"type": "node", "id": 10983513987, "lat": 28.5533585, "lon": 77.0935707}, {"type": "node", "id": 10983513988, "lat": 28.5533601, "lon": 77.0935301}, {"type": "node", "id": 10983513989, "lat": 28.5533577, "lon": 77.0934958}, {"type": "node", "id": 10983530475, "lat": 28.5511689, "lon": 77.0965311}, {"type": "node", "id": 10983530476, "lat": 28.551098, "lon": 77.0964945}, {"type": "node", "id": 10983530477, "lat": 28.5510204, "lon": 77.0964875}, {"type": "node", "id": 10983530478, "lat": 28.5509453, "lon": 77.0965108}, {"type": "node", "id": 10983535044, "lat": 28.5534946, "lon": 77.0931464}, {"type": "node", "id": 10983535045, "lat": 28.5534952, "lon": 77.0931611}, {"type": "node", "id": 10983535046, "lat": 28.553489, "lon": 77.0931681}, {"type": "node", "id": 10983535047, "lat": 28.5534745, "lon": 77.0931668}, {"type": "node", "id": 10983535048, "lat": 28.5532576, "lon": 77.0928957}, {"type": "node", "id": 10983535049, "lat": 28.5532262, "lon": 77.0928664}, {"type": "node", "id": 10983535050, "lat": 28.5531965, "lon": 77.0928504}, {"type": "node", "id": 10983535051, "lat": 28.5531724, "lon": 77.0928441}, {"type": "node", "id": 10983535052, "lat": 28.5531411, "lon": 77.0928434}, {"type": "node", "id": 10983535053, "lat": 28.5530396, "lon": 77.0928447}, {"type": "node", "id": 10983535054, "lat": 28.5529999, "lon": 77.0928338}, {"type": "node", "id": 10983535055, "lat": 28.5529696, "lon": 77.0928134}, {"type": "node", "id": 10983535056, "lat": 28.5529438, "lon": 77.0927815}, {"type": "node", "id": 10983535057, "lat": 28.5529281, "lon": 77.0927464}, {"type": "node", "id": 10983535058, "lat": 28.5529197, "lon": 77.0927107}, {"type": "node", "id": 10983535059, "lat": 28.5529203, "lon": 77.092668}, {"type": "node", "id": 10983535060, "lat": 28.5529298, "lon": 77.0926329}, {"type": "node", "id": 10983535061, "lat": 28.5529511, "lon": 77.0925978}, {"type": "node", "id": 10983535062, "lat": 28.5529758, "lon": 77.0925755}, {"type": "node", "id": 10983535063, "lat": 28.5530021, "lon": 77.0925589}, {"type": "node", "id": 10983535064, "lat": 28.5530324, "lon": 77.092548}, {"type": "node", "id": 10983535065, "lat": 28.553066, "lon": 77.0925442}, {"type": "node", "id": 10983535066, "lat": 28.5531018, "lon": 77.0925512}, {"type": "node", "id": 10983535067, "lat": 28.5531327, "lon": 77.0925672}, {"type": "node", "id": 10983535068, "lat": 28.5531568, "lon": 77.0925889}, {"type": "node", "id": 10989524723, "lat": 28.556002, "lon": 77.0908483}, {"type": "node", "id": 10989524724, "lat": 28.555302, "lon": 77.093821}, {"type": "node", "id": 10989524725, "lat": 28.5558682, "lon": 77.091825}, {"type": "node", "id": 10989524726, "lat": 28.5558984, "lon": 77.0917325}, {"type": "node", "id": 10989524727, "lat": 28.5559604, "lon": 77.0916404}, {"type": "node", "id": 10989524728, "lat": 28.5561976, "lon": 77.0914286}, {"type": "node", "id": 10989524729, "lat": 28.5562677, "lon": 77.0914041}, {"type": "node", "id": 10989524730, "lat": 28.5567825, "lon": 77.0915575}, {"type": "node", "id": 10989524731, "lat": 28.5567582, "lon": 77.0910911}, {"type": "node", "id": 10989524732, "lat": 28.5566801, "lon": 77.0907565}, {"type": "node", "id": 10989581708, "lat": 28.5553989, "lon": 77.0938469}, {"type": "node", "id": 13152748507, "lat": 28.5506651, "lon": 77.111586}, {"type": "node", "id": 13152748572, "lat": 28.5507229, "lon": 77.1116033}, {"type": "node", "id": 13152748598, "lat": 28.5497107, "lon": 77.1159877}, {"type": "node", "id": 13152748599, "lat": 28.5498374, "lon": 77.1154479}, {"type": "node", "id": 13152748600, "lat": 28.5499231, "lon": 77.1150495}, {"type": "node", "id": 13152748601, "lat": 28.5499856, "lon": 77.1147792}, {"type": "node", "id": 13152748602, "lat": 28.550039, "lon": 77.1145504}, {"type": "node", "id": 13152748603, "lat": 28.5500637, "lon": 77.1144109}, {"type": "node", "id": 13152748604, "lat": 28.5500885, "lon": 77.1142352}, {"type": "node", "id": 13152748605, "lat": 28.5501132, "lon": 77.1140542}, {"type": "node", "id": 13152748606, "lat": 28.5501391, "lon": 77.1139026}, {"type": "node", "id": 13152748607, "lat": 28.5501618, "lon": 77.113786}, {"type": "node", "id": 13152748608, "lat": 28.5502049, "lon": 77.1135791}, {"type": "node", "id": 13152748609, "lat": 28.5504972, "lon": 77.1136664}, {"type": "node", "id": 13152748610, "lat": 28.5504806, "lon": 77.1137479}, {"type": "node", "id": 13152748611, "lat": 28.5504591, "lon": 77.113825}, {"type": "node", "id": 13152748612, "lat": 28.5504324, "lon": 77.1138986}, {"type": "node", "id": 13152748613, "lat": 28.5503596, "lon": 77.114076}, {"type": "node", "id": 13152748614, "lat": 28.5502796, "lon": 77.1142628}, {"type": "node", "id": 13152748615, "lat": 28.5502375, "lon": 77.1143679}, {"type": "node", "id": 13152748616, "lat": 28.5501883, "lon": 77.1145045}, {"type": "node", "id": 13152748617, "lat": 28.5501606, "lon": 77.114592}, {"type": "node", "id": 13152748618, "lat": 28.5501327, "lon": 77.1146803}, {"type": "node", "id": 13152748619, "lat": 28.550104, "lon": 77.1147912}, {"type": "node", "id": 13152748620, "lat": 28.5500691, "lon": 77.1149418}, {"type": "node", "id": 13152748621, "lat": 28.5499627, "lon": 77.1154476}, {"type": "node", "id": 13152748622, "lat": 28.5499119, "lon": 77.1156653}, {"type": "node", "id": 13152748623, "lat": 28.5498647, "lon": 77.1158503}, {"type": "node", "id": 13152748624, "lat": 28.5497999, "lon": 77.1161038}, {"type": "node", "id": 13152748682, "lat": 28.5503337, "lon": 77.1136176}, {"type": "node", "id": 4955499910, "lat": 28.5500027, "lon": 77.1223851}, {"type": "node", "id": 4955499911, "lat": 28.5501892, "lon": 77.1224441}, {"type": "node", "id": 4955499912, "lat": 28.5501625, "lon": 77.1225536}, {"type": "node", "id": 4955499913, "lat": 28.5503805, "lon": 77.1226224}, {"type": "node", "id": 4955499914, "lat": 28.5504023, "lon": 77.122533}, {"type": "node", "id": 4955499915, "lat": 28.5506004, "lon": 77.1225956}, {"type": "node", "id": 13152748596, "lat": 28.549263, "lon": 77.1172537}, {"type": "node", "id": 13152748597, "lat": 28.5494319, "lon": 77.1173065}, {"type": "node", "id": 13152748625, "lat": 28.5497516, "lon": 77.1162849}, {"type": "node", "id": 13152748626, "lat": 28.5496904, "lon": 77.1165048}, {"type": "node", "id": 13152748627, "lat": 28.5496237, "lon": 77.1167523}, {"type": "node", "id": 13152748628, "lat": 28.5495329, "lon": 77.1171271}, {"type": "node", "id": 13152748629, "lat": 28.5494437, "lon": 77.1174735}, {"type": "node", "id": 13152748630, "lat": 28.5494184, "lon": 77.1175704}, {"type": "node", "id": 13152748631, "lat": 28.5493887, "lon": 77.1176913}, {"type": "node", "id": 13152748632, "lat": 28.5493548, "lon": 77.11784}, {"type": "node", "id": 13152748633, "lat": 28.5493007, "lon": 77.1180932}, {"type": "node", "id": 13152748634, "lat": 28.5492576, "lon": 77.118294}, {"type": "node", "id": 13152748635, "lat": 28.5492146, "lon": 77.1184668}, {"type": "node", "id": 13152748636, "lat": 28.5491756, "lon": 77.1185766}, {"type": "node", "id": 13152748637, "lat": 28.5491018, "lon": 77.1187132}, {"type": "node", "id": 13152748638, "lat": 28.5489033, "lon": 77.1190566}, {"type": "node", "id": 13152748639, "lat": 28.5488862, "lon": 77.1190807}, {"type": "node", "id": 13152748640, "lat": 28.5488697, "lon": 77.1190941}, {"type": "node", "id": 13152748641, "lat": 28.548845, "lon": 77.1191001}, {"type": "node", "id": 13152748642, "lat": 28.5488232, "lon": 77.1190968}, {"type": "node", "id": 13152748643, "lat": 28.5488055, "lon": 77.1190894}, {"type": "node", "id": 13152748644, "lat": 28.5487872, "lon": 77.119074}, {"type": "node", "id": 13152748645, "lat": 28.5487778, "lon": 77.1190519}, {"type": "node", "id": 13152748646, "lat": 28.5487754, "lon": 77.119013}, {"type": "node", "id": 13152748647, "lat": 28.5487778, "lon": 77.1189372}, {"type": "node", "id": 13152748648, "lat": 28.548786, "lon": 77.1188983}, {"type": "node", "id": 13152748649, "lat": 28.548802, "lon": 77.1188406}, {"type": "node", "id": 13152748650, "lat": 28.5488461, "lon": 77.1187159}, {"type": "node", "id": 13152748651, "lat": 28.5488881, "lon": 77.1185921}, {"type": "node", "id": 13152748652, "lat": 28.5489609, "lon": 77.1183668}, {"type": "node", "id": 13152748653, "lat": 28.5490163, "lon": 77.1181858}, {"type": "node", "id": 13152748654, "lat": 28.549074, "lon": 77.1179956}, {"type": "node", "id": 13152748655, "lat": 28.5491258, "lon": 77.1178132}, {"type": "node", "id": 13152748656, "lat": 28.5491611, "lon": 77.1176751}, {"type": "node", "id": 13152748750, "lat": 28.5492913, "lon": 77.1172626}, {"type": "node", "id": 13152748815, "lat": 28.5493654, "lon": 77.1172857}, {"type": "node", "id": 10983013266, "lat": 28.5534692, "lon": 77.0973848}, {"type": "node", "id": 10983013267, "lat": 28.5534624, "lon": 77.0973366}, {"type": "node", "id": 10983013268, "lat": 28.5531964, "lon": 77.0973869}, {"type": "node", "id": 10983013269, "lat": 28.5532052, "lon": 77.0974397}, {"type": "node", "id": 10983013270, "lat": 28.5534429, "lon": 77.0972932}, {"type": "node", "id": 10983013271, "lat": 28.5534125, "lon": 77.0972588}, {"type": "node", "id": 10983013272, "lat": 28.5533742, "lon": 77.0972369}, {"type": "node", "id": 10983013273, "lat": 28.5533319, "lon": 77.0972295}, {"type": "node", "id": 10983013274, "lat": 28.5532896, "lon": 77.0972375}, {"type": "node", "id": 10983013275, "lat": 28.5532516, "lon": 77.0972601}, {"type": "node", "id": 10983013276, "lat": 28.5532216, "lon": 77.0972949}, {"type": "node", "id": 10983013277, "lat": 28.5532026, "lon": 77.0973386}, {"type": "node", "id": 10983013278, "lat": 28.5532292, "lon": 77.0974859}, {"type": "node", "id": 10983013279, "lat": 28.5532657, "lon": 77.09752}, {"type": "node", "id": 10983013280, "lat": 28.5533101, "lon": 77.0975379}, {"type": "node", "id": 10983013281, "lat": 28.5533573, "lon": 77.0975376}, {"type": "node", "id": 10983013282, "lat": 28.5534015, "lon": 77.0975189}, {"type": "node", "id": 10983013283, "lat": 28.5534375, "lon": 77.0974843}, {"type": "node", "id": 10983013284, "lat": 28.553461, "lon": 77.0974377}, {"type": "node", "id": 10983013285, "lat": 28.5537692, "lon": 77.0973589}, {"type": "node", "id": 10983013286, "lat": 28.5537024, "lon": 77.0976516}, {"type": "node", "id": 10983013287, "lat": 28.5536702, "lon": 77.0976024}, {"type": "node", "id": 10983013288, "lat": 28.5536285, "lon": 77.097563}, {"type": "node", "id": 10983013289, "lat": 28.5535868, "lon": 77.0975379}, {"type": "node", "id": 10983013290, "lat": 28.553542, "lon": 77.0975218}, {"type": "node", "id": 10983013291, "lat": 28.55352, "lon": 77.0975093}, {"type": "node", "id": 10983013292, "lat": 28.5535121, "lon": 77.0974878}, {"type": "node", "id": 10983013293, "lat": 28.5535145, "lon": 77.0974538}, {"type": "node", "id": 10983013294, "lat": 28.5535231, "lon": 77.0974189}, {"type": "node", "id": 10983013295, "lat": 28.5535357, "lon": 77.0973983}, {"type": "node", "id": 10983013296, "lat": 28.5535562, "lon": 77.0973867}, {"type": "node", "id": 10983013297, "lat": 28.5535821, "lon": 77.0973822}, {"type": "node", "id": 10983013298, "lat": 28.5536639, "lon": 77.0973947}, {"type": "node", "id": 10983013299, "lat": 28.5537087, "lon": 77.0973875}, {"type": "node", "id": 10983013300, "lat": 28.5537385, "lon": 77.0973741}, {"type": "node", "id": 10983035664, "lat": 28.5535849, "lon": 77.0990303}, {"type": "node", "id": 10983035665, "lat": 28.5535955, "lon": 77.0991259}, {"type": "node", "id": 10983035666, "lat": 28.5536262, "lon": 77.0991927}, {"type": "node", "id": 10983035667, "lat": 28.5536662, "lon": 77.0992352}, {"type": "node", "id": 10983035668, "lat": 28.5537221, "lon": 77.0992503}, {"type": "node", "id": 10983035669, "lat": 28.5537728, "lon": 77.0992458}, {"type": "node", "id": 10983035670, "lat": 28.5538181, "lon": 77.099223}, {"type": "node", "id": 10983035671, "lat": 28.5538621, "lon": 77.0991684}, {"type": "node", "id": 10983035672, "lat": 28.5538133, "lon": 77.0993446}, {"type": "node", "id": 10983035673, "lat": 28.5537493, "lon": 77.0993568}, {"type": "node", "id": 10983035674, "lat": 28.553668, "lon": 77.0993492}, {"type": "node", "id": 10983035675, "lat": 28.5535921, "lon": 77.0993113}, {"type": "node", "id": 10983035676, "lat": 28.5535454, "lon": 77.0992657}, {"type": "node", "id": 10983035677, "lat": 28.5535161, "lon": 77.0992111}, {"type": "node", "id": 10983035678, "lat": 28.5535001, "lon": 77.0991565}, {"type": "node", "id": 10983035679, "lat": 28.5531136, "lon": 77.1008134}, {"type": "node", "id": 10983035680, "lat": 28.5531802, "lon": 77.1007739}, {"type": "node", "id": 10983035681, "lat": 28.5532469, "lon": 77.1007588}, {"type": "node", "id": 10983035682, "lat": 28.5533189, "lon": 77.1007663}, {"type": "node", "id": 10983035683, "lat": 28.5533748, "lon": 77.1007861}, {"type": "node", "id": 10983035684, "lat": 28.5534321, "lon": 77.1008285}, {"type": "node", "id": 10983035685, "lat": 28.5534881, "lon": 77.1009226}, {"type": "node", "id": 10983035686, "lat": 28.5536854, "lon": 77.1000745}, {"type": "node", "id": 10983035687, "lat": 28.5537467, "lon": 77.0996982}, {"type": "node", "id": 10983035688, "lat": 28.5534411, "lon": 77.1011881}, {"type": "node", "id": 10983035689, "lat": 28.5534363, "lon": 77.101087}, {"type": "node", "id": 10983035690, "lat": 28.5533967, "lon": 77.1009878}, {"type": "node", "id": 10983035691, "lat": 28.553327, "lon": 77.1009228}, {"type": "node", "id": 10983035692, "lat": 28.5532826, "lon": 77.1009102}, {"type": "node", "id": 10983035693, "lat": 28.5532239, "lon": 77.1009048}, {"type": "node", "id": 10983035694, "lat": 28.5531653, "lon": 77.1009192}, {"type": "node", "id": 10983035695, "lat": 28.553113, "lon": 77.1009716}, {"type": "node", "id": 10983035696, "lat": 28.5530829, "lon": 77.1010582}, {"type": "node", "id": 10983035697, "lat": 28.5529593, "lon": 77.1015995}, {"type": "node", "id": 10983035698, "lat": 28.5528214, "lon": 77.1020181}, {"type": "node", "id": 10983035705, "lat": 28.5535802, "lon": 77.096717}, {"type": "node", "id": 10983035706, "lat": 28.5535128, "lon": 77.0968171}, {"type": "node", "id": 10983035707, "lat": 28.5534738, "lon": 77.0968961}, {"type": "node", "id": 10983035708, "lat": 28.5534526, "lon": 77.0969819}, {"type": "node", "id": 10983035709, "lat": 28.5534434, "lon": 77.0970745}, {"type": "node", "id": 10983035710, "lat": 28.553454, "lon": 77.0971527}, {"type": "node", "id": 10983035711, "lat": 28.5534877, "lon": 77.0972197}, {"type": "node", "id": 10983035712, "lat": 28.5535287, "lon": 77.0972664}, {"type": "node", "id": 10983035713, "lat": 28.553569, "lon": 77.0973018}, {"type": "node", "id": 10983035714, "lat": 28.5536212, "lon": 77.0973161}, {"type": "node", "id": 10983035715, "lat": 28.55368, "lon": 77.0973168}, {"type": "node", "id": 10983035716, "lat": 28.5537263, "lon": 77.0972957}, {"type": "node", "id": 10983035717, "lat": 28.5537706, "lon": 77.0972611}, {"type": "node", "id": 10983035718, "lat": 28.5537898, "lon": 77.0972355}, {"type": "node", "id": 10983035719, "lat": 28.5538156, "lon": 77.0971791}, {"type": "node", "id": 10983035720, "lat": 28.5536297, "lon": 77.0979442}, {"type": "node", "id": 10983035721, "lat": 28.5536635, "lon": 77.0978118}, {"type": "node", "id": 10983035722, "lat": 28.5536501, "lon": 77.097699}, {"type": "node", "id": 10983035723, "lat": 28.5536171, "lon": 77.0976462}, {"type": "node", "id": 10983035724, "lat": 28.5535636, "lon": 77.0976095}, {"type": "node", "id": 10983035725, "lat": 28.553511, "lon": 77.0975889}, {"type": "node", "id": 10983035726, "lat": 28.5534347, "lon": 77.0975934}, {"type": "node", "id": 10983035727, "lat": 28.5533734, "lon": 77.0976229}, {"type": "node", "id": 10983035728, "lat": 28.5533317, "lon": 77.0976551}, {"type": "node", "id": 10983035729, "lat": 28.5532971, "lon": 77.0977088}, {"type": "node", "id": 10983035730, "lat": 28.5532743, "lon": 77.0977724}, {"type": "node", "id": 10983035731, "lat": 28.5532594, "lon": 77.0978431}, {"type": "node", "id": 10983035732, "lat": 28.5532547, "lon": 77.0979478}, {"type": "node", "id": 10983035733, "lat": 28.5532617, "lon": 77.0980489}, {"type": "node", "id": 10983035734, "lat": 28.5532814, "lon": 77.0981886}, {"type": "node", "id": 10983035735, "lat": 28.5533537, "lon": 77.0987479}, {"type": "node", "id": 10983035736, "lat": 28.55336, "lon": 77.0988813}, {"type": "node", "id": 10983035737, "lat": 28.5533553, "lon": 77.0989726}, {"type": "node", "id": 10983035738, "lat": 28.5533356, "lon": 77.0990648}, {"type": "node", "id": 10983035739, "lat": 28.5532979, "lon": 77.0992169}, {"type": "node", "id": 10983035740, "lat": 28.5533301, "lon": 77.099225}, {"type": "node", "id": 10983035741, "lat": 28.5535204, "lon": 77.0984195}, {"type": "node", "id": 10983035742, "lat": 28.5535039, "lon": 77.0982808}, {"type": "node", "id": 10983035743, "lat": 28.5535479, "lon": 77.0980803}, {"type": "node", "id": 10983035744, "lat": 28.5536631, "lon": 77.0977536}, {"type": "node", "id": 10983035746, "lat": 28.5530864, "lon": 77.1002856}, {"type": "node", "id": 10983035747, "lat": 28.5530554, "lon": 77.1002761}, {"type": "node", "id": 10983035748, "lat": 28.5528897, "lon": 77.1011659}, {"type": "node", "id": 10983035749, "lat": 28.552853, "lon": 77.1011552}, {"type": "node", "id": 10983035750, "lat": 28.5527976, "lon": 77.1015738}, {"type": "node", "id": 10983035751, "lat": 28.5527103, "lon": 77.101849}, {"type": "node", "id": 10983035752, "lat": 28.5526133, "lon": 77.1021088}, {"type": "node", "id": 10983035753, "lat": 28.5525366, "lon": 77.102276}, {"type": "node", "id": 10983035754, "lat": 28.552759, "lon": 77.1015627}, {"type": "node", "id": 10983035755, "lat": 28.552675, "lon": 77.1018357}, {"type": "node", "id": 10983035756, "lat": 28.5525811, "lon": 77.102092}, {"type": "node", "id": 10983035757, "lat": 28.5525052, "lon": 77.1022558}, {"type": "node", "id": 10983041510, "lat": 28.5534236, "lon": 77.1012729}, {"type": "node", "id": 10983530470, "lat": 28.5512676, "lon": 77.0967604}, {"type": "node", "id": 10983530471, "lat": 28.551259, "lon": 77.0966723}, {"type": "node", "id": 10983530472, "lat": 28.5508159, "lon": 77.0967194}, {"type": "node", "id": 10983530473, "lat": 28.5508204, "lon": 77.0968009}, {"type": "node", "id": 10983530474, "lat": 28.5512248, "lon": 77.0965928}, {"type": "node", "id": 10983530479, "lat": 28.5508815, "lon": 77.0965616}, {"type": "node", "id": 10983530480, "lat": 28.5508366, "lon": 77.096634}, {"type": "node", "id": 10983530481, "lat": 28.5508469, "lon": 77.0968766}, {"type": "node", "id": 10983530482, "lat": 28.5508929, "lon": 77.0969391}, {"type": "node", "id": 10983530483, "lat": 28.5509538, "lon": 77.0969822}, {"type": "node", "id": 10983530484, "lat": 28.5510234, "lon": 77.0970014}, {"type": "node", "id": 10983530485, "lat": 28.5510949, "lon": 77.096995}, {"type": "node", "id": 10983530486, "lat": 28.5511609, "lon": 77.0969635}, {"type": "node", "id": 10983530487, "lat": 28.5512151, "lon": 77.09691}, {"type": "node", "id": 10983530488, "lat": 28.5512518, "lon": 77.09684}, {"type": "node", "id": 10983035699, "lat": 28.552105, "lon": 77.1051234}, {"type": "node", "id": 10983035700, "lat": 28.5520226, "lon": 77.1056178}, {"type": "node", "id": 10983035701, "lat": 28.551937, "lon": 77.1059913}, {"type": "node", "id": 10983035702, "lat": 28.5519513, "lon": 77.1060851}, {"type": "node", "id": 10983035703, "lat": 28.5519734, "lon": 77.1061357}, {"type": "node", "id": 10983035704, "lat": 28.5520162, "lon": 77.1061826}, {"type": "node", "id": 10983041505, "lat": 28.5520749, "lon": 77.1062078}, {"type": "node", "id": 10983041506, "lat": 28.5521605, "lon": 77.1062078}, {"type": "node", "id": 10983041507, "lat": 28.5522144, "lon": 77.1061862}, {"type": "node", "id": 10983041508, "lat": 28.5522682, "lon": 77.1061465}, {"type": "node", "id": 10983041509, "lat": 28.5523095, "lon": 77.1060743}, {"type": "node", "id": 13152728331, "lat": 28.5513601, "lon": 77.1085861}, {"type": "node", "id": 13152728332, "lat": 28.5514163, "lon": 77.1085729}, {"type": "node", "id": 13152728333, "lat": 28.5514842, "lon": 77.1085657}, {"type": "node", "id": 13152728334, "lat": 28.5515315, "lon": 77.1085668}, {"type": "node", "id": 13152728335, "lat": 28.5515699, "lon": 77.1085769}, {"type": "node", "id": 13152728336, "lat": 28.5516003, "lon": 77.1085922}, {"type": "node", "id": 13152728337, "lat": 28.5516279, "lon": 77.1086145}, {"type": "node", "id": 13152728338, "lat": 28.5516779, "lon": 77.1086704}, {"type": "node", "id": 13152728339, "lat": 28.5519519, "lon": 77.1075172}, {"type": "node", "id": 13152728340, "lat": 28.5519929, "lon": 77.1073546}, {"type": "node", "id": 13152728341, "lat": 28.5520298, "lon": 77.1072292}, {"type": "node", "id": 13152728342, "lat": 28.5520763, "lon": 77.1070733}, {"type": "node", "id": 13152728343, "lat": 28.5521874, "lon": 77.1066714}, {"type": "node", "id": 13152728344, "lat": 28.5522205, "lon": 77.106533}, {"type": "node", "id": 13152728345, "lat": 28.55227, "lon": 77.1063064}, {"type": "node", "id": 13152728346, "lat": 28.5522029, "lon": 77.1063171}, {"type": "node", "id": 13152728347, "lat": 28.5521334, "lon": 77.1063265}, {"type": "node", "id": 13152728348, "lat": 28.5520862, "lon": 77.1063278}, {"type": "node", "id": 13152728349, "lat": 28.5520603, "lon": 77.1063251}, {"type": "node", "id": 13152728350, "lat": 28.5520297, "lon": 77.1063184}, {"type": "node", "id": 13152728351, "lat": 28.5519873, "lon": 77.1062997}, {"type": "node", "id": 13152728352, "lat": 28.5519355, "lon": 77.1062688}, {"type": "node", "id": 13152728353, "lat": 28.5519036, "lon": 77.1062366}, {"type": "node", "id": 13152728354, "lat": 28.551853, "lon": 77.1061803}, {"type": "node", "id": 13152728355, "lat": 28.5518021, "lon": 77.1064263}, {"type": "node", "id": 13152728356, "lat": 28.5517617, "lon": 77.1066121}, {"type": "node", "id": 13152728357, "lat": 28.5516933, "lon": 77.1070032}, {"type": "node", "id": 13152728358, "lat": 28.5516622, "lon": 77.1071854}, {"type": "node", "id": 13152728359, "lat": 28.5516311, "lon": 77.1073659}, {"type": "node", "id": 13152728360, "lat": 28.5515452, "lon": 77.1077951}, {"type": "node", "id": 13152728361, "lat": 28.5514613, "lon": 77.1081691}, {"type": "node", "id": 13152728362, "lat": 28.5517703, "lon": 77.1082734}, {"type": "node", "id": 13152728363, "lat": 28.551865, "lon": 77.1078815}, {"type": "node", "id": 13152728364, "lat": 28.5520522, "lon": 77.1063234}, {"type": "node", "id": 13152748508, "lat": 28.5511912, "lon": 77.1092938}, {"type": "node", "id": 13152748509, "lat": 28.5512162, "lon": 77.1091981}, {"type": "node", "id": 13152748510, "lat": 28.5512501, "lon": 77.1090837}, {"type": "node", "id": 13152748511, "lat": 28.5513454, "lon": 77.1087836}, {"type": "node", "id": 13152748512, "lat": 28.551367, "lon": 77.1087393}, {"type": "node", "id": 13152748513, "lat": 28.5513916, "lon": 77.1087112}, {"type": "node", "id": 13152748514, "lat": 28.5514264, "lon": 77.1086902}, {"type": "node", "id": 13152748515, "lat": 28.5514654, "lon": 77.108675}, {"type": "node", "id": 13152748516, "lat": 28.5514915, "lon": 77.1086721}, {"type": "node", "id": 13152748517, "lat": 28.55152, "lon": 77.1086767}, {"type": "node", "id": 13152748518, "lat": 28.551543, "lon": 77.1086844}, {"type": "node", "id": 13152748519, "lat": 28.5515612, "lon": 77.1086952}, {"type": "node", "id": 13152748520, "lat": 28.5515822, "lon": 77.1087129}, {"type": "node", "id": 13152748521, "lat": 28.5515998, "lon": 77.1087376}, {"type": "node", "id": 13152748522, "lat": 28.5516133, "lon": 77.1087614}, {"type": "node", "id": 13152748523, "lat": 28.5516187, "lon": 77.1087776}, {"type": "node", "id": 13152748524, "lat": 28.5516208, "lon": 77.1087907}, {"type": "node", "id": 13152748525, "lat": 28.5516194, "lon": 77.1088084}, {"type": "node", "id": 13152748526, "lat": 28.551614, "lon": 77.10884}, {"type": "node", "id": 13152748527, "lat": 28.5516038, "lon": 77.1088844}, {"type": "node", "id": 13152748529, "lat": 28.5515085, "lon": 77.1086748}, {"type": "node", "id": 13152748528, "lat": 28.5509561, "lon": 77.1116729}, {"type": "node", "id": 13152748573, "lat": 28.5508938, "lon": 77.1116543}, {"type": "node", "id": 3195393359, "lat": 28.5527213, "lon": 77.1227371}, {"type": "node", "id": 3195399258, "lat": 28.5522216, "lon": 77.1226026}, {"type": "node", "id": 5170793181, "lat": 28.5764522, "lon": 77.0926674}, {"type": "node", "id": 5170793182, "lat": 28.5765889, "lon": 77.0917897}, {"type": "node", "id": 5170793206, "lat": 28.5762305, "lon": 77.0916208}, {"type": "node", "id": 5170793207, "lat": 28.5760963, "lon": 77.0926681}, {"type": "node", "id": 5170823782, "lat": 28.576272, "lon": 77.0926678}, {"type": "node", "id": 5170823795, "lat": 28.5742654, "lon": 77.0941168}, {"type": "node", "id": 5170823796, "lat": 28.5742385, "lon": 77.094451}, {"type": "node", "id": 5170823801, "lat": 28.5758753, "lon": 77.0943042}, {"type": "node", "id": 5170823802, "lat": 28.575852, "lon": 77.094636}, {"type": "node", "id": 5170823808, "lat": 28.5763524, "lon": 77.0944087}, {"type": "node", "id": 5170823809, "lat": 28.5763175, "lon": 77.0946439}, {"type": "node", "id": 5170823810, "lat": 28.5768801, "lon": 77.0947034}, {"type": "node", "id": 5170823811, "lat": 28.5769342, "lon": 77.0946522}, {"type": "node", "id": 5170823812, "lat": 28.5769837, "lon": 77.094577}, {"type": "node", "id": 5170836121, "lat": 28.5742522, "lon": 77.0942788}, {"type": "node", "id": 5170864614, "lat": 28.5740227, "lon": 77.0958834}, {"type": "node", "id": 5170864617, "lat": 28.5743748, "lon": 77.0959263}, {"type": "node", "id": 5170864618, "lat": 28.5752287, "lon": 77.0960376}, {"type": "node", "id": 5170864619, "lat": 28.5748919, "lon": 77.0959987}, {"type": "node", "id": 5170864822, "lat": 28.5752652, "lon": 77.0960859}, {"type": "node", "id": 5170793183, "lat": 28.5776212, "lon": 77.0919168}, {"type": "node", "id": 5170793184, "lat": 28.5773086, "lon": 77.0917668}, {"type": "node", "id": 5170793185, "lat": 28.5772376, "lon": 77.0919423}, {"type": "node", "id": 5170793186, "lat": 28.5775645, "lon": 77.092085}, {"type": "node", "id": 5170793188, "lat": 28.5775946, "lon": 77.0918951}, {"type": "node", "id": 5170793195, "lat": 28.5773557, "lon": 77.0919939}, {"type": "node", "id": 5170823807, "lat": 28.5770021, "lon": 77.0945216}, {"type": "node", "id": 7382998670, "lat": 28.5890947, "lon": 77.0894963}, {"type": "node", "id": 7382998671, "lat": 28.5888026, "lon": 77.08944}, {"type": "node", "id": 7382998672, "lat": 28.588792, "lon": 77.0895567}, {"type": "node", "id": 7382998673, "lat": 28.5888156, "lon": 77.0895835}, {"type": "node", "id": 7382998674, "lat": 28.5888038, "lon": 77.0895983}, {"type": "node", "id": 7382998675, "lat": 28.5887803, "lon": 77.0896439}, {"type": "node", "id": 7382998676, "lat": 28.5888109, "lon": 77.0896613}, {"type": "node", "id": 7382998677, "lat": 28.5887555, "lon": 77.0898249}, {"type": "node", "id": 7382998682, "lat": 28.589097, "lon": 77.0895272}, {"type": "node", "id": 7382998683, "lat": 28.589786, "lon": 77.0895992}, {"type": "node", "id": 7383006485, "lat": 28.5891671, "lon": 77.089931}, {"type": "node", "id": 7383006486, "lat": 28.5891839, "lon": 77.0895737}, {"type": "node", "id": 7382998678, "lat": 28.5887143, "lon": 77.0900247}, {"type": "node", "id": 7382998679, "lat": 28.5890028, "lon": 77.0900636}, {"type": "node", "id": 7382998680, "lat": 28.5890134, "lon": 77.0900019}, {"type": "node", "id": 7382998681, "lat": 28.5890806, "lon": 77.0900086}, {"type": "node", "id": 7382998684, "lat": 28.5897468, "lon": 77.0900298}, {"type": "node", "id": 5170864615, "lat": 28.5739261, "lon": 77.0967993}, {"type": "node", "id": 5170864616, "lat": 28.5742924, "lon": 77.0968356}, {"type": "node", "id": 5170864620, "lat": 28.57482, "lon": 77.0968959}, {"type": "node", "id": 5170864821, "lat": 28.5751934, "lon": 77.0969361}, {"type": "node", "id": 5170864836, "lat": 28.5752865, "lon": 77.0986992}, {"type": "node", "id": 5170864837, "lat": 28.5750943, "lon": 77.1004275}, {"type": "node", "id": 5170864838, "lat": 28.575781, "lon": 77.0998701}, {"type": "node", "id": 5170864839, "lat": 28.5754689, "lon": 77.0995035}, {"type": "node", "id": 5170864840, "lat": 28.5753736, "lon": 77.0993165}, {"type": "node", "id": 5170864841, "lat": 28.5756134, "lon": 77.099034}, {"type": "node", "id": 5170864842, "lat": 28.5755395, "lon": 77.0989068}, {"type": "node", "id": 5170864843, "lat": 28.5754097, "lon": 77.0987572}, {"type": "node", "id": 5170864844, "lat": 28.5753424, "lon": 77.0987142}, {"type": "node", "id": 1986190711, "lat": 28.574346, "lon": 77.1156132}, {"type": "node", "id": 1986190742, "lat": 28.5748124, "lon": 77.1159324}, {"type": "node", "id": 3832492014, "lat": 28.5747097, "lon": 77.1158578}, {"type": "node", "id": 4004947187, "lat": 28.5748859, "lon": 77.1159702}, {"type": "node", "id": 12885456919, "lat": 28.5768275, "lon": 77.1142487}, {"type": "node", "id": 12885456995, "lat": 28.5769579, "lon": 77.1139392}, {"type": "node", "id": 12885457023, "lat": 28.5767164, "lon": 77.114188}, {"type": "node", "id": 12885457056, "lat": 28.5768468, "lon": 77.1138784}, {"type": "node", "id": 1986190671, "lat": 28.5735003, "lon": 77.1172569}, {"type": "node", "id": 1986190697, "lat": 28.5740301, "lon": 77.1162282}, {"type": "node", "id": 3832492004, "lat": 28.5736571, "lon": 77.1169239}, {"type": "node", "id": 12270431843, "lat": 28.5729832, "lon": 77.1208658}, {"type": "node", "id": 12270431844, "lat": 28.5729837, "lon": 77.1209114}, {"type": "node", "id": 12270431845, "lat": 28.5730568, "lon": 77.1209141}, {"type": "node", "id": 12270431846, "lat": 28.5730577, "lon": 77.1209476}, {"type": "node", "id": 12270431847, "lat": 28.5732376, "lon": 77.1209531}, {"type": "node", "id": 12270431848, "lat": 28.5732352, "lon": 77.120904}, {"type": "node", "id": 12270431849, "lat": 28.5732576, "lon": 77.1208604}, {"type": "node", "id": 12270431850, "lat": 28.5730376, "lon": 77.1207696}, {"type": "node", "id": 12883608938, "lat": 28.5744665, "lon": 77.1189873}, {"type": "node", "id": 12883608943, "lat": 28.5743101, "lon": 77.1189203}, {"type": "node", "id": 12883608946, "lat": 28.5738736, "lon": 77.1201829}, {"type": "node", "id": 12883608947, "lat": 28.5742255, "lon": 77.1189266}, {"type": "node", "id": 12883608949, "lat": 28.573826, "lon": 77.1205198}, {"type": "node", "id": 12883608962, "lat": 28.5741593, "lon": 77.1200468}, {"type": "node", "id": 12883608963, "lat": 28.5738948, "lon": 77.1205355}, {"type": "node", "id": 12883608966, "lat": 28.5744276, "lon": 77.1189522}, {"type": "node", "id": 12883608968, "lat": 28.5739352, "lon": 77.1198749}, {"type": "node", "id": 13063894823, "lat": 28.5744453, "lon": 77.1176103}, {"type": "node", "id": 13063894824, "lat": 28.5745655, "lon": 77.1171744}, {"type": "node", "id": 13063894827, "lat": 28.5738388, "lon": 77.1174601}, {"type": "node", "id": 13063894828, "lat": 28.5738317, "lon": 77.1176988}, {"type": "node", "id": 13063894829, "lat": 28.5738859, "lon": 77.1177404}, {"type": "node", "id": 13063894830, "lat": 28.5738164, "lon": 77.1179174}, {"type": "node", "id": 13063894831, "lat": 28.5740355, "lon": 77.1180381}, {"type": "node", "id": 13063894832, "lat": 28.5739613, "lon": 77.1182822}, {"type": "node", "id": 13063894833, "lat": 28.5741686, "lon": 77.1183613}, {"type": "node", "id": 12032793664, "lat": 28.5798366, "lon": 77.1159364}, {"type": "node", "id": 12032809786, "lat": 28.5795426, "lon": 77.1156446}, {"type": "node", "id": 12032809825, "lat": 28.5812282, "lon": 77.1161829}, {"type": "node", "id": 12032809869, "lat": 28.5794958, "lon": 77.1157662}, {"type": "node", "id": 12032809905, "lat": 28.5795857, "lon": 77.1155327}, {"type": "node", "id": 12032809906, "lat": 28.5810814, "lon": 77.1161195}, {"type": "node", "id": 12032809967, "lat": 28.5799265, "lon": 77.1157028}, {"type": "node", "id": 12032809788, "lat": 28.5808382, "lon": 77.116721}, {"type": "node", "id": 12032809790, "lat": 28.5809861, "lon": 77.1167998}, {"type": "node", "id": 11966383920, "lat": 28.5886851, "lon": 77.1191471}, {"type": "node", "id": 11966383950, "lat": 28.588742, "lon": 77.1190079}, {"type": "node", "id": 12208493821, "lat": 28.5885047, "lon": 77.1191687}, {"type": "node", "id": 12208493822, "lat": 28.5886088, "lon": 77.1192235}, {"type": "node", "id": 12208495345, "lat": 28.5887098, "lon": 77.1190865}, {"type": "node", "id": 12208495346, "lat": 28.5886957, "lon": 77.119121}, {"type": "node", "id": 12208495347, "lat": 28.5887523, "lon": 77.1189827}, {"type": "node", "id": 12208495349, "lat": 28.5886461, "lon": 77.1192431}, {"type": "node", "id": 12208495350, "lat": 28.5884283, "lon": 77.1191285}, {"type": "node", "id": 12208495352, "lat": 28.5885362, "lon": 77.1188692}, {"type": "node", "id": 12208495353, "lat": 28.5884942, "lon": 77.118973}, {"type": "node", "id": 4955499904, "lat": 28.5504401, "lon": 77.1232532}, {"type": "node", "id": 4955499905, "lat": 28.5502623, "lon": 77.123197}, {"type": "node", "id": 4955499906, "lat": 28.5503227, "lon": 77.1229493}, {"type": "node", "id": 4955499907, "lat": 28.5501187, "lon": 77.1228849}, {"type": "node", "id": 4955499908, "lat": 28.5500613, "lon": 77.1231202}, {"type": "node", "id": 4955499909, "lat": 28.5498405, "lon": 77.1230505}, {"type": "node", "id": 2136103085, "lat": 28.5527237, "lon": 77.125736}, {"type": "node", "id": 2136103088, "lat": 28.5530386, "lon": 77.1244279}, {"type": "node", "id": 2136103096, "lat": 28.5540058, "lon": 77.1261359}, {"type": "node", "id": 2136103097, "lat": 28.5543206, "lon": 77.1248278}, {"type": "node", "id": 3195393358, "lat": 28.5527099, "lon": 77.123112}, {"type": "node", "id": 3195393360, "lat": 28.5527823, "lon": 77.1228773}, {"type": "node", "id": 3195399254, "lat": 28.5521227, "lon": 77.1230783}, {"type": "node", "id": 3195399259, "lat": 28.5522876, "lon": 77.1231227}, {"type": "node", "id": 3195399260, "lat": 28.5523465, "lon": 77.1228394}, {"type": "node", "id": 3195399564, "lat": 28.5526098, "lon": 77.1229103}, {"type": "node", "id": 3195399566, "lat": 28.5526832, "lon": 77.1232517}, {"type": "node", "id": 3195399569, "lat": 28.5539996, "lon": 77.1233505}, {"type": "node", "id": 3195399579, "lat": 28.5541207, "lon": 77.124189}, {"type": "node", "id": 3195399580, "lat": 28.55414, "lon": 77.124279}, {"type": "node", "id": 3195399581, "lat": 28.5541743, "lon": 77.1238988}, {"type": "node", "id": 3195399582, "lat": 28.554269, "lon": 77.1243382}, {"type": "node", "id": 3195399583, "lat": 28.5542482, "lon": 77.1236461}, {"type": "node", "id": 3195399584, "lat": 28.5542876, "lon": 77.1243334}, {"type": "node", "id": 3195399585, "lat": 28.5542954, "lon": 77.1243109}, {"type": "node", "id": 3195399586, "lat": 28.5543033, "lon": 77.1241944}, {"type": "node", "id": 3195399588, "lat": 28.5543049, "lon": 77.1234276}, {"type": "node", "id": 3195399590, "lat": 28.5543474, "lon": 77.1239185}, {"type": "node", "id": 3195399595, "lat": 28.5544025, "lon": 77.1236712}, {"type": "node", "id": 3195399605, "lat": 28.5544859, "lon": 77.1234347}, {"type": "node", "id": 3195399608, "lat": 28.5545205, "lon": 77.123286}, {"type": "node", "id": 3195399609, "lat": 28.5545236, "lon": 77.1233416}, {"type": "node", "id": 3195399663, "lat": 28.5528531, "lon": 77.1232965}, {"type": "node", "id": 3195399664, "lat": 28.5528626, "lon": 77.123017}, {"type": "node", "id": 3195399666, "lat": 28.5529051, "lon": 77.1230941}, {"type": "node", "id": 3195399676, "lat": 28.5532203, "lon": 77.1239912}, {"type": "node", "id": 3195399681, "lat": 28.5533575, "lon": 77.1232968}, {"type": "node", "id": 3195399683, "lat": 28.553387, "lon": 77.1240389}, {"type": "node", "id": 3195399684, "lat": 28.5534094, "lon": 77.1234867}, {"type": "node", "id": 3195399687, "lat": 28.5534928, "lon": 77.1236372}, {"type": "node", "id": 3195399694, "lat": 28.5536809, "lon": 77.1241065}, {"type": "node", "id": 3195399698, "lat": 28.5537242, "lon": 77.1232358}, {"type": "node", "id": 3195399699, "lat": 28.5537289, "lon": 77.1230352}, {"type": "node", "id": 3195399702, "lat": 28.5538267, "lon": 77.1241493}, {"type": "node", "id": 3195399704, "lat": 28.5538626, "lon": 77.1233075}, {"type": "node", "id": 3195399705, "lat": 28.5538752, "lon": 77.1232645}, {"type": "node", "id": 3195431726, "lat": 28.5508855, "lon": 77.1233208}, {"type": "node", "id": 3195431731, "lat": 28.5509723, "lon": 77.1229444}, {"type": "node", "id": 3195431732, "lat": 28.5509931, "lon": 77.1233529}, {"type": "node", "id": 3195431735, "lat": 28.551046, "lon": 77.1231234}, {"type": "node", "id": 3195431741, "lat": 28.5512968, "lon": 77.1234418}, {"type": "node", "id": 3195431745, "lat": 28.5513493, "lon": 77.1232141}, {"type": "node", "id": 3195431749, "lat": 28.5514212, "lon": 77.1234789}, {"type": "node", "id": 3195431752, "lat": 28.5514737, "lon": 77.1232513}, {"type": "node", "id": 3195431760, "lat": 28.5517071, "lon": 77.1235677}, {"type": "node", "id": 3195431763, "lat": 28.5517603, "lon": 77.1233369}, {"type": "node", "id": 3195431766, "lat": 28.5518534, "lon": 77.1236114}, {"type": "node", "id": 3195431768, "lat": 28.5519405, "lon": 77.1232338}, {"type": "node", "id": 10882832262, "lat": 28.551359, "lon": 77.1234603}, {"type": "node", "id": 3562726215, "lat": 28.5652605, "lon": 77.1227866}, {"type": "node", "id": 3562726216, "lat": 28.5652661, "lon": 77.1228698}, {"type": "node", "id": 3562726217, "lat": 28.5654176, "lon": 77.1227728}, {"type": "node", "id": 3562726218, "lat": 28.5654219, "lon": 77.1228544}, {"type": "node", "id": 6199393108, "lat": 28.5959466, "lon": 77.0896214}, {"type": "node", "id": 6199393109, "lat": 28.5954026, "lon": 77.0891386}, {"type": "node", "id": 6199393099, "lat": 28.5949386, "lon": 77.0904127}, {"type": "node", "id": 6199393100, "lat": 28.5952, "lon": 77.0905414}, {"type": "node", "id": 6199393101, "lat": 28.594981, "lon": 77.091153}, {"type": "node", "id": 6199393102, "lat": 28.5952824, "lon": 77.0912844}, {"type": "node", "id": 6199393103, "lat": 28.5952424, "lon": 77.0914265}, {"type": "node", "id": 6199393104, "lat": 28.5957982, "lon": 77.0917377}, {"type": "node", "id": 6199393105, "lat": 28.5961986, "lon": 77.0918611}, {"type": "node", "id": 6199393106, "lat": 28.5962598, "lon": 77.0911878}, {"type": "node", "id": 6199393107, "lat": 28.5955627, "lon": 77.0908204}, {"type": "node", "id": 6831705247, "lat": 28.595465, "lon": 77.09212}, {"type": "node", "id": 6831705248, "lat": 28.595333, "lon": 77.0924318}, {"type": "node", "id": 6831705249, "lat": 28.5950518, "lon": 77.0922998}, {"type": "node", "id": 6831705250, "lat": 28.594884, "lon": 77.0928223}, {"type": "node", "id": 6831705251, "lat": 28.5947312, "lon": 77.0927653}, {"type": "node", "id": 6831705252, "lat": 28.5950527, "lon": 77.0919455}, {"type": "node", "id": 6831705253, "lat": 28.5960881, "lon": 77.0920593}, {"type": "node", "id": 6831705254, "lat": 28.5958832, "lon": 77.0923865}, {"type": "node", "id": 6831705255, "lat": 28.5955629, "lon": 77.0922256}, {"type": "node", "id": 6831705256, "lat": 28.5957254, "lon": 77.0918742}, {"type": "node", "id": 2641915086, "lat": 28.598455, "lon": 77.1011173}, {"type": "node", "id": 2641915087, "lat": 28.6007067, "lon": 77.0991169}, {"type": "node", "id": 2641915088, "lat": 28.599067, "lon": 77.1000873}, {"type": "node", "id": 2641915090, "lat": 28.5987656, "lon": 77.1013426}, {"type": "node", "id": 2641915092, "lat": 28.6006966, "lon": 77.1029519}, {"type": "node", "id": 2641915093, "lat": 28.6017429, "lon": 77.101091}, {"type": "node", "id": 2641915095, "lat": 28.6003865, "lon": 77.1000664}, {"type": "node", "id": 2641915096, "lat": 28.599797, "lon": 77.1020024}, {"type": "node", "id": 2641915098, "lat": 28.6008285, "lon": 77.0988267}, {"type": "node", "id": 2641915099, "lat": 28.6005647, "lon": 77.0990037}, {"type": "node", "id": 2641915104, "lat": 28.5992043, "lon": 77.1015738}, {"type": "node", "id": 2641915105, "lat": 28.5989542, "lon": 77.1002375}, {"type": "node", "id": 2641915106, "lat": 28.601031, "lon": 77.0989769}, {"type": "node", "id": 2641915109, "lat": 28.5995521, "lon": 77.1003502}, {"type": "node", "id": 11741404575, "lat": 28.5928985, "lon": 77.1192954}, {"type": "node", "id": 11741404576, "lat": 28.5921665, "lon": 77.1188773}, {"type": "node", "id": 11741404578, "lat": 28.591835, "lon": 77.1197656}, {"type": "node", "id": 11741404580, "lat": 28.5926076, "lon": 77.1201869}, {"type": "node", "id": 11829815842, "lat": 28.590697, "lon": 77.1181886}, {"type": "node", "id": 11829815844, "lat": 28.5909675, "lon": 77.1180616}, {"type": "node", "id": 11829815845, "lat": 28.5919281, "lon": 77.1191463}, {"type": "node", "id": 11829815846, "lat": 28.591572, "lon": 77.1188154}, {"type": "node", "id": 11829815847, "lat": 28.5918576, "lon": 77.1195072}, {"type": "node", "id": 11829815848, "lat": 28.5911032, "lon": 77.1190355}, {"type": "node", "id": 11829815850, "lat": 28.5911182, "lon": 77.1183804}, {"type": "node", "id": 11829815857, "lat": 28.5908351, "lon": 77.1183759}, {"type": "node", "id": 11829815859, "lat": 28.5907611, "lon": 77.1179488}, {"type": "node", "id": 11829815860, "lat": 28.591049, "lon": 77.1185526}, {"type": "node", "id": 11829815865, "lat": 28.5911377, "lon": 77.1185988}, {"type": "node", "id": 11829815867, "lat": 28.5917292, "lon": 77.1193908}, {"type": "node", "id": 11829815868, "lat": 28.5918427, "lon": 77.1194601}, {"type": "node", "id": 11829911072, "lat": 28.5918551, "lon": 77.1194299}, {"type": "node", "id": 11829911078, "lat": 28.5916511, "lon": 77.118616}, {"type": "node", "id": 11829911079, "lat": 28.5917832, "lon": 77.1192599}, {"type": "node", "id": 11829911080, "lat": 28.5917932, "lon": 77.1195813}, {"type": "node", "id": 11829911081, "lat": 28.5917387, "lon": 77.1190446}, {"type": "node", "id": 11829911087, "lat": 28.591062, "lon": 77.1191335}, {"type": "node", "id": 11829911093, "lat": 28.5908689, "lon": 77.1189077}, {"type": "node", "id": 11829911094, "lat": 28.5908277, "lon": 77.1190058}, {"type": "node", "id": 11829911095, "lat": 28.5918972, "lon": 77.119252}, {"type": "node", "id": 11829911096, "lat": 28.5913933, "lon": 77.1172872}, {"type": "node", "id": 11829911098, "lat": 28.5916308, "lon": 77.1193874}, {"type": "node", "id": 11829911103, "lat": 28.5917663, "lon": 77.1194106}, {"type": "node", "id": 11829911105, "lat": 28.5912069, "lon": 77.1184266}, {"type": "node", "id": 11829911107, "lat": 28.5917758, "lon": 77.1193875}, {"type": "node", "id": 11829911108, "lat": 28.5918708, "lon": 77.119475}, {"type": "node", "id": 11829911116, "lat": 28.5906587, "lon": 77.1182796}, {"type": "node", "id": 11829911122, "lat": 28.5918045, "lon": 77.1192023}, {"type": "node", "id": 11829911123, "lat": 28.5917527, "lon": 77.1195597}, {"type": "node", "id": 11829911124, "lat": 28.591717, "lon": 77.1194384}, {"type": "node", "id": 11829911125, "lat": 28.5913102, "lon": 77.1174937}, {"type": "node", "id": 11829911128, "lat": 28.5910234, "lon": 77.1173439}, {"type": "node", "id": 11829911134, "lat": 28.5906671, "lon": 77.1181722}, {"type": "node", "id": 11829911137, "lat": 28.5918253, "lon": 77.119152}, {"type": "node", "id": 11829911142, "lat": 28.5919075, "lon": 77.1191961}, {"type": "node", "id": 11829911145, "lat": 28.5916834, "lon": 77.1191784}, {"type": "node", "id": 11829911146, "lat": 28.5917716, "lon": 77.1169786}, {"type": "node", "id": 11829911147, "lat": 28.5917171, "lon": 77.1191983}, {"type": "node", "id": 11829911148, "lat": 28.591275, "lon": 77.1167192}, {"type": "node", "id": 11829911149, "lat": 28.5918297, "lon": 77.1194923}, {"type": "node", "id": 11829911153, "lat": 28.5918738, "lon": 77.1193085}, {"type": "node", "id": 11829911154, "lat": 28.5917319, "lon": 77.1186576}, {"type": "node", "id": 11829911156, "lat": 28.5916032, "lon": 77.1173968}, {"type": "node", "id": 11829911160, "lat": 28.5916528, "lon": 77.118857}, {"type": "node", "id": 11841093550, "lat": 28.5944819, "lon": 77.1207505}, {"type": "node", "id": 11841093551, "lat": 28.5945097, "lon": 77.1206886}, {"type": "node", "id": 11841093554, "lat": 28.5945497, "lon": 77.1205939}, {"type": "node", "id": 11841093559, "lat": 28.594516, "lon": 77.1207692}, {"type": "node", "id": 11841093560, "lat": 28.5945415, "lon": 77.120706}, {"type": "node", "id": 11841093561, "lat": 28.5946162, "lon": 77.1204329}, {"type": "node", "id": 11841093563, "lat": 28.5950363, "lon": 77.1211416}, {"type": "node", "id": 11841104169, "lat": 28.5949858, "lon": 77.1210777}, {"type": "node", "id": 11841104174, "lat": 28.5950939, "lon": 77.1210725}, {"type": "node", "id": 11841104175, "lat": 28.5950097, "lon": 77.1211296}, {"type": "node", "id": 11841104177, "lat": 28.5949723, "lon": 77.1211072}, {"type": "node", "id": 11841104178, "lat": 28.5952314, "lon": 77.1207628}, {"type": "node", "id": 11841104179, "lat": 28.5944844, "lon": 77.1208452}, {"type": "node", "id": 11841104180, "lat": 28.5945815, "lon": 77.1206113}, {"type": "node", "id": 11841104182, "lat": 28.5945372, "lon": 77.1205872}, {"type": "node", "id": 11841104183, "lat": 28.5950233, "lon": 77.1211007}, {"type": "node", "id": 11841121315, "lat": 28.5950764, "lon": 77.1210936}, {"type": "node", "id": 11862255382, "lat": 28.5928768, "lon": 77.1191774}, {"type": "node", "id": 11862255385, "lat": 28.5928456, "lon": 77.1192726}, {"type": "node", "id": 11908775003, "lat": 28.5921716, "lon": 77.1199745}, {"type": "node", "id": 11908775004, "lat": 28.5921828, "lon": 77.1199457}, {"type": "node", "id": 11949851616, "lat": 28.596323, "lon": 77.1192677}, {"type": "node", "id": 11949851618, "lat": 28.5963246, "lon": 77.1199999}, {"type": "node", "id": 11949851624, "lat": 28.5960677, "lon": 77.1198632}, {"type": "node", "id": 11949851631, "lat": 28.5961057, "lon": 77.1191524}, {"type": "node", "id": 11949851643, "lat": 28.5958585, "lon": 77.1197533}, {"type": "node", "id": 11949851654, "lat": 28.5965718, "lon": 77.1193991}, {"type": "node", "id": 11949851658, "lat": 28.5964792, "lon": 77.1196207}, {"type": "node", "id": 11954160763, "lat": 28.5935893, "lon": 77.1210511}, {"type": "node", "id": 11954160764, "lat": 28.5936526, "lon": 77.1208885}, {"type": "node", "id": 11954160765, "lat": 28.5932573, "lon": 77.1215959}, {"type": "node", "id": 11954160767, "lat": 28.5934263, "lon": 77.1211674}, {"type": "node", "id": 11954160768, "lat": 28.5931021, "lon": 77.1215165}, {"type": "node", "id": 11954163169, "lat": 28.5936392, "lon": 77.120845}, {"type": "node", "id": 11954163170, "lat": 28.5936334, "lon": 77.1210734}, {"type": "node", "id": 11954163172, "lat": 28.5936036, "lon": 77.1212246}, {"type": "node", "id": 11954163173, "lat": 28.5932478, "lon": 77.1212523}, {"type": "node", "id": 11954163175, "lat": 28.5934769, "lon": 77.1207582}, {"type": "node", "id": 11955773590, "lat": 28.593574, "lon": 77.121243}, {"type": "node", "id": 11955773591, "lat": 28.5931927, "lon": 77.1213859}, {"type": "node", "id": 11955773595, "lat": 28.5931626, "lon": 77.1213698}, {"type": "node", "id": 11955773596, "lat": 28.5936441, "lon": 77.1211212}, {"type": "node", "id": 11955773601, "lat": 28.5932686, "lon": 77.1212634}, {"type": "node", "id": 3606798204, "lat": 28.5931824, "lon": 77.1248046}, {"type": "node", "id": 11778265118, "lat": 28.5927237, "lon": 77.1259779}, {"type": "node", "id": 11778265123, "lat": 28.5929438, "lon": 77.1254179}, {"type": "node", "id": 11866361321, "lat": 28.5949379, "lon": 77.1235277}, {"type": "node", "id": 11866361323, "lat": 28.5956714, "lon": 77.1234523}, {"type": "node", "id": 11866361324, "lat": 28.5955483, "lon": 77.1238175}, {"type": "node", "id": 11866361325, "lat": 28.5950853, "lon": 77.1231635}, {"type": "node", "id": 11907323674, "lat": 28.5940573, "lon": 77.1252422}, {"type": "node", "id": 11907323685, "lat": 28.5935897, "lon": 77.1264021}, {"type": "node", "id": 2656210804, "lat": 28.5954546, "lon": 77.1343181}, {"type": "node", "id": 2656210814, "lat": 28.5948763, "lon": 77.1340269}, {"type": "node", "id": 9865278129, "lat": 28.5945819, "lon": 77.1343831}, {"type": "node", "id": 12875625518, "lat": 28.5943114, "lon": 77.1347245}, {"type": "node", "id": 12875625538, "lat": 28.5951382, "lon": 77.1351354}, {"type": "node", "id": 12877080210, "lat": 28.595409, "lon": 77.1344334}, {"type": "node", "id": 11779952612, "lat": 28.5996537, "lon": 77.1260577}, {"type": "node", "id": 11779952613, "lat": 28.5997635, "lon": 77.1263902}, {"type": "node", "id": 11779952614, "lat": 28.6001299, "lon": 77.1262332}, {"type": "node", "id": 11779952615, "lat": 28.60002, "lon": 77.1259007}, {"type": "node", "id": 11865385535, "lat": 28.5975411, "lon": 77.1245155}, {"type": "node", "id": 11865385536, "lat": 28.5973135, "lon": 77.1244088}, {"type": "node", "id": 11865385537, "lat": 28.5976933, "lon": 77.1240941}, {"type": "node", "id": 11906995582, "lat": 28.5973077, "lon": 77.1230217}, {"type": "node", "id": 11906995583, "lat": 28.5972388, "lon": 77.1230111}, {"type": "node", "id": 11906995585, "lat": 28.5972094, "lon": 77.1230141}, {"type": "node", "id": 11906995586, "lat": 28.5972668, "lon": 77.1229482}, {"type": "node", "id": 11906995587, "lat": 28.597246, "lon": 77.1230364}, {"type": "node", "id": 11906995590, "lat": 28.5972771, "lon": 77.1230367}, {"type": "node", "id": 11906995592, "lat": 28.5972662, "lon": 77.1230196}, {"type": "node", "id": 11906995600, "lat": 28.5972629, "lon": 77.1229437}, {"type": "node", "id": 11906995601, "lat": 28.5972045, "lon": 77.1230343}, {"type": "node", "id": 11906995606, "lat": 28.5972711, "lon": 77.1229994}, {"type": "node", "id": 11906995607, "lat": 28.5972154, "lon": 77.1230514}, {"type": "node", "id": 11906995609, "lat": 28.5972395, "lon": 77.122984}, {"type": "node", "id": 11906995614, "lat": 28.5972427, "lon": 77.1230156}, {"type": "node", "id": 11906995618, "lat": 28.5972956, "lon": 77.1230376}, {"type": "node", "id": 11906995621, "lat": 28.5972286, "lon": 77.1229669}, {"type": "node", "id": 11906995622, "lat": 28.5973044, "lon": 77.1230009}, {"type": "node", "id": 11906995626, "lat": 28.5972335, "lon": 77.1229467}, {"type": "node", "id": 11906995641, "lat": 28.5972264, "lon": 77.1230057}, {"type": "node", "id": 11906995645, "lat": 28.5972881, "lon": 77.122991}, {"type": "node", "id": 11906995647, "lat": 28.5972339, "lon": 77.1230523}, {"type": "node", "id": 11906995648, "lat": 28.5972701, "lon": 77.122969}, {"type": "node", "id": 11906995650, "lat": 28.5972505, "lon": 77.1229383}, {"type": "node", "id": 11906995659, "lat": 28.597258, "lon": 77.1229849}, {"type": "node", "id": 11907052771, "lat": 28.5973005, "lon": 77.1229964}, {"type": "node", "id": 11933083702, "lat": 28.59727, "lon": 77.1240746}, {"type": "node", "id": 11933083707, "lat": 28.5973769, "lon": 77.1242334}, {"type": "node", "id": 11933083708, "lat": 28.5973086, "lon": 77.1242014}, {"type": "node", "id": 11933083752, "lat": 28.5973422, "lon": 77.1241084}, {"type": "node", "id": 11933083761, "lat": 28.5973253, "lon": 77.1239217}, {"type": "node", "id": 12911983365, "lat": 28.5977664, "lon": 77.1349699}, {"type": "node", "id": 12911983366, "lat": 28.5980856, "lon": 77.1349853}, {"type": "node", "id": 12911983367, "lat": 28.5972827, "lon": 77.134956}, {"type": "node", "id": 12911983368, "lat": 28.5977648, "lon": 77.1350406}, {"type": "node", "id": 12911983369, "lat": 28.5978213, "lon": 77.1350552}, {"type": "node", "id": 12911983370, "lat": 28.5978246, "lon": 77.1349733}, {"type": "node", "id": 12911983371, "lat": 28.5980823, "lon": 77.1350673}, {"type": "node", "id": 12911983372, "lat": 28.5972811, "lon": 77.1350267}, {"type": "node", "id": 11873232746, "lat": 28.5981199, "lon": 77.141386}, {"type": "node", "id": 11873232750, "lat": 28.5967609, "lon": 77.1414705}, {"type": "node", "id": 11873300815, "lat": 28.5978834, "lon": 77.1412931}, {"type": "node", "id": 11873300828, "lat": 28.5977831, "lon": 77.141347}, {"type": "node", "id": 11873300835, "lat": 28.5974741, "lon": 77.1401762}, {"type": "node", "id": 11873300839, "lat": 28.5983956, "lon": 77.1414888}, {"type": "node", "id": 11873300876, "lat": 28.5969636, "lon": 77.1416003}, {"type": "node", "id": 11873300918, "lat": 28.5976021, "lon": 77.1419115}, {"type": "node", "id": 11873300939, "lat": 28.5974584, "lon": 77.1402811}, {"type": "node", "id": 11873300942, "lat": 28.5985558, "lon": 77.1406214}, {"type": "node", "id": 11873300955, "lat": 28.5969507, "lon": 77.1399265}, {"type": "node", "id": 11873300999, "lat": 28.5967673, "lon": 77.1399123}, {"type": "node", "id": 11873301022, "lat": 28.5969512, "lon": 77.1400314}, {"type": "node", "id": 11927937468, "lat": 28.5976773, "lon": 77.1403487}, {"type": "node", "id": 11927952980, "lat": 28.5974941, "lon": 77.1402921}, {"type": "node", "id": 12793822762, "lat": 28.5967646, "lon": 77.1405607}, {"type": "node", "id": 12793822763, "lat": 28.5967648, "lon": 77.1405203}, {"type": "node", "id": 12793822764, "lat": 28.5967645, "lon": 77.1406023}]}