{"version": 0.6, "generator": "Overpass API 0.7.62.8 e802775f", "osm3s": {"timestamp_osm_base": "2025-11-23T12:47:00Z", "copyright": "The data included in this document is from www.openstreetmap.org. The data is made available under ODbL."}, "elements": [{"type": "node", "id": 2882364156, "lat": 41.689897, "lon": 44.878362, "tags": {"amenity": "restaurant", "check_date": "2024-01-20", "cuisine": "georgian", "name": "\u10d9\u10d0\u10ed\u10e0\u10d4\u10d7\u10d8\u10e1 \u10e9\u10d4\u10db\u10de\u10d8\u10dd\u10dc\u10d8 \u10e1\u10d4\u10d3\u10dd\u10d5\u10d8\u10e9\u10d7\u10d0\u10dc", "name:en": "Kachreti Champion Sedovichtan"}}, {"type": "node", "id": 2882389855, "lat": 41.6894351, "lon": 44.8782712, "tags": {"addr:housenumber": "18", "check_date": "2024-01-20", "name": "\u10e4\u10d0\u10e0\u10d4\u10d3\u10d0\u10d8\u10e1\u10d8", "name:en": "Paradise", "name:ka": "\u10e4\u10d0\u10e0\u10d4\u10d3\u10d0\u10d8\u10e1\u10d8", "tourism": "hotel"}}, {"type": "node", "id": 3747385640, "lat": 41.6892115, "lon": 44.8672991, "tags": {"air_conditioning": "yes", "bar": "yes", "building:levels": "11", "check_date": "2024-03-24", "internet_access": "wlan", "internet_access:fee": "customers", "name": "\u10d8\u10d5\u10d4\u10e0\u10d8\u10d0 \u10d8\u10dc\u10dc", "name:en": "Iveria Inn", "name:ka": "\u10d8\u10d5\u10d4\u10e0\u10d8\u10d0 \u10d8\u10dc\u10dc", "opening_hours": "24/7", "payment:cash": "yes", "payment:credit_cards": "yes", "reservation": "yes", "smoking": "no", "source": "local knowledge", "stars": "4", "tourism": "hotel"}}, {"type": "node", "id": 3777906886, "lat": 41.6703226, "lon": 44.8917139, "tags": {"amenity": "restaurant", "check_date": "2025-06-12", "name": "\u10e5\u10d8\u10d6\u10d8\u10e7\u10d4\u10da\u10d4\u10d1\u10d8"}}, {"type": "node", "id": 4128369453, "lat": 41.6882473, "lon": 44.8951948, "tags": {"name": "Eniseli", "tourism": "hotel"}}, {"type": "node", "id": 4147240791, "lat": 41.6970172, "lon": 44.870253, "tags": {"check_date": "2024-01-20", "name": "Nina", "tourism": "hotel"}}, {"type": "node", "id": 4147339027, "lat": 41.695513, "lon": 44.869405, "tags": {"amenity": "restaurant", "check_date": "2024-01-20", "name": "\u10ee\u10d5\u10d0\u10dc\u10ed\u10d9\u10d0\u10e0\u10d0", "name:en": "Khvanchkara", "name:ka": "\u10ee\u10d5\u10d0\u10dc\u10ed\u10d9\u10d0\u10e0\u10d0"}}, {"type": "node", "id": 4149614993, "lat": 41.6795531, "lon": 44.8707745, "tags": {"check_date": "2025-06-12", "tourism": "hotel"}}, {"type": "node", "id": 4213506126, "lat": 41.6854987, "lon": 44.891788, "tags": {"fixme": "Is it Yuri Gagarin in particular?", "historic": "memorial", "memorial": "statue", "wikimedia_commons": "File:2025-02-08 Cosmonaut memorial at Kakheti Highway.jpg"}}, {"type": "node", "id": 4381940391, "lat": 41.6806752, "lon": 44.8699229, "tags": {"amenity": "restaurant", "check_date": "2025-05-18", "name": "\u10ee\u10d8\u10dc\u10d9\u10da\u10d8\u10e1 \u10e1\u10d0\u10ee\u10da\u10d8", "name:ka": "\u10ee\u10d8\u10dc\u10d9\u10da\u10d8\u10e1 \u10e1\u10d0\u10ee\u10da\u10d8"}}, {"type": "node", "id": 4406454904, "lat": 41.6799479, "lon": 44.8701156, "tags": {"addr:housenumber": "25", "addr:street": "\u10db\u10dd\u10e1\u10d9\u10dd\u10d5\u10d8\u10e1 \u10d2\u10d0\u10db\u10d6\u10d8\u10e0\u10d8", "amenity": "restaurant", "check_date": "2025-05-18", "contact:mobile": "+995 557 20 50 50", "email": "info@ilouri.ge", "internet_access": "wlan", "name": "\u10d8\u10da\u10dd\u10e3\u10e0\u10d8", "name:en": "ilouri", "name:ka": "\u10d8\u10da\u10dd\u10e3\u10e0\u10d8", "website": "http://www.ilouri.ge"}}, {"type": "node", "id": 4534989693, "lat": 41.6912635, "lon": 44.8777094, "tags": {"tourism": "hotel"}}, {"type": "node", "id": 5035215822, "lat": 41.6826237, "lon": 44.8710292, "tags": {"addr:street": "\u10e0\u10d4\u10d5\u10d0\u10d6 \u10db\u10d0\u10db\u10d8\u10e1\u10e5\u10e8\u10d5\u10d8\u10da\u10d8\u10e1 1", "contact:mobile": "+995 599 77 18 88", "email": "Hotelbatoni@gmail.com", "internet_access": "wlan", "name": "\u10d1\u10d0\u10e2\u10dd\u10dc\u10d8", "name:en": "Batoni", "name:ka": "\u10d1\u10d0\u10e2\u10dd\u10dc\u10d8", "name:ru": "\u0431\u0430\u0442\u043e\u043d\u0438", "opening_hours": "24/7", "tourism": "hotel"}}, {"type": "node", "id": 5268259421, "lat": 41.6901606, "lon": 44.8791147, "tags": {"contact:mobile": "+995 558 49 10 49", "email": "sharabidze15@gmail.com", "internet_access": "wlan", "name": "\u10e3\u10d1\u10e0\u10d0\u10da\u10dd'\u10e1 \u10e1\u10d0\u10ee\u10da\u10d8", "name:en": "Simple's House", "tourism": "apartment"}}, {"type": "node", "id": 6635731091, "lat": 41.6868229, "lon": 44.8907611, "tags": {"addr:housenumber": "3 \u10d9\u10dd\u10e0\u10de. 1", "addr:postcode": "0182", "addr:street": "\u10d2\u10d8\u10dd\u10e0\u10d2\u10d8 \u10d0\u10d1\u10d0\u10e8\u10d5\u10d8\u10da\u10d8\u10e1 \u10e5\u10e3\u10e9\u10d0", "contact:mobile": "+995 577 34 55 70", "email": "vtevdorashvili@gmail.com", "internet_access": "wlan", "name": "Golden House", "opening_hours": "24/7", "tourism": "apartment", "website": "https://www.booking.com/hotel/ge/golden-house-tbilisi1.en-gb.html"}}, {"type": "node", "id": 6708920385, "lat": 41.6702494, "lon": 44.8869846, "tags": {"addr:city": "\u10d7\u10d1\u10d8\u10da\u10d8\u10e1\u10d8", "addr:country": "GE", "addr:housenumber": "5\u10d9\u10d5\u10d0\u10e0\u10e2\u10d0\u10da\u10d8 2\u10d9\u10dd\u10e0\u10de\u10e3\u10e1\u10d8", "addr:postcode": "3701", "addr:street": "\u10db\u10dd\u10e1\u10d9\u10dd\u10d5\u10d8\u10e1 \u10d2\u10d0\u10db\u10d6\u10d8\u10e0\u10d8", "amenity": "cafe", "cuisine": "georgian", "internet_access": "wlan", "name:en": "Chupy"}}, {"type": "node", "id": 6961334367, "lat": 41.6702949, "lon": 44.8756772, "tags": {"addr:city": "\u10d7\u10d1\u10d8\u10da\u10d8\u10e1\u10d8", "addr:country": "GE", "addr:housenumber": "6", "addr:postcode": "0136", "addr:street": "\u10d1\u10dd\u10d2\u10d3\u10d0\u10dc \u10ee\u10db\u10d4\u10da\u10dc\u10d8\u10ea\u10d9\u10d8\u10e1 \u10e5\u10e3\u10e9\u10d0", "amenity": "restaurant", "contact:mobile": "+995 551 66 76 99", "name": "\u10d5\u10d8\u10d0 \u10d5\u10d4\u10dc\u10d4\u10e2\u10dd", "name:en": "Via Veneto", "name:ka": "\u10d5\u10d8\u10d0 \u10d5\u10d4\u10dc\u10d4\u10e2\u10dd", "opening_hours": "Mo-Su 09:00-02:00", "website": "https://www.facebook.com/ViaVenetoRestaurant/"}}, {"type": "node", "id": 9874043117, "lat": 41.6878518, "lon": 44.8569911, "tags": {"amenity": "restaurant", "check_date": "2025-06-16", "cuisine": "georgian", "name": "\u10dc\u10d8\u10d9\u10d0\u10da\u10d0\u10e1 \u10d4\u10d6\u10dd \"\u10d9\u10d0\u10ee\u10d4\u10d7\u10d8\""}}, {"type": "node", "id": 10246579609, "lat": 41.6710821, "lon": 44.8750693, "tags": {"addr:housenumber": "6", "addr:street": "\u10d1\u10dd\u10d2\u10d3\u10d0\u10dc \u10ee\u10db\u10d4\u10da\u10dc\u10d8\u10ea\u10d9\u10d8\u10e1 \u10e5\u10e3\u10e9\u10d0", "contact:mobile": "+995 557 25 25 93", "email": "hotelsalosi@gmail.com", "internet_access": "wlan", "opening_hours": "24/7", "tourism": "hostel"}}, {"type": "node", "id": 10246584309, "lat": 41.6711038, "lon": 44.8752338, "tags": {"addr:housenumber": "10", "addr:street": "Bogdansk Khmelnitski street N. 6", "contact:mobile": "+995 557 25 25 93", "email": "hotelsalosi@gmail.com", "internet_access": "wlan", "opening_hours": "24/7", "tourism": "hotel"}}, {"type": "node", "id": 11020108005, "lat": 41.6799452, "lon": 44.8542009, "tags": {"amenity": "cafe", "check_date": "2025-06-16", "name": "\u10e5\u10d0\u10d1\u10d0\u10d1\u10d8\u10e1 \u10e1\u10d0\u10ee\u10da\u10d8"}}, {"type": "node", "id": 11534002872, "lat": 41.6895635, "lon": 44.8710106, "tags": {"amenity": "cafe", "check_date": "2024-01-20", "cuisine": "coffee_shop"}}, {"type": "node", "id": 11534002923, "lat": 41.6953422, "lon": 44.8695015, "tags": {"amenity": "cafe", "check_date": "2024-01-20", "cuisine": "coffee_shop", "takeaway": "only"}}, {"type": "node", "id": 11534002930, "lat": 41.6972183, "lon": 44.8691478, "tags": {"amenity": "restaurant", "check_date": "2024-01-20", "name": "\u10da\u10d0\u10d6\u10e3\u10e0\u10d8"}}, {"type": "node", "id": 11534002932, "lat": 41.6977504, "lon": 44.8702022, "tags": {"amenity": "cafe", "check_date": "2024-01-20"}}, {"type": "node", "id": 11534002936, "lat": 41.6978568, "lon": 44.8707891, "tags": {"check_date": "2024-01-20", "name": "\u10db\u10d8\u10e5\u10d0", "tourism": "hotel"}}, {"type": "node", "id": 11758046798, "lat": 41.6894831, "lon": 44.8978611, "tags": {"air_conditioning": "yes", "amenity": "cafe", "brand": "\u10d3\u10d8 \u10e0\u10dd\u10db\u10d0", "brand:en": "Di Roma", "brand:ka": "\u10d3\u10d8 \u10e0\u10dd\u10db\u10d0", "brand:ru": "\u0414\u0438 \u0420\u043e\u043c\u0430", "brand:wikidata": "Q131469959", "check_date": "2025-04-19", "cuisine": "pizza;italian", "delivery": "yes", "internet_access": "wlan", "internet_access:fee": "customers", "internet_access:ssid": "Pizza Di Roma", "level": "2", "name": "\u10d3\u10d8 \u10e0\u10dd\u10db\u10d0", "name:en": "Di Roma", "name:ka": "\u10d3\u10d8 \u10e0\u10dd\u10db\u10d0", "name:ru": "\u0414\u0438 \u0420\u043e\u043c\u0430", "opening_hours": "10:00-23:00", "outdoor_seating": "yes", "payment:american_express": "yes", "payment:apple_pay": "yes", "payment:cash": "yes", "payment:contactless": "yes", "payment:credit_cards": "yes", "payment:debit_cards": "yes", "payment:diners_club": "yes", "payment:discover_card": "yes", "payment:google_pay": "yes", "payment:jcb": "yes", "payment:mastercard": "yes", "payment:samsung_pay": "yes", "payment:unionpay": "yes", "payment:visa": "yes", "smoking": "outside", "takeaway": "yes", "website:menu": "https://menu.invite.ge/IXE2090EC1AZKWRF/categories"}}, {"type": "node", "id": 11758046803, "lat": 41.6836917, "lon": 44.8760378, "tags": {"amenity": "cafe", "check_date": "2024-03-24"}}, {"type": "node", "id": 11758046849, "lat": 41.689211, "lon": 44.8966058, "tags": {"amenity": "cafe", "check_date": "2024-03-24", "contact:facebook": "https://www.facebook.com/sisaurigrinders", "cuisine": "coffee_shop", "level": "1", "name": "\u10e1\u10d8\u10e1\u10d0\u10e3\u10e0\u10d8", "name:en": "Sisauri", "name:ka": "\u10e1\u10d8\u10e1\u10d0\u10e3\u10e0\u10d8"}}, {"type": "node", "id": 11758046860, "lat": 41.6896335, "lon": 44.8976959, "tags": {"amenity": "cafe", "check_date": "2025-03-29", "cuisine": "georgian", "level": "2", "name": "\u10e1\u10d0\u10ee\u10d8\u10dc\u10d9\u10da\u10d4", "name:en": "Sakhinkle", "name:ka": "\u10e1\u10d0\u10ee\u10d8\u10dc\u10d9\u10da\u10d4"}}, {"type": "node", "id": 11816640412, "lat": 41.6997677, "lon": 44.853105, "tags": {"amenity": "cafe", "check_date": "2024-04-14"}}, {"type": "node", "id": 11816640421, "lat": 41.6966897, "lon": 44.8605068, "tags": {"amenity": "cafe", "check_date": "2024-04-14"}}, {"type": "node", "id": 11816640426, "lat": 41.6983367, "lon": 44.8581312, "tags": {"amenity": "cafe", "check_date": "2024-04-14"}}, {"type": "node", "id": 11816640445, "lat": 41.6990833, "lon": 44.851889, "tags": {"check_date": "2024-04-14", "tourism": "hotel"}}, {"type": "node", "id": 11816734966, "lat": 41.6835227, "lon": 44.8627216, "tags": {"amenity": "restaurant", "check_date": "2025-06-12"}}, {"type": "node", "id": 11816734967, "lat": 41.6840068, "lon": 44.8612884, "tags": {"amenity": "restaurant", "check_date": "2025-06-12"}}, {"type": "node", "id": 12056961113, "lat": 41.6882376, "lon": 44.8940997, "tags": {"board_type": "notice", "information": "board", "name": "\u10db\u10d8\u10ee\u10d4\u10d8\u10da \u10d2\u10d0\u10ee\u10dd\u10d9\u10d8\u10eb\u10d8\u10e1 \u10e5\u10e3\u10e9\u10d8\u10e1 \u10e0\u10d4\u10d0\u10d1\u10d8\u10da\u10d8\u10e2\u10d0\u10ea\u10d8\u10d8\u10e1 \u10de\u10e0\u10dd\u10d4\u10e5\u10e2\u10d8\u10e1 \u10e1\u10e5\u10d4\u10db\u10d0", "name:en": "Mikheil Gakhokidze Street renovation project scheme", "name:ru": "\u0421\u0445\u0435\u043c\u0430 \u043f\u0440\u043e\u0435\u043a\u0442\u0430 \u0440\u0435\u043d\u043e\u0432\u0430\u043d\u0438\u0438 \u0443\u043b\u0438\u0446\u044b \u041c\u0438\u0445\u0430\u0438\u043b\u0430 \u0413\u0430\u0445\u043e\u043a\u0438\u0434\u0437\u0435", "operator": "\u10d7\u10d1\u10d8\u10da\u10d8\u10e1\u10d8\u10e1 \u10db\u10d4\u10e0\u10d8\u10d0", "source": "https://www.commersant.ge/news/infrastructure/samgoris-raionshi-gakhokidzis-quchis-sruli-reabilitatsia-itsyeba", "tourism": "information", "wikimedia_commons": "File:Mikheil Gakhokidze Street closure,Tbilisi,Jul 2024.jpg"}}, {"type": "node", "id": 12064664432, "lat": 41.6894989, "lon": 44.8967204, "tags": {"amenity": "cafe", "check_date": "2025-03-23", "level": "2", "name": "\u10da\u10d0 \u10db\u10dd\u10dc\u10d3\u10d8", "name:en": "La Monde", "name:ka": "\u10da\u10d0 \u10db\u10dd\u10dc\u10d3\u10d8"}}, {"type": "node", "id": 12282732321, "lat": 41.6553213, "lon": 44.8709891, "tags": {"historic": "memorial"}}, {"type": "node", "id": 12282732375, "lat": 41.6508096, "lon": 44.8696178, "tags": {"historic": "aircraft"}}, {"type": "node", "id": 12352342520, "lat": 41.6710929, "lon": 44.858879, "tags": {"artwork_type": "statue", "memorial": "statue", "tourism": "artwork"}}, {"type": "node", "id": 12638350082, "lat": 41.6757564, "lon": 44.8505349, "tags": {"historic": "memorial", "inscription": "\u10d0\u10db \u10e1\u10d0\u10ee\u10da\u10e8\u10d8 1975-1993 \u10ec\u10da\u10d4\u10d1\u10e8\u10d8 \u10ea\u10ee\u10dd\u10d5\u10e0\u10dd\u10d1\u10d3\u10d0 \u10d2\u10d0\u10db\u10dd\u10e9\u10d4\u10dc\u10d8\u10da\u10d8 \u10e1\u10de\u10dd\u10e0\u10e2\u10e1\u10db\u10d4\u10dc\u10d8 \u10ef\u10d8\u10d1\u10d8\u10da\u10dd \u10dc\u10d8\u10df\u10d0\u10e0\u10d0\u10eb\u10d4", "memorial": "plaque", "name": "\u10ef\u10d8\u10d1\u10d8\u10da\u10dd \u10dc\u10d8\u10df\u10d0\u10e0\u10d0\u10eb\u10d4", "name:en": "Jibilo Nizharadze", "name:ka": "\u10ef\u10d8\u10d1\u10d8\u10da\u10dd \u10dc\u10d8\u10df\u10d0\u10e0\u10d0\u10eb\u10d4", "name:ru": "\u0414\u0436\u0438\u0431\u0438\u043b\u043e \u041d\u0438\u0436\u0430\u0440\u0430\u0434\u0437\u0435", "openplaques:id": "73399", "subject:wikidata": "Q18817939", "subject:wikipedia": "ka:\u10ef\u10d8\u10d1\u10d8\u10da\u10dd \u10dc\u10d8\u10df\u10d0\u10e0\u10d0\u10eb\u10d4", "wikimedia_commons": "File:2025-03-01 Plaque to Jibilo Nizharadze.jpg"}}, {"type": "node", "id": 12638350083, "lat": 41.6757315, "lon": 44.8505305, "tags": {"epigraph": "slogan", "historic": "epigraph", "historic:civilization": "modern", "historic:period": "soviet", "inscription": "\u041f\u043b\u0430\u043d\u044b \u043f\u0430\u0440\u0442\u0438\u0438 \u0432 \u0436\u0438\u0437\u043d\u044c", "location": "wall", "wikimedia_commons": "File:2025-03-01 51 Beri Gabriel Salosi Avenue.jpg"}}, {"type": "node", "id": 12766806081, "lat": 41.6915896, "lon": 44.870047, "tags": {"artwork_type": "sculpture", "layer": "1", "tourism": "artwork"}}, {"type": "node", "id": 12856978824, "lat": 41.6537512, "lon": 44.8523733, "tags": {"amenity": "restaurant", "bar": "yes", "contact:facebook": "https://www.facebook.com/onoathillsrestaurant", "contact:mobile": "+995 599 55 62 26", "cuisine": "western", "name": "ONO at Hills", "opening_hours": "Mo-Su 08:00-22:00", "reservation": "yes", "website": "https://tbilisihills.com/restaurant-en.html"}}, {"type": "node", "id": 12891723421, "lat": 41.6702612, "lon": 44.8917527, "tags": {"check_date": "2025-06-12", "name": "\u10d4\u10d5\u10e0\u10dd\u10da\u10e3\u10e5\u10e1\u10d8", "name:en": "Eurolux", "tourism": "hotel"}}, {"type": "node", "id": 12909868707, "lat": 41.668285, "lon": 44.8896078, "tags": {"amenity": "cafe", "check_date": "2025-06-12"}}, {"type": "node", "id": 12909868733, "lat": 41.6716162, "lon": 44.892652, "tags": {"check_date": "2025-06-12", "tourism": "hostel"}}, {"type": "node", "id": 12909868746, "lat": 41.6725704, "lon": 44.885118, "tags": {"amenity": "cafe", "check_date": "2025-06-12", "cuisine": "coffee_shop"}}, {"type": "node", "id": 12910103836, "lat": 41.6745246, "lon": 44.8801014, "tags": {"amenity": "restaurant", "check_date": "2025-06-12", "cuisine": "pizza"}}, {"type": "node", "id": 12910103841, "lat": 41.6800215, "lon": 44.8699665, "tags": {"amenity": "restaurant", "check_date": "2025-06-12", "cuisine": "italian", "name": "Napoletana"}}, {"type": "node", "id": 12919494706, "lat": 41.6872424, "lon": 44.8560799, "tags": {"check_date": "2025-06-16", "name": "Villa Residence", "tourism": "hotel"}}, {"type": "node", "id": 12919494716, "lat": 41.6876306, "lon": 44.8553795, "tags": {"check_date": "2025-06-16", "name": "Magic", "tourism": "hotel"}}, {"type": "node", "id": 13136856699, "lat": 41.6683607, "lon": 44.8783913, "tags": {"historic": "aircraft", "name": "\u10e1\u10e3-25", "name:en": "Su-25", "name:ka": "\u10e1\u10e3-25", "name:ru": "\u0421\u0443-25"}}, {"type": "node", "id": 13174342022, "lat": 41.688495, "lon": 44.8942995, "tags": {"name": "Great Wall Hotel", "tourism": "hotel"}}, {"type": "node", "id": 13175035342, "lat": 41.6858392, "lon": 44.8635693, "tags": {"artwork_type": "statue", "name": "\u10d4\u10e0\u10d4\u10d9\u10da\u10d4 II", "name:en": "Heraclius II", "name:ru": "\u0418\u0440\u0430\u043a\u043b\u0438\u0439 II", "statue": "equestrian", "tourism": "artwork"}}, {"type": "node", "id": 13175832068, "lat": 41.6860794, "lon": 44.8706183, "tags": {"amenity": "restaurant", "check_date": "2024-08-01"}}, {"type": "way", "id": 26398013, "nodes": [12710527069, 12710527070, 289194028, 11183957798, 12851827196, 11183957797, 289194029, 12710527071, 12710527064, 12710527074, 12710527072, 12710527065, 12710527073, 12710527066, 12710527067, 12710527068, 12710527069], "tags": {"leisure": "park", "name": "\u10e1\u10d0\u10db\u10d2\u10dd\u10e0\u10d8\u10e1 \u10de\u10d0\u10e0\u10d9\u10d8", "name:be": "\u041f\u0430\u0440\u043a \u0421\u0430\u043c\u0433\u043e\u0440\u044b", "name:en": "Samgori Park", "name:ka": "\u10e1\u10d0\u10db\u10d2\u10dd\u10e0\u10d8\u10e1 \u10de\u10d0\u10e0\u10d9\u10d8", "name:ru": "\u041f\u0430\u0440\u043a \u0421\u0430\u043c\u0433\u043e\u0440\u0438"}}, {"type": "way", "id": 77731125, "nodes": [914265531, 12707766489, 12707766490, 914265533, 10240786642, 10240786657, 10240786658, 10240786643, 10240786644, 10240786645, 914265537, 12707766491, 914265538, 12707766492, 914269182, 1466676780, 12706614123, 914269184, 12706614124, 914269186, 2924165055, 914269187, 914269177, 12706614126, 12706614125, 914265531], "tags": {"leisure": "park"}}, {"type": "way", "id": 77738648, "nodes": [914304828, 914304830, 642133313, 10237543773, 12310058716, 12310058715, 12310058714, 914304831, 12310058720, 12310058719, 12310058718, 12310058717, 12310058712, 12310058713, 725040290, 12310058711, 12310058710, 914306287, 914306288, 914306289, 914306290, 10237543830, 914306279, 10237543771, 10237543772, 914306280, 914304828], "tags": {"leisure": "park"}}, {"type": "way", "id": 78252000, "nodes": [918945875, 918945876, 918945879, 918945880, 918945875], "tags": {"amenity": "place_of_worship", "building": "church", "denomination": "orthodox", "description": "Oldest Church in Tbilisi, VIII Century, but nothing is really old there", "historic": "church", "name": "\u10ec\u10db\u10d8\u10dc\u10d3\u10d0 \u10d1\u10d0\u10e0\u10d1\u10d0\u10e0\u10d4", "name:de": "Sankt Barbara", "name:en": "Saint Barbara's", "religion": "christian", "tourism": "attraction"}}, {"type": "way", "id": 78298934, "nodes": [12253689994, 12912122096, 919380934, 737375753, 12891723406, 12891723415, 919380975, 10202612673, 10202612536, 10202645943, 10202645948, 10202645997, 12912104793, 10202645947, 10202645946, 10202645945, 12253689996, 12253689994], "tags": {"leisure": "park"}}, {"type": "way", "id": 78300452, "nodes": [919403160, 10202611846, 10202611845, 919403162, 919403163, 919403165, 919403169, 10202576505, 919403170, 10202576506, 10202611849, 10202611848, 919403172, 919403160], "tags": {"leisure": "park"}}, {"type": "way", "id": 78310711, "nodes": [919456907, 12888483293, 919456910, 919456912, 919456914, 5665686649, 5665686650, 919456881, 919456883, 919456884, 919456886, 12888483288, 12888483287, 919456907], "tags": {"leisure": "park"}}, {"type": "way", "id": 78325616, "nodes": [919556465, 919556466, 919556467, 919556468, 919556469, 919556470, 919556471, 919556472, 919556473, 919556474, 9812180544, 9812180545, 9812180548, 9812180553, 9812180552, 9812180551, 9812180550, 9812180549, 9812180554, 9812180555, 9812180569, 9812180568, 9812180567, 9812180566, 9812180565, 9812180570, 9812180572, 12619127390, 9812180573, 9812180576, 9812180575, 9812180580, 12707778980, 9812180585, 9812180586, 9812180587, 9812180593, 9812180594, 9812180596, 9812180595, 9812180588, 9812180589, 9812180590, 9812238928, 9812180591, 9812180592, 9812180584, 9812180583, 13134728288, 9812180577, 9812180578, 9812180571, 9812180563, 9812180562, 9812180558, 9812180560, 9812180557, 9812180559, 9812180556, 9812180547, 9812180546, 919556475, 9812180606, 13134728282, 13134728283, 13134728284, 13134728285, 13134728286, 13134728287, 919556476, 919556477, 9812180605, 13134728281, 919556478, 13134728289, 12710004887, 12710004871, 12710004870, 12710004890, 919556465], "tags": {"leisure": "park", "name": "\u10e0\u10d8\u10d2\u10d8\u10e1 \u10de\u10d0\u10e0\u10d9\u10d8", "name:be": "\u0420\u044b\u0436\u0441\u043a\u0456 \u043f\u0430\u0440\u043a", "name:en": "Riga Park", "name:ka": "\u10e0\u10d8\u10d2\u10d8\u10e1 \u10de\u10d0\u10e0\u10d9\u10d8", "name:ru": "\u0420\u0438\u0436\u0441\u043a\u0438\u0439 \u043f\u0430\u0440\u043a"}}, {"type": "way", "id": 79750280, "nodes": [930741327, 10212514409, 930741330, 930741332, 930741327], "tags": {"leisure": "park"}}, {"type": "way", "id": 79751744, "nodes": [13168511923, 930761042, 13168511909, 13168511908, 13168511907, 930760990, 930760993, 930760994, 930760997, 930761000, 13168511917, 930761003, 13168511918, 13168511921, 13168511922, 13168511923], "tags": {"leisure": "park"}}, {"type": "way", "id": 131995960, "nodes": [1452349311, 13264829130, 1452349301, 1452349293, 1452349295, 1452349278, 1452349298, 1452349300, 1452349311], "tags": {"addr:city": "\u10d7\u10d1\u10d8\u10da\u10d8\u10e1\u10d8", "addr:country": "GE", "addr:street": "\u10db\u10d4\u10d5\u10d4\u10da\u10d4\u10e1 \u10e5\u10e3\u10e9\u10d0", "alt_name:ru": "\u041d\u0430\u0432\u0442\u043b\u0443\u0433", "amenity": "marketplace", "check_date": "2023-03-18", "int_name": "Bazar ShKS \"Navtlughi\"", "landuse": "retail", "loc_name": "\u10dc\u10d0\u10d5\u10d7\u10da\u10e3\u10e6\u10d8", "name": "\u10d1\u10d0\u10d6\u10d0\u10e0\u10d8 \u10dc\u10d0\u10d5\u10d7\u10da\u10e3\u10e6\u10d8", "name:en": "Bazaar Navtlughi", "name:ka": "\u10dc\u10d0\u10d5\u10d7\u10da\u10e3\u10e6\u10d8\u10e1 \u10d1\u10d0\u10d6\u10d0\u10e0\u10d8", "name:pl": "Bazar Navtlughi", "name:ru": "\u0440\u044b\u043d\u043e\u043a \u041d\u0430\u0432\u0442\u043b\u0443\u0433\u0438", "operator": "\u10e8\u10d9\u10e1 \u201c\u10dc\u10d0\u10d5\u10d7\u10da\u10e3\u10e6\u10d8\u201c", "operator:type": "business"}}, {"type": "way", "id": 175849003, "nodes": [1864085019, 1864085020, 13283848570, 9811556894, 1864085023, 9811556891, 1864085022, 1864085029, 9811556892, 1864085028, 1864085026, 9811556893, 1864085018, 1864085019], "tags": {"leisure": "park", "name": "\u10d2\u10d8\u10dd\u10e0\u10d2\u10d8 \u10db\u10d0\u10e0\u10e2\u10d8\u10d0\u10e8\u10d5\u10d8\u10da\u10d8\u10e1 \u10e1\u10d0\u10ee\u10d4\u10da\u10dd\u10d1\u10d8\u10e1 \u10e1\u10d9\u10d5\u10d4\u10e0\u10d8", "name:be": "\u041f\u0430\u0440\u043a \u0413\u0435\u043e\u0440\u0433\u0456 \u041c\u0430\u0440\u0446\u0456\u044f\u0448\u0432\u0456\u043b\u0456", "name:en": "Giorgi Martiashvili Park", "name:ka": "\u10d2\u10d8\u10dd\u10e0\u10d2\u10d8 \u10db\u10d0\u10e0\u10e2\u10d8\u10d0\u10e8\u10d5\u10d8\u10da\u10d8\u10e1 \u10e1\u10d0\u10ee\u10d4\u10da\u10dd\u10d1\u10d8\u10e1 \u10e1\u10d9\u10d5\u10d4\u10e0\u10d8"}}, {"type": "way", "id": 175849105, "nodes": [1864085787, 1864085777, 1864085793, 1864085794, 1864085771, 1864085786, 1864085798, 1864085784, 1864085783, 1864085782, 13249932021, 13249932022, 1864085795, 1864085776, 1864085788, 1864085773, 1864085792, 1864085778, 9811548695, 1864085772, 13249932090, 9811548694, 1864085780, 9811548693, 9811548692, 9811548691, 1864085779, 1864085768, 1864085770, 1864085790, 1864085769, 1864085787], "tags": {"leisure": "park"}}, {"type": "way", "id": 193893099, "nodes": [2044014627, 2044014621, 2044014609, 8355539811, 8355539814, 8355539813, 8355539812, 2044014643, 2044014613, 2044014604, 13251927240, 13251927241, 2044014615, 2044014641, 13251927239, 13251927238, 2044014627], "tags": {"amenity": "place_of_worship", "building": "church", "denomination": "orthodox", "historic": "yes", "name": "\u10ec\u10db\u10d8\u10dc\u10d3\u10d0 \u10d1\u10d0\u10e0\u10d1\u10d0\u10e0\u10d4", "name:de": "Sankt Barbara", "name:en": "Saint Barbara's", "name:ka": "\u10ec\u10db\u10d8\u10dc\u10d3\u10d0 \u10d1\u10d0\u10e0\u10d1\u10d0\u10e0\u10d4", "name:ru": "\u0426\u0435\u0440\u043a\u043e\u0432\u044c \u0421\u0432\u044f\u0442\u043e\u0439 \u0412\u0430\u0440\u0432\u0430\u0440\u044b", "religion": "christian"}}, {"type": "way", "id": 193893103, "nodes": [2044014653, 5519078039, 5519078038, 5580399518, 5580399516, 5580399515, 5580399514, 5580399512, 5580399513, 5580399517, 5580399520, 2044014629, 5580399519, 2044014639, 10908417017, 5519078041, 2044014625, 2044014653], "tags": {"leisure": "park", "name": "\u10db\u10d0\u10d8\u10dd\u10e0 \u10e8\u10d0\u10da\u10d5\u10d0 \u10d3\u10dd\u10da\u10d8\u10eb\u10d8\u10e1 \u10e1\u10d0\u10ee\u10d4\u10da\u10dd\u10d1\u10d8\u10e1 \u10e1\u10d9\u10d5\u10d4\u10e0\u10d8", "name:be": "\u041f\u0430\u0440\u043a \u043c\u044d\u0440\u0430 \u0428\u0430\u043b\u0432\u044b \u0414\u0430\u043b\u0456\u0434\u0437\u044d", "name:en": "Mayor Shalva Dolidze Park", "name:ka": "\u10db\u10d0\u10d8\u10dd\u10e0 \u10e8\u10d0\u10da\u10d5\u10d0 \u10d3\u10dd\u10da\u10d8\u10eb\u10d8\u10e1 \u10e1\u10d0\u10ee\u10d4\u10da\u10dd\u10d1\u10d8\u10e1 \u10e1\u10d9\u10d5\u10d4\u10e0\u10d8"}}, {"type": "way", "id": 211248364, "nodes": [13239956105, 9603834188, 9603834189, 9603861621, 12707764593, 12707766102, 12707764592, 13167539393, 13167539391, 13167539392, 2925806381, 13239956103, 2212694727, 2212694729, 2212694669, 2212694724, 2925806384, 13167539380, 13167539381, 13167539382, 13167539383, 9603861627, 9603861626, 9603834187, 2212694740, 2212694748, 9603834192, 13239956105], "tags": {"amenity": "marketplace", "landuse": "commercial", "name": "\u10e1\u10d5\u10d0\u10dc\u10d4\u10d1\u10d8\u10e1 \u10d1\u10d0\u10d6\u10e0\u10dd\u10d1\u10d0"}}, {"type": "way", "id": 222113824, "nodes": [2310864563, 2310864564, 2310864565, 2310864566, 2310864563], "tags": {"leisure": "park"}}, {"type": "way", "id": 284456621, "nodes": [2882005743, 2882005739, 2882005735, 2882005734, 2882005717, 2882005720, 13152893584, 13152893583, 13152893582, 2882005726, 2882005743], "tags": {"addr:city": "\u10d7\u10d1\u10d8\u10da\u10d8\u10e1\u10d8", "addr:country": "GE", "addr:housenumber": "9", "addr:postcode": "0190", "addr:street": "Airport Settlement VIII st", "building": "yes", "building:levels": "3", "building:material": "plaster", "name": "Hotel S.R", "roof:colour": "#C0C0C0", "roof:shape": "hipped", "tourism": "hotel"}}, {"type": "way", "id": 367602837, "nodes": [3715119592, 3715119593, 3715119590, 3715119591, 3715119592], "tags": {"leisure": "park"}}, {"type": "way", "id": 484771022, "nodes": [4775226342, 4775226343, 4775226344, 4775226345, 4775226346, 4775226347, 4775226342], "tags": {"addr:city": "\u10d7\u10d1\u10d8\u10da\u10d8\u10e1\u10d8", "addr:country": "GE", "addr:housenumber": "5", "addr:postcode": "0182", "addr:street": "Zurab Abuladze street", "building": "yes", "internet_access": "wlan", "internet_access:fee": "no", "internet_access:ssid": "whyme", "name": "Hostel Why me?", "rooms": "2", "tourism": "hostel"}}, {"type": "way", "id": 569862420, "nodes": [5479648222, 5479648223, 5479648224, 5479648225, 5479648226, 5479648227, 5479648228, 5479648222], "tags": {"leisure": "park", "name": "\u10d2\u10d8\u10dd\u10e0\u10d2\u10d8 \u10db\u10d0\u10e0\u10e2\u10d8\u10d0\u10e8\u10d5\u10d8\u10da\u10d8\u10e1 \u10e1\u10d0\u10ee\u10d4\u10da\u10dd\u10d1\u10d8\u10e1 \u10e1\u10d9\u10d5\u10d4\u10e0\u10d8", "name:be": "\u041f\u0430\u0440\u043a \u0413\u0435\u043e\u0440\u0433\u0456 \u041c\u0430\u0440\u0446\u0456\u044f\u0448\u0432\u0456\u043b\u0456", "name:en": "Giorgi Martiashvili Park", "name:ka": "\u10d2\u10d8\u10dd\u10e0\u10d2\u10d8 \u10db\u10d0\u10e0\u10e2\u10d8\u10d0\u10e8\u10d5\u10d8\u10da\u10d8\u10e1 \u10e1\u10d0\u10ee\u10d4\u10da\u10dd\u10d1\u10d8\u10e1 \u10e1\u10d9\u10d5\u10d4\u10e0\u10d8"}}, {"type": "way", "id": 583458557, "nodes": [5578089688, 13175541632, 13175541631, 5578089687, 5578089686, 5578089685, 5578089688], "tags": {"leisure": "park"}}, {"type": "way", "id": 583564474, "nodes": [5579124324, 5579124325, 5579124326, 5579124327, 5579124324], "tags": {"leisure": "park"}}, {"type": "way", "id": 583564475, "nodes": [5579124328, 13081698583, 5579124329, 13081698582, 5579124330, 13081698581, 5579124331, 13081698580, 5579124328], "tags": {"leisure": "park"}}, {"type": "way", "id": 583733054, "nodes": [5580604120, 13151826311, 12310178070, 12310178071, 5580604119, 13151826312, 6536416557, 13151826313, 6536416558, 5580604120], "tags": {"leisure": "park"}}, {"type": "way", "id": 584150684, "nodes": [5584201969, 10251501591, 10251501590, 10251501592, 10251501593, 5584201967, 5584201965, 5584201964, 10251501656, 5584201963, 5584201962, 5584201961, 5584201960, 10251501594, 5584201959, 5584202000, 5584201999, 10251501762, 5584201998, 10251501805, 10251502041, 10251501804, 10251501803, 10251501802, 10251501801, 10251501800, 10251501799, 10251501798, 10251501797, 10251502078, 10251502138, 10251501796, 10251501795, 10251501794, 10251501793, 10251501792, 10251501791, 10251501846, 10251501847, 10251501848, 10251501849, 10251501790, 10251501840, 10251501789, 10251501788, 10251501863, 10251501787, 10251501786, 10251501785, 10251501784, 10251501783, 10251501782, 10251501781, 10251501780, 10251501779, 10251501778, 10251501777, 10251501776, 10251501775, 10251501774, 10251501773, 10251501772, 10251501771, 10251501770, 10251501769, 10251502306, 10251501768, 10251501767, 10251501766, 10251501765, 10251501764, 10251501763, 5584201997, 10251502305, 2879378936, 2879378931, 5584201996, 5584201995, 776578396, 10251501701, 5584201994, 5584201993, 5584201992, 5584201991, 10251501595, 10251501596, 5584201990, 5584201989, 5584201983, 5584201982, 10251501597, 5584201981, 5584201980, 5584201979, 10251501757, 5584201977, 10251501756, 5584201976, 10251501598, 5584201975, 5584201974, 5584201973, 2880323583, 2880323573, 2880323563, 2880323559, 2880323553, 2880323544, 5584201972, 10251502304, 10251501582, 5584201969], "tags": {"leisure": "park"}}, {"type": "way", "id": 899957210, "nodes": [8361493124, 9808898173, 8361493125, 13234486412, 13234486411, 9808898440, 8361493126, 9808898445, 9808898482, 9808898446, 9808898447, 8361493127, 9808898443, 9808898442, 9808898441, 9808898444, 8361493128, 13234486314, 9808898172, 8361493129, 9808898171, 9808898167, 9808898166, 9808898165, 8361493124], "tags": {"alt_name": "VIII \u10de\u10dd\u10da\u10d9\u10d8", "alt_name:ka": "VIII \u10de\u10dd\u10da\u10d9\u10d8", "alt_name:ru": "8-\u0439 \u041f\u043e\u043b\u043a", "amenity": "marketplace", "description": "Here you can buy various car parts and auto accessories", "name": "\u10db\u10d4\u10e0\u10d5\u10d4 \u10de\u10dd\u10da\u10d9\u10d8", "name:be": "\u0412\u043e\u0441\u044c\u043c\u044b \u043f\u043e\u043b\u043a", "name:ka": "\u10db\u10d4\u10e0\u10d5\u10d4 \u10de\u10dd\u10da\u10d9\u10d8", "name:ru": "\u0412\u043e\u0441\u044c\u043c\u043e\u0439 \u043f\u043e\u043b\u043a", "shop": "car_parts"}}, {"type": "way", "id": 1042725829, "nodes": [9598113657, 9598113658, 9598113659, 11374102775, 11374102774, 11374102779, 9598113657], "tags": {"leisure": "park"}}, {"type": "way", "id": 1042725841, "nodes": [13093102201, 13093102202, 11374099715, 11374099714, 11374099713, 11374099712, 13093102201], "tags": {"leisure": "park"}}, {"type": "way", "id": 1043486330, "nodes": [13167575651, 13167575648, 13167575649, 13167575647, 13167575653, 13167575650, 13167575652, 13167575646, 13167575651], "tags": {"leisure": "park"}}, {"type": "way", "id": 1043512695, "nodes": [9603861653, 2925684658, 2925684653, 9603861651, 9603861650, 9603861653], "tags": {"leisure": "park"}}, {"type": "way", "id": 1067239437, "nodes": [9799231568, 12705810925, 12705810926, 9799231573, 9799231575, 9799231576, 9799231577, 13249938890, 9799231560, 9799231561, 9799231562, 9799231563, 9799231564, 9799231565, 9799231566, 9799231567, 9799231568], "tags": {"leisure": "park"}}, {"type": "way", "id": 1068473879, "nodes": [9808474335, 9808474353, 9808474336, 9808474337, 9808474338, 9808474339, 9808474340, 9808474341, 9808474342, 9808474343, 9808474344, 9808474345, 9808474346, 9808474347, 9808474348, 9808474335], "tags": {"leisure": "park"}}, {"type": "way", "id": 1068516007, "nodes": [9808694393, 9808694394, 9808694395, 9808694396, 9808694397, 9808694398, 9808694399, 9808694400, 9808694401, 9808694402, 9808694403, 9808694404, 9808694405, 9808694406, 9808694407, 9808694408, 9808694415, 9808694414, 9808694412, 9808694410, 9808694409, 9808694393], "tags": {"leisure": "park"}}, {"type": "way", "id": 1068516055, "nodes": [9808766918, 9808766919, 9808766920, 9808766921, 9808766922, 9808766923, 12725751178, 12725751179, 12725751182, 12725751180, 12725751184, 12725751189, 12725751183, 12725751177, 12725751181, 9808766924, 9808766925, 9808766926, 9808766927, 9808766928, 9808766918], "tags": {"leisure": "park"}}, {"type": "way", "id": 1068539257, "nodes": [13234486574, 13234486568, 12725752131, 12725752133, 12725752135, 12725752134, 13234486572, 13234486573, 13234486574], "tags": {"leisure": "park"}}, {"type": "way", "id": 1068848949, "nodes": [9811401722, 9811401723, 9811401724, 9811401725, 9811401726, 9811401727, 9811401728, 9811401729, 9811401730, 9811401731, 9811401732, 9811401733, 9811401722], "tags": {"leisure": "park"}}, {"type": "way", "id": 1068848953, "nodes": [9811401755, 9811401756, 9811401757, 9811401758, 9811401755], "tags": {"leisure": "park"}}, {"type": "way", "id": 1068858834, "nodes": [9811548585, 9811548626, 9811548627, 9811548628, 9811548629, 9811548583, 9811548584, 9811548585], "tags": {"leisure": "park"}}, {"type": "way", "id": 1068858837, "nodes": [9811548572, 13246812923, 9811548571, 9811548644, 9811548645, 9811548646, 9811548647, 9811548648, 9811548573, 9811548572], "tags": {"leisure": "park"}}, {"type": "way", "id": 1068946292, "nodes": [9812238997, 9812238998, 9812239178, 9812238999, 9812239000, 9812239001, 9812239002, 9812239003, 9812239004, 9812239005, 9812239006, 9812239234, 9812239007, 9812239008, 9812239009, 9812239010, 9812239011, 9812239012, 9812239013, 9812239014, 9812239015, 9812239104, 9812239016, 9812239017, 9812239098, 9812239018, 9812239019, 9812239020, 9812239021, 9812239025, 9812239026, 9812239027, 9812239028, 9812239029, 9812239030, 9812238997], "tags": {"leisure": "park"}}, {"type": "way", "id": 1069648743, "nodes": [9817709905, 9817709907, 9817709908, 9817709906, 9817709905], "tags": {"leisure": "park"}}, {"type": "way", "id": 1075667985, "nodes": [9865188493, 9865188520, 9865188521, 9865188524, 9865188494, 9865188522, 9865188523, 9865188466, 9865188525, 9865188495, 9865188496, 9865188497, 9865188498, 9865188586, 9865188499, 9865188500, 9865188493], "tags": {"leisure": "park"}}, {"type": "way", "id": 1076667812, "nodes": [9873050551, 9880456803, 9880456802, 9873050552, 9873050553, 9873050554, 9873050607, 9873050605, 9873050606, 9873050556, 13253164691, 9873050557, 9873050558, 9873050551], "tags": {"amenity": "marketplace", "landuse": "retail", "loc_name": "\u10dc\u10d0\u10d5\u10d7\u10da\u10e3\u10e6\u10d8", "loc_name:ru": "\u041d\u0430\u0432\u0442\u043b\u0443\u0433"}}, {"type": "way", "id": 1076667819, "nodes": [9873050551, 9873050595, 9873050596, 9873050597, 9873050598, 9880456960, 9873050599, 13253164585, 13253164586, 9873050600, 11212625648, 9873050601, 11212625647, 9873050602, 9873050603, 9873050604, 9873050556, 13253164691, 9873050557, 9873050558, 9873050551], "tags": {"addr:housenumber": "4", "addr:street": "\u10db\u10d4\u10d5\u10d4\u10da\u10d4\u10e1 \u10e5\u10e3\u10e9\u10d0", "amenity": "marketplace", "landuse": "retail", "loc_name": "\u10dc\u10d0\u10d5\u10d7\u10da\u10e3\u10e6\u10d8", "loc_name:ru": "\u041d\u0430\u0432\u0442\u043b\u0443\u0433", "name:en": "Navtlughi Flea Market", "opening_hours": "Sa-Su 9:00-17:00", "second_hand": "only"}}, {"type": "way", "id": 1077617262, "nodes": [9880456783, 9880456784, 9880456785, 12729099606, 12729099607, 12729099605, 9880456789, 9880456783], "tags": {"leisure": "park"}}, {"type": "way", "id": 1077617285, "nodes": [10760045533, 9880456933, 9880456934, 9880456936, 9880456937, 10760045534, 10760045533], "tags": {"leisure": "park"}}, {"type": "way", "id": 1098460287, "nodes": [10057740992, 10057740993, 10057740994, 10057740995, 10057740992], "tags": {"leisure": "park"}}, {"type": "way", "id": 1108252649, "nodes": [12729098977, 12729098978, 12729098981, 12729098974, 12729098976, 12729098983, 12729098973, 12729098982, 12729098985, 12729098984, 12729098987, 12729098986, 12729098975, 12729098979, 12729098980, 12729098988, 10140004839, 10140004840, 10140004841, 12729098977], "tags": {"leisure": "park"}}, {"type": "way", "id": 1115560371, "nodes": [10202388544, 10202388541, 10202388542, 10202388543, 10202388544], "tags": {"leisure": "park"}}, {"type": "way", "id": 1115560382, "nodes": [10202388526, 12307308622, 12307308623, 10202388582, 12729099367, 10202388522, 10202388482, 10202388525, 10202388526], "tags": {"leisure": "park"}}, {"type": "way", "id": 1116206773, "nodes": [12888477896, 10209052989, 10209052990, 12888477895, 12888477896], "tags": {"leisure": "park"}}, {"type": "way", "id": 1116206784, "nodes": [10209053019, 10209053020, 10209053021, 10209053022, 10209053019], "tags": {"leisure": "park"}}, {"type": "way", "id": 1116301120, "nodes": [10209916454, 10209916455, 10209916456, 10209916457, 10209916458, 10209916459, 12569725592, 12569725593, 12569725587, 10209916454], "tags": {"leisure": "park"}}, {"type": "way", "id": 1116580319, "nodes": [10212412102, 10212421949, 10212421951, 10212421950, 10212412102], "tags": {"leisure": "park"}}, {"type": "way", "id": 1117194910, "nodes": [10218073022, 10218073023, 10218073024, 10218073025, 10218073026, 10218073027, 10218073028, 10218073029, 10218073030, 10218073031, 10218073022], "tags": {"leisure": "park"}}, {"type": "way", "id": 1117906085, "nodes": [10224386890, 10224386891, 10224386892, 10224386893, 10224386890], "tags": {"leisure": "park"}}, {"type": "way", "id": 1118095319, "nodes": [10225890182, 10225890183, 10225890184, 10225890185, 10225890182], "tags": {"leisure": "park"}}, {"type": "way", "id": 1118095332, "nodes": [10225890247, 10225890248, 10225890249, 10225890250, 10225890247], "tags": {"leisure": "park"}}, {"type": "way", "id": 1119332315, "nodes": [10237544034, 10237544035, 10237544036, 10237544037, 10237544023, 10237544022, 10237544021, 10237544034], "tags": {"leisure": "park"}}, {"type": "way", "id": 1119337893, "nodes": [13154276562, 12729099216, 12729099215, 13154276561, 12729099198, 10237595507, 10237595508, 10237595509, 10237595510, 10237595511, 10237595512, 12729099197, 10237595514, 13154276562], "tags": {"leisure": "park"}}, {"type": "way", "id": 1119410135, "nodes": [10238233079, 10238233080, 10238233081, 10238233082, 10238233079], "tags": {"leisure": "park"}}, {"type": "way", "id": 1119410171, "nodes": [10238233361, 10238233332, 10238233333, 10238233334, 13164154340, 13164154339, 10238233335, 10238233336, 13164154332, 10238233361], "tags": {"leisure": "park"}}, {"type": "way", "id": 1119413657, "nodes": [10238264857, 10238264858, 914432144, 10238264859, 10238264860, 10238264857], "tags": {"leisure": "park"}}, {"type": "way", "id": 1119654325, "nodes": [10240640775, 10240640776, 10240640777, 13151760179, 10240640775], "tags": {"leisure": "park"}}, {"type": "way", "id": 1119668107, "nodes": [13152777371, 13152777372, 13152777373, 13152777374, 13152777371], "tags": {"leisure": "park"}}, {"type": "way", "id": 1119668127, "nodes": [10240762549, 12725751197, 12725751198, 12725751199, 12725751200, 12725752101, 12725752103, 10240762568, 10240762569, 10240762570, 10240762571, 13152777163, 13152777179, 13152777178, 13152777177, 13152777176, 13152777174, 13152777173, 13152777172, 13152777171, 13152777170, 13152777169, 13152777168, 13152777167, 13152777115, 13152777166, 13152777165, 13152777175, 10240762606, 10240762573, 10240762574, 10240762575, 10240762576, 2890549859, 10240762555, 10240762554, 10240762553, 10240762552, 10240762551, 10240762550, 10240762549], "tags": {"landuse": "recreation_ground", "leisure": "park"}}, {"type": "way", "id": 1119668224, "nodes": [10240763031, 10240763066, 10240762682, 12707766544, 13116188773, 13116196140, 13116196139, 13116196138, 13116196137, 10240763064, 13116196136, 13116196135, 10240763006, 13116196134, 13116196133, 10240763007, 10240763063, 10240763008, 13151759829, 10240763083, 13151759828, 914310044, 13116188771, 13116188772, 13116196129, 13116196130, 10240763012, 10240763013, 10240763014, 10240763015, 10240763016, 10240763017, 10240763018, 10240763019, 10240763020, 10240763021, 10240763022, 10240763023, 10240763067, 13116196131, 13116196132, 10240763041, 10240763040, 13152777166, 13152777115, 13152777117, 10240763024, 10240763054, 10240763025, 10240763026, 10240763027, 10240763028, 13116196128, 13116196127, 10240763029, 10240763030, 10240763031], "tags": {"landuse": "recreation_ground", "leisure": "park", "name": "\u10d0\u10da\u10d8\u10e8\u10d4\u10e0 \u10dc\u10d0\u10d5\u10dd\u10d8\u10e1 \u10e1\u10d0\u10ee\u10d4\u10da\u10dd\u10d1\u10d8\u10e1 \u10d5\u10d0\u10e0\u10d9\u10d4\u10d7\u10d8\u10da\u10d8\u10e1 \u10ea\u10d4\u10dc\u10e2\u10e0\u10d0\u10da\u10e3\u10e0\u10d8 \u10de\u10d0\u10e0\u10d9\u10d8", "name:be": "\u0426\u044d\u043d\u0442\u0440\u0430\u043b\u044c\u043d\u044b \u043f\u0430\u0440\u043a \u0412\u0430\u0440\u043a\u0435\u0446\u0456\u043b\u0456", "name:en": "Varketili Central Park named after Alisher Navoi", "name:etymology": "\u10d0\u10da\u10d8\u10e8\u10d4\u10e0 \u10dc\u10d0\u10d5\u10dd\u10d8", "name:etymology:wikidata": "Q503340", "name:etymology:wikipedia": "ka:\u10d0\u10da\u10d8\u10e8\u10d4\u10e0 \u10dc\u10d0\u10d5\u10dd\u10d8", "name:ka": "\u10d0\u10da\u10d8\u10e8\u10d4\u10e0 \u10dc\u10d0\u10d5\u10dd\u10d8\u10e1 \u10e1\u10d0\u10ee\u10d4\u10da\u10dd\u10d1\u10d8\u10e1 \u10d5\u10d0\u10e0\u10d9\u10d4\u10d7\u10d8\u10da\u10d8\u10e1 \u10ea\u10d4\u10dc\u10e2\u10e0\u10d0\u10da\u10e3\u10e0\u10d8 \u10de\u10d0\u10e0\u10d9\u10d8", "name:ru": "\u0426\u0435\u043d\u0442\u0440\u0430\u043b\u044c\u043d\u044b\u0439 \u043f\u0430\u0440\u043a \u0412\u0430\u0440\u043a\u0435\u0442\u0438\u043b\u0438 \u0438\u043c\u0435\u043d\u0438 \u0410\u043b\u0438\u0448\u0435\u0440\u0430 \u041d\u0430\u0432\u043e\u0438"}}, {"type": "way", "id": 1120850474, "nodes": [10251502258, 12777195673, 12777195674, 10251502262, 12707766415, 10251502303, 10251502264, 13136700582, 12777195679, 12777195676, 12777195677, 12777195678, 10251502265, 10251502266, 13136700584, 13136700585, 13136700586, 10251502268, 10251502269, 10251502270, 10251502271, 10251502272, 10251502258], "tags": {"leisure": "park"}}, {"type": "way", "id": 1153421362, "nodes": [13252978025, 13252978029, 13252978030, 10727318232, 10727318233, 13252978028, 13252978026, 10727318236, 10727318237, 13252978027, 10727318243, 10727318242, 10727318241, 10727318240, 13252978025], "tags": {"leisure": "park"}}, {"type": "way", "id": 1173070673, "nodes": [10706686169, 10899517591, 10899517592, 10899517593, 10899517594, 10899517595, 10899517596, 10899517597, 10899517598, 10899517599, 10899517600, 10706686167, 5583941636, 10899517601, 10706686169], "tags": {"leisure": "park"}}, {"type": "way", "id": 1173070682, "nodes": [10899517651, 10899517652, 10899517653, 10899517654, 10899517655, 10899517651], "tags": {"leisure": "park"}}, {"type": "way", "id": 1173070697, "nodes": [12353600333, 12352342521, 10899537294, 10899537295, 10908226214, 10908226219, 10899537297, 10899537298, 12352342302, 12352342301, 12352342300, 12352342299, 10899517739, 10899517740, 10899517741, 10899517742, 10899517743, 10899517744, 10899517745, 10899517746, 10899517747, 10899517748, 10899517749, 10899517750, 10899517751, 10899517752, 10899517753, 10899517754, 12870659464, 12352337466, 12352337471, 12352337482, 12352337487, 12352337464, 12352337463, 12352337462, 12352337461, 12352337478, 12870659463, 12870659462, 13129568467, 9757565197, 13129568468, 10899517737, 12352342298, 10899480798, 10899517803, 10899480794, 10899480793, 10899480792, 10899480790, 10899480787, 10899480786, 10899480785, 10899480782, 12353600343, 12353600342, 12353600341, 12353600340, 10899537291, 13250828081, 12353600333], "tags": {"leisure": "park"}}, {"type": "way", "id": 1173698221, "nodes": [10905303042, 10905303044, 10905303043, 10905302935, 10905303042], "tags": {"leisure": "park"}}, {"type": "way", "id": 1173714009, "nodes": [10905392253, 10905392254, 10905392255, 10905392256, 10905392238, 10905392239, 10905392240, 13252023598, 13252023599, 10905392252, 10905392251, 10905392250, 10905392253], "tags": {"leisure": "park"}}, {"type": "way", "id": 1173714017, "nodes": [10905392289, 10905392290, 12779048738, 10905392293, 10905392289], "tags": {"leisure": "park"}}, {"type": "way", "id": 1173714029, "nodes": [10905392342, 13252333574, 13252333573, 10905392343, 10905392344, 10905392345, 10905392346, 10905392347, 10905392342], "tags": {"leisure": "park"}}, {"type": "way", "id": 1173714044, "nodes": [10905392442, 13252333504, 13252333505, 10905392443, 10905392444, 13252023425, 13252023424, 10905392445, 10905392446, 10905392447, 10905392442], "tags": {"landuse": "recreation_ground", "leisure": "park"}}, {"type": "way", "id": 1173714060, "nodes": [10905392511, 10905392512, 10905392508, 10905392509, 10905392510, 10905392511], "tags": {"leisure": "park"}}, {"type": "way", "id": 1173967541, "nodes": [10908226228, 10908226230, 10908226231, 8355542654, 8355542653, 13251927471, 994376606, 10908226228], "tags": {"leisure": "park"}}, {"type": "way", "id": 1173985032, "nodes": [10908427155, 10908427156, 10908427157, 10908427158, 10908427159, 10908427160, 10908427155], "tags": {"leisure": "park"}}, {"type": "way", "id": 1226579169, "nodes": [9598113643, 11374102777, 11374102776, 11374102778, 9598113641, 9598113642, 9598113643], "tags": {"leisure": "park"}}, {"type": "way", "id": 1249133113, "nodes": [11610692988, 11610692987, 11610692986, 11610692985, 2924165042, 11610692988], "tags": {"leisure": "park"}}, {"type": "way", "id": 1298165922, "nodes": [12026539496, 12026539494, 12026539492, 12026539493, 4394577789, 12026539495, 12026539491, 12026539490, 12026539496], "tags": {"addr:housenumber": "52", "addr:street": "\u10db\u10d8\u10ee\u10d4\u10d8\u10da \u10d2\u10d0\u10ee\u10dd\u10d9\u10d8\u10eb\u10d8\u10e1 \u10e5\u10e3\u10e9\u10d0", "building": "hotel", "contact:mobile": "+995 568 88 87 97", "contact:phone": "+995 32 279 78 88", "email": "hotelatu@gmail.com", "internet_access": "wlan", "name": "\u10d0\u10d7\u10e3", "name:en": "ATU", "name:ka": "\u10d0\u10d7\u10e3", "opening_hours": "24/7", "operator": "HOTEL ATU", "tourism": "hotel", "website": "http://hotelatu.ge"}}, {"type": "way", "id": 1301443624, "nodes": [12054498719, 12054498720, 13174342488, 12054498721, 12054498733, 12054498732, 12054498731, 12054498730, 12054498729, 12054498728, 12054498727, 12054498726, 778941507, 778941504, 12054498717, 13174342489, 12054498718, 13174342486, 12054498719], "tags": {"addr:city": "\u10d7\u10d1\u10d8\u10da\u10d8\u10e1\u10d8", "addr:country": "GE", "addr:housenumber": "2", "addr:street": "\u10db\u10d8\u10ee\u10d4\u10d8\u10da \u10d2\u10d0\u10ee\u10dd\u10d9\u10d8\u10eb\u10d8\u10e1 \u10e5\u10e3\u10e9\u10d0", "amenity": "restaurant", "contact:facebook": "https://www.facebook.com/RestaurantVakhtanguri/", "contact:instagram": "https://www.instagram.com/vakhtanguri_tbilisi/", "contact:mobile": "+995 558 99 99 29", "cuisine": "georgian", "delivery": "yes", "diet:dairy_free": "no", "diet:fruitarian": "no", "diet:gluten_free": "no", "diet:halal": "yes", "diet:kosher": "yes", "diet:lacto_vegetarian": "no", "diet:lactose_free": "no", "diet:ovo_vegetarian": "no", "diet:pescetarian": "no", "diet:raw": "no", "diet:vegan": "no", "diet:vegetarian": "no", "indoor_seating": "yes", "internet_access": "wlan", "internet_access:fee": "no", "name": "\u10d5\u10d0\u10ee\u10e2\u10d0\u10dc\u10d2\u10e3\u10e0\u10d8", "name:en": "Vakhtanguri", "name:ka": "\u10d5\u10d0\u10ee\u10e2\u10d0\u10dc\u10d2\u10e3\u10e0\u10d8", "name:ru": "\u0412\u0430\u0445\u0442\u0430\u043d\u0433\u0443\u0440\u0438", "opening_hours": "Mo-Su 10:00-00:00", "outdoor_seating": "yes", "payment:cash": "yes", "payment:credit_cards": "yes", "payment:cryptocurrencies": "no", "payment:debit_cards": "yes", "payment:electronic_purses": "no", "reservation": "recommended", "takeaway": "yes"}}, {"type": "way", "id": 1301443626, "nodes": [12054498734, 12054498733, 12054498723, 12054498732, 12054498731, 12054498730, 12054498729, 12054498728, 12054498727, 12054498726, 778941507, 778941504, 12054498725, 12054498724, 12054498734], "tags": {"amenity": "restaurant", "building": "retail", "indoor_seating": "yes", "outdoor_seating": "yes", "wheelchair": "limited"}}, {"type": "way", "id": 1327638252, "nodes": [12285910036, 919344105, 919344106, 12282773647, 12282773648, 919344108, 12282773646, 12285910036], "tags": {"leisure": "park"}}, {"type": "way", "id": 1358227679, "nodes": [12569725607, 12569725608, 12569725609, 12569725610, 12569725611, 12569725612, 12569725613, 12569725614, 2516148580, 12569725607], "tags": {"area": "yes", "artwork_type": "architecture", "tourism": "artwork"}}, {"type": "way", "id": 1388735417, "nodes": [9869906391, 9869906390, 289179582, 12855111928, 9869906389, 12855111931, 12855111930, 12855111929, 289179581, 9869906409, 9869906410, 2381244754, 9869916408, 9869916409, 2381244748, 9869906392, 12855111934, 9869906391], "tags": {"amenity": "marketplace", "landuse": "commercial"}}, {"type": "way", "id": 1392313398, "nodes": [12888460017, 919456897, 12888508902, 12888508903, 919456899, 8660202539, 12888460018, 12888460014, 12888460013, 12888460017], "tags": {"leisure": "park"}}, {"type": "way", "id": 1392316416, "nodes": [12888483291, 919456889, 12888483298, 12888483294, 12888483295, 12888483299, 919456906, 12888483292, 12888483289, 12888483290, 12888483291], "tags": {"leisure": "park"}}, {"type": "way", "id": 1392316417, "nodes": [12888483297, 12888483300, 919456892, 919456894, 10209021661, 919456896, 12888460019, 12888460016, 12888460015, 12888460020, 919456901, 919456903, 919456904, 12888508901, 12888483296, 12888483297], "tags": {"leisure": "park"}}, {"type": "way", "id": 1392316890, "nodes": [12888441855, 10202612532, 8660262667, 12888441852, 10202612530, 778223146, 10202612535, 778223155, 12888441857, 12888441856, 12888441855], "tags": {"leisure": "park"}}, {"type": "way", "id": 1392409536, "nodes": [10209866556, 10209866557, 10209866558, 11246034537, 10209866560, 12889270994, 12889270993, 10209866556], "tags": {"leisure": "park"}}, {"type": "way", "id": 1392657022, "nodes": [10202653343, 12729099346, 737375753, 10202653343], "tags": {"amenity": "restaurant", "check_date": "2025-06-12", "landuse": "commercial", "name": "\u10e4\u10d8\u10ed\u10d5\u10d4\u10d1\u10d8"}}, {"type": "way", "id": 1424472269, "nodes": [13093102315, 11374102798, 11374102799, 13093102313, 13093102314, 13093102315], "tags": {"leisure": "park"}}, {"type": "way", "id": 1424472274, "nodes": [13093102355, 13093102354, 13093102353, 13093102352, 13093102351, 13093102350, 13093102349, 13093102348, 13093102347, 13093102346, 13093102355], "tags": {"leisure": "park"}}, {"type": "node", "id": 10899480798, "lat": 41.6707403, "lon": 44.8579378}, {"type": "node", "id": 10899517737, "lat": 41.670925, "lon": 44.8559408}, {"type": "node", "id": 12352342298, "lat": 41.6707082, "lon": 44.857936}, {"type": "node", "id": 12870659464, "lat": 41.6710758, "lon": 44.8559741}, {"type": "node", "id": 10899480785, "lat": 41.6695596, "lon": 44.8658256}, {"type": "node", "id": 10899480786, "lat": 41.6700154, "lon": 44.8642162}, {"type": "node", "id": 10899480787, "lat": 41.6701707, "lon": 44.8638098}, {"type": "node", "id": 10899480790, "lat": 41.67037, "lon": 44.8629475}, {"type": "node", "id": 10899480792, "lat": 41.6706134, "lon": 44.8618357}, {"type": "node", "id": 10899480793, "lat": 41.6709198, "lon": 44.8604672}, {"type": "node", "id": 10899480794, "lat": 41.6709817, "lon": 44.8599354}, {"type": "node", "id": 10899517803, "lat": 41.6709858, "lon": 44.8597992}, {"type": "node", "id": 10899537291, "lat": 41.6710085, "lon": 44.8609972}, {"type": "node", "id": 12353600340, "lat": 41.6701389, "lon": 44.8646691}, {"type": "node", "id": 12353600341, "lat": 41.6698364, "lon": 44.8658735}, {"type": "node", "id": 10899480782, "lat": 41.66924, "lon": 44.8669709}, {"type": "node", "id": 10905392289, "lat": 41.6709639, "lon": 44.8713968}, {"type": "node", "id": 10905392290, "lat": 41.6708091, "lon": 44.8721907}, {"type": "node", "id": 12353600342, "lat": 41.669169, "lon": 44.8685955}, {"type": "node", "id": 12353600343, "lat": 41.6688986, "lon": 44.8685002}, {"type": "node", "id": 10202388482, "lat": 41.6700317, "lon": 44.8775738}, {"type": "node", "id": 10202388522, "lat": 41.6699256, "lon": 44.8775236}, {"type": "node", "id": 10202388525, "lat": 41.6705351, "lon": 44.8778224}, {"type": "node", "id": 10202388526, "lat": 41.67042, "lon": 44.8783431}, {"type": "node", "id": 10202388582, "lat": 41.6698469, "lon": 44.8780949}, {"type": "node", "id": 10905392250, "lat": 41.6709229, "lon": 44.874547}, {"type": "node", "id": 10905392251, "lat": 41.6709489, "lon": 44.8746328}, {"type": "node", "id": 10905392252, "lat": 41.670869, "lon": 44.8747288}, {"type": "node", "id": 10905392253, "lat": 41.6708944, "lon": 44.8745262}, {"type": "node", "id": 10905392254, "lat": 41.6709475, "lon": 44.8743954}, {"type": "node", "id": 12307308622, "lat": 41.6701376, "lon": 44.8782693}, {"type": "node", "id": 12307308623, "lat": 41.6701575, "lon": 44.8781814}, {"type": "node", "id": 12729099367, "lat": 41.6698519, "lon": 44.8780621}, {"type": "node", "id": 13252023598, "lat": 41.6709915, "lon": 44.8746765}, {"type": "node", "id": 13252023599, "lat": 41.6709519, "lon": 44.8747677}, {"type": "node", "id": 2044014604, "lat": 41.6756994, "lon": 44.8525317}, {"type": "node", "id": 2044014609, "lat": 41.6758204, "lon": 44.8526033}, {"type": "node", "id": 2044014613, "lat": 41.6756941, "lon": 44.8525334}, {"type": "node", "id": 2044014615, "lat": 41.6756809, "lon": 44.852347}, {"type": "node", "id": 2044014621, "lat": 41.6758024, "lon": 44.8525018}, {"type": "node", "id": 2044014625, "lat": 41.676115, "lon": 44.8523693}, {"type": "node", "id": 2044014627, "lat": 41.6757965, "lon": 44.8525036}, {"type": "node", "id": 2044014639, "lat": 41.675949, "lon": 44.8528151}, {"type": "node", "id": 2044014641, "lat": 41.6757499, "lon": 44.8523251}, {"type": "node", "id": 2044014643, "lat": 41.6757113, "lon": 44.8526304}, {"type": "node", "id": 2044014653, "lat": 41.6762471, "lon": 44.8524218}, {"type": "node", "id": 5519078041, "lat": 41.6760682, "lon": 44.8527588}, {"type": "node", "id": 8355539811, "lat": 41.6758147, "lon": 44.8526052}, {"type": "node", "id": 8355539812, "lat": 41.6757168, "lon": 44.8526287}, {"type": "node", "id": 8355539813, "lat": 41.6757316, "lon": 44.8527121}, {"type": "node", "id": 8355539814, "lat": 41.6758282, "lon": 44.8526814}, {"type": "node", "id": 9757565197, "lat": 41.6715654, "lon": 44.8499366}, {"type": "node", "id": 10908417017, "lat": 41.676037, "lon": 44.8527735}, {"type": "node", "id": 10908427155, "lat": 41.6763096, "lon": 44.8517282}, {"type": "node", "id": 10908427156, "lat": 41.6758953, "lon": 44.8517282}, {"type": "node", "id": 10908427157, "lat": 41.6758779, "lon": 44.851887}, {"type": "node", "id": 10908427158, "lat": 41.675857, "lon": 44.8519664}, {"type": "node", "id": 10908427159, "lat": 41.6757785, "lon": 44.8521649}, {"type": "node", "id": 10908427160, "lat": 41.6762485, "lon": 44.8523209}, {"type": "node", "id": 12352337461, "lat": 41.6723268, "lon": 44.8478517}, {"type": "node", "id": 12352337462, "lat": 41.6722565, "lon": 44.8478624}, {"type": "node", "id": 12352337463, "lat": 41.6721638, "lon": 44.8486073}, {"type": "node", "id": 12352337464, "lat": 41.6719301, "lon": 44.8485588}, {"type": "node", "id": 12352337466, "lat": 41.6714819, "lon": 44.8525809}, {"type": "node", "id": 12352337471, "lat": 41.6717574, "lon": 44.8502102}, {"type": "node", "id": 12352337478, "lat": 41.672453, "lon": 44.847523}, {"type": "node", "id": 12352337482, "lat": 41.6717856, "lon": 44.8498688}, {"type": "node", "id": 12352337487, "lat": 41.6718912, "lon": 44.8488949}, {"type": "node", "id": 12870659462, "lat": 41.6718294, "lon": 44.8474145}, {"type": "node", "id": 12870659463, "lat": 41.6721485, "lon": 44.8474333}, {"type": "node", "id": 13129568467, "lat": 41.6716605, "lon": 44.8490433}, {"type": "node", "id": 13129568468, "lat": 41.6715439, "lon": 44.8501393}, {"type": "node", "id": 13251927238, "lat": 41.6757779, "lon": 44.8523987}, {"type": "node", "id": 13251927239, "lat": 41.6757637, "lon": 44.8524032}, {"type": "node", "id": 13251927240, "lat": 41.6756826, "lon": 44.852437}, {"type": "node", "id": 13251927241, "lat": 41.6756961, "lon": 44.8524327}, {"type": "node", "id": 1452349278, "lat": 41.683496, "lon": 44.8527042}, {"type": "node", "id": 1452349298, "lat": 41.6839523, "lon": 44.8527969}, {"type": "node", "id": 1452349300, "lat": 41.6840565, "lon": 44.8525716}, {"type": "node", "id": 1452349311, "lat": 41.6847215, "lon": 44.852754}, {"type": "node", "id": 9811401722, "lat": 41.6887362, "lon": 44.8494545}, {"type": "node", "id": 9811401723, "lat": 41.6886765, "lon": 44.849418}, {"type": "node", "id": 9811401724, "lat": 41.6886466, "lon": 44.8494148}, {"type": "node", "id": 9811401725, "lat": 41.6885941, "lon": 44.8494265}, {"type": "node", "id": 9811401726, "lat": 41.6884346, "lon": 44.8496892}, {"type": "node", "id": 9811401727, "lat": 41.6886787, "lon": 44.8496764}, {"type": "node", "id": 9811401728, "lat": 41.6886761, "lon": 44.8499601}, {"type": "node", "id": 9811401729, "lat": 41.6888139, "lon": 44.8500936}, {"type": "node", "id": 9811401730, "lat": 41.6888841, "lon": 44.8500844}, {"type": "node", "id": 9811401731, "lat": 41.6888277, "lon": 44.8499288}, {"type": "node", "id": 9811401732, "lat": 41.6888841, "lon": 44.849861}, {"type": "node", "id": 9811401733, "lat": 41.6887656, "lon": 44.8495052}, {"type": "node", "id": 9811401755, "lat": 41.6890874, "lon": 44.8502335}, {"type": "node", "id": 9811401756, "lat": 41.6890873, "lon": 44.8509156}, {"type": "node", "id": 9811401757, "lat": 41.6890319, "lon": 44.8509156}, {"type": "node", "id": 9811401758, "lat": 41.6890321, "lon": 44.8502335}, {"type": "node", "id": 994376606, "lat": 41.6727198, "lon": 44.8583711}, {"type": "node", "id": 2044014629, "lat": 41.6761223, "lon": 44.8532052}, {"type": "node", "id": 3715119590, "lat": 41.6744538, "lon": 44.8568851}, {"type": "node", "id": 3715119591, "lat": 41.6746221, "lon": 44.8563843}, {"type": "node", "id": 3715119592, "lat": 41.6748422, "lon": 44.8565169}, {"type": "node", "id": 3715119593, "lat": 41.6746739, "lon": 44.8570177}, {"type": "node", "id": 5519078038, "lat": 41.6762224, "lon": 44.8529653}, {"type": "node", "id": 5519078039, "lat": 41.6762255, "lon": 44.8528674}, {"type": "node", "id": 5579124324, "lat": 41.6727348, "lon": 44.8545744}, {"type": "node", "id": 5579124325, "lat": 41.672394, "lon": 44.8544994}, {"type": "node", "id": 5579124326, "lat": 41.672333, "lon": 44.8549965}, {"type": "node", "id": 5579124327, "lat": 41.6726738, "lon": 44.8550715}, {"type": "node", "id": 5579124328, "lat": 41.6720545, "lon": 44.8562714}, {"type": "node", "id": 5579124329, "lat": 41.6717261, "lon": 44.8562045}, {"type": "node", "id": 5579124330, "lat": 41.6716723, "lon": 44.8566507}, {"type": "node", "id": 5579124331, "lat": 41.6719996, "lon": 44.8567297}, {"type": "node", "id": 5580399512, "lat": 41.6772452, "lon": 44.8531517}, {"type": "node", "id": 5580399513, "lat": 41.6771771, "lon": 44.8534548}, {"type": "node", "id": 5580399514, "lat": 41.6768526, "lon": 44.8530015}, {"type": "node", "id": 5580399515, "lat": 41.6767404, "lon": 44.8528808}, {"type": "node", "id": 5580399516, "lat": 41.676502, "lon": 44.8528567}, {"type": "node", "id": 5580399517, "lat": 41.6766963, "lon": 44.8532966}, {"type": "node", "id": 5580399518, "lat": 41.6764879, "lon": 44.8530096}, {"type": "node", "id": 5580399519, "lat": 41.675922, "lon": 44.8532148}, {"type": "node", "id": 5580399520, "lat": 41.6762555, "lon": 44.8532349}, {"type": "node", "id": 5583941636, "lat": 41.6715171, "lon": 44.8545754}, {"type": "node", "id": 8355542653, "lat": 41.6730472, "lon": 44.8584013}, {"type": "node", "id": 8355542654, "lat": 41.6730646, "lon": 44.8582559}, {"type": "node", "id": 10706686167, "lat": 41.6714939, "lon": 44.8547693}, {"type": "node", "id": 10706686169, "lat": 41.671595, "lon": 44.854088}, {"type": "node", "id": 10899517591, "lat": 41.6719945, "lon": 44.854175}, {"type": "node", "id": 10899517592, "lat": 41.6719925, "lon": 44.8541869}, {"type": "node", "id": 10899517593, "lat": 41.6720213, "lon": 44.8541938}, {"type": "node", "id": 10899517594, "lat": 41.6720167, "lon": 44.85423}, {"type": "node", "id": 10899517595, "lat": 41.6719563, "lon": 44.8542162}, {"type": "node", "id": 10899517596, "lat": 41.6718747, "lon": 44.8548893}, {"type": "node", "id": 10899517597, "lat": 41.671785, "lon": 44.8548714}, {"type": "node", "id": 10899517598, "lat": 41.6717787, "lon": 44.8549184}, {"type": "node", "id": 10899517599, "lat": 41.6714749, "lon": 44.8548523}, {"type": "node", "id": 10899517600, "lat": 41.6714853, "lon": 44.8547675}, {"type": "node", "id": 10899517601, "lat": 41.6715336, "lon": 44.8545791}, {"type": "node", "id": 10899517651, "lat": 41.6717704, "lon": 44.8550632}, {"type": "node", "id": 10899517652, "lat": 41.6716388, "lon": 44.8550347}, {"type": "node", "id": 10899517653, "lat": 41.6716227, "lon": 44.8551673}, {"type": "node", "id": 10899517654, "lat": 41.6717177, "lon": 44.8551879}, {"type": "node", "id": 10899517655, "lat": 41.6717595, "lon": 44.8551529}, {"type": "node", "id": 10899517739, "lat": 41.6713071, "lon": 44.8576302}, {"type": "node", "id": 10899517740, "lat": 41.6713351, "lon": 44.8574063}, {"type": "node", "id": 10899517741, "lat": 41.6713107, "lon": 44.8574016}, {"type": "node", "id": 10899517742, "lat": 41.6713578, "lon": 44.8569498}, {"type": "node", "id": 10899517743, "lat": 41.6714114, "lon": 44.8569003}, {"type": "node", "id": 10899517744, "lat": 41.6714048, "lon": 44.8568876}, {"type": "node", "id": 10899517745, "lat": 41.6713958, "lon": 44.8568963}, {"type": "node", "id": 10899517746, "lat": 41.6713723, "lon": 44.8568507}, {"type": "node", "id": 10899517747, "lat": 41.6713813, "lon": 44.856842}, {"type": "node", "id": 10899517748, "lat": 41.6713743, "lon": 44.8568279}, {"type": "node", "id": 10899517749, "lat": 41.6713663, "lon": 44.8568373}, {"type": "node", "id": 10899517750, "lat": 41.6713513, "lon": 44.8568078}, {"type": "node", "id": 10899517751, "lat": 41.6712455, "lon": 44.8566176}, {"type": "node", "id": 10899517752, "lat": 41.671291, "lon": 44.8562405}, {"type": "node", "id": 10899517753, "lat": 41.6712758, "lon": 44.8562375}, {"type": "node", "id": 10899517754, "lat": 41.6713009, "lon": 44.85602}, {"type": "node", "id": 10899537295, "lat": 41.6716833, "lon": 44.8592381}, {"type": "node", "id": 10899537297, "lat": 41.6717146, "lon": 44.8583271}, {"type": "node", "id": 10899537298, "lat": 41.6719463, "lon": 44.8580806}, {"type": "node", "id": 10908226214, "lat": 41.671789, "lon": 44.8588343}, {"type": "node", "id": 10908226219, "lat": 41.6717928, "lon": 44.8585852}, {"type": "node", "id": 10908226228, "lat": 41.6727428, "lon": 44.858197}, {"type": "node", "id": 10908226230, "lat": 41.6729623, "lon": 44.8581842}, {"type": "node", "id": 10908226231, "lat": 41.6729859, "lon": 44.8581912}, {"type": "node", "id": 12352342299, "lat": 41.671293, "lon": 44.8577437}, {"type": "node", "id": 12352342300, "lat": 41.6713451, "lon": 44.8577517}, {"type": "node", "id": 12352342301, "lat": 41.6715304, "lon": 44.8577812}, {"type": "node", "id": 12352342302, "lat": 41.6719642, "lon": 44.8579475}, {"type": "node", "id": 13081698580, "lat": 41.672031, "lon": 44.8564676}, {"type": "node", "id": 13081698581, "lat": 41.6718399, "lon": 44.8566947}, {"type": "node", "id": 13081698582, "lat": 41.6716996, "lon": 44.8563982}, {"type": "node", "id": 13081698583, "lat": 41.6718994, "lon": 44.8562396}, {"type": "node", "id": 13251927471, "lat": 41.6729544, "lon": 44.8583847}, {"type": "node", "id": 10899537294, "lat": 41.6716175, "lon": 44.8598098}, {"type": "node", "id": 10905302935, "lat": 41.6769833, "lon": 44.8623666}, {"type": "node", "id": 10905303042, "lat": 41.6770069, "lon": 44.8622479}, {"type": "node", "id": 10905303043, "lat": 41.6770783, "lon": 44.8623991}, {"type": "node", "id": 10905303044, "lat": 41.6771187, "lon": 44.8622976}, {"type": "node", "id": 12352342521, "lat": 41.6715882, "lon": 44.8598453}, {"type": "node", "id": 12353600333, "lat": 41.6714013, "lon": 44.8598009}, {"type": "node", "id": 13250828081, "lat": 41.6711327, "lon": 44.8600021}, {"type": "node", "id": 1452349293, "lat": 41.6833614, "lon": 44.8536928}, {"type": "node", "id": 1452349295, "lat": 41.6834571, "lon": 44.8528824}, {"type": "node", "id": 9873050551, "lat": 41.6833487, "lon": 44.8552953}, {"type": "node", "id": 9873050552, "lat": 41.682007, "lon": 44.8547825}, {"type": "node", "id": 9873050553, "lat": 41.6821061, "lon": 44.8539484}, {"type": "node", "id": 9873050554, "lat": 41.682658, "lon": 44.8540758}, {"type": "node", "id": 9873050556, "lat": 41.6836182, "lon": 44.8539132}, {"type": "node", "id": 9873050557, "lat": 41.6835831, "lon": 44.854078}, {"type": "node", "id": 9873050558, "lat": 41.6836341, "lon": 44.8540985}, {"type": "node", "id": 9873050595, "lat": 41.6833707, "lon": 44.8553061}, {"type": "node", "id": 9873050596, "lat": 41.6831338, "lon": 44.8562159}, {"type": "node", "id": 9873050597, "lat": 41.6835329, "lon": 44.8563982}, {"type": "node", "id": 9873050598, "lat": 41.6836545, "lon": 44.8559256}, {"type": "node", "id": 9873050599, "lat": 41.6841384, "lon": 44.856129}, {"type": "node", "id": 9873050605, "lat": 41.6830103, "lon": 44.8542421}, {"type": "node", "id": 9873050606, "lat": 41.6830491, "lon": 44.8538393}, {"type": "node", "id": 9873050607, "lat": 41.6826548, "lon": 44.854154}, {"type": "node", "id": 9880456783, "lat": 41.6821999, "lon": 44.8552221}, {"type": "node", "id": 9880456784, "lat": 41.6821917, "lon": 44.8552692}, {"type": "node", "id": 9880456785, "lat": 41.6820945, "lon": 44.855233}, {"type": "node", "id": 9880456789, "lat": 41.6822457, "lon": 44.8552363}, {"type": "node", "id": 9880456802, "lat": 41.6823889, "lon": 44.8549229}, {"type": "node", "id": 9880456803, "lat": 41.6827315, "lon": 44.8550584}, {"type": "node", "id": 9880456960, "lat": 41.6837118, "lon": 44.8559523}, {"type": "node", "id": 10727318232, "lat": 41.683606, "lon": 44.8587716}, {"type": "node", "id": 10727318233, "lat": 41.6835631, "lon": 44.8589303}, {"type": "node", "id": 10727318240, "lat": 41.6832666, "lon": 44.8582986}, {"type": "node", "id": 10727318241, "lat": 41.6832063, "lon": 44.8582694}, {"type": "node", "id": 12729099605, "lat": 41.6822007, "lon": 44.8554749}, {"type": "node", "id": 12729099606, "lat": 41.6820438, "lon": 44.8554803}, {"type": "node", "id": 12729099607, "lat": 41.6821247, "lon": 44.8555088}, {"type": "node", "id": 13252978025, "lat": 41.6832439, "lon": 44.8583826}, {"type": "node", "id": 13252978026, "lat": 41.6830527, "lon": 44.8593681}, {"type": "node", "id": 13252978028, "lat": 41.6832163, "lon": 44.8587623}, {"type": "node", "id": 13252978029, "lat": 41.6833142, "lon": 44.8584167}, {"type": "node", "id": 13252978030, "lat": 41.6832632, "lon": 44.8586056}, {"type": "node", "id": 13253164691, "lat": 41.6835837, "lon": 44.8540717}, {"type": "node", "id": 10727318236, "lat": 41.6833971, "lon": 44.8595349}, {"type": "node", "id": 10727318237, "lat": 41.68335, "lon": 44.8597093}, {"type": "node", "id": 10727318242, "lat": 41.6828266, "lon": 44.8596749}, {"type": "node", "id": 10727318243, "lat": 41.6828952, "lon": 44.8597081}, {"type": "node", "id": 13252978027, "lat": 41.6829476, "lon": 44.8595143}, {"type": "node", "id": 10905392293, "lat": 41.6713661, "lon": 44.8715604}, {"type": "node", "id": 10905392342, "lat": 41.672446, "lon": 44.8721008}, {"type": "node", "id": 10905392343, "lat": 41.6721049, "lon": 44.8723395}, {"type": "node", "id": 10905392347, "lat": 41.6728126, "lon": 44.8723207}, {"type": "node", "id": 10905392442, "lat": 41.6719657, "lon": 44.8718695}, {"type": "node", "id": 10905392447, "lat": 41.6720399, "lon": 44.871902}, {"type": "node", "id": 12779048738, "lat": 41.6711125, "lon": 44.8723367}, {"type": "node", "id": 13252333573, "lat": 41.6722021, "lon": 44.8720445}, {"type": "node", "id": 13252333574, "lat": 41.6724235, "lon": 44.8721666}, {"type": "node", "id": 919456889, "lat": 41.6774701, "lon": 44.8741789}, {"type": "node", "id": 919456892, "lat": 41.675947, "lon": 44.8762746}, {"type": "node", "id": 919456894, "lat": 41.6755788, "lon": 44.8769765}, {"type": "node", "id": 919456896, "lat": 41.6753541, "lon": 44.8774763}, {"type": "node", "id": 919456901, "lat": 41.67506, "lon": 44.877814}, {"type": "node", "id": 919456903, "lat": 41.6754455, "lon": 44.8769314}, {"type": "node", "id": 919456904, "lat": 41.6758392, "lon": 44.8761737}, {"type": "node", "id": 919456906, "lat": 41.6772748, "lon": 44.8741836}, {"type": "node", "id": 10202388541, "lat": 41.6720932, "lon": 44.8775028}, {"type": "node", "id": 10202388542, "lat": 41.6717402, "lon": 44.8773577}, {"type": "node", "id": 10202388543, "lat": 41.6719, "lon": 44.8766612}, {"type": "node", "id": 10202388544, "lat": 41.6722529, "lon": 44.8768062}, {"type": "node", "id": 10209021661, "lat": 41.6754367, "lon": 44.8772608}, {"type": "node", "id": 10209052989, "lat": 41.6757643, "lon": 44.8789357}, {"type": "node", "id": 10209053019, "lat": 41.6753823, "lon": 44.8788549}, {"type": "node", "id": 10209053020, "lat": 41.6753239, "lon": 44.8789978}, {"type": "node", "id": 10209053022, "lat": 41.6755085, "lon": 44.8789473}, {"type": "node", "id": 10905392238, "lat": 41.671296, "lon": 44.8750842}, {"type": "node", "id": 10905392239, "lat": 41.6712469, "lon": 44.8750453}, {"type": "node", "id": 10905392240, "lat": 41.671289, "lon": 44.8749065}, {"type": "node", "id": 10905392255, "lat": 41.6714198, "lon": 44.8747106}, {"type": "node", "id": 10905392256, "lat": 41.6713052, "lon": 44.8751222}, {"type": "node", "id": 10905392344, "lat": 41.6725381, "lon": 44.8725863}, {"type": "node", "id": 10905392345, "lat": 41.67245, "lon": 44.872892}, {"type": "node", "id": 10905392346, "lat": 41.6726113, "lon": 44.8729792}, {"type": "node", "id": 10905392443, "lat": 41.6716916, "lon": 44.8728014}, {"type": "node", "id": 10905392444, "lat": 41.672142, "lon": 44.8730331}, {"type": "node", "id": 10905392445, "lat": 41.6723427, "lon": 44.8728046}, {"type": "node", "id": 10905392446, "lat": 41.6718531, "lon": 44.8725528}, {"type": "node", "id": 10905392508, "lat": 41.6738576, "lon": 44.8729205}, {"type": "node", "id": 10905392509, "lat": 41.6737702, "lon": 44.8732286}, {"type": "node", "id": 10905392510, "lat": 41.6737747, "lon": 44.873312}, {"type": "node", "id": 10905392511, "lat": 41.6738335, "lon": 44.8733471}, {"type": "node", "id": 10905392512, "lat": 41.6739447, "lon": 44.8729677}, {"type": "node", "id": 12888483294, "lat": 41.6767389, "lon": 44.8750252}, {"type": "node", "id": 12888483295, "lat": 41.6766715, "lon": 44.8749333}, {"type": "node", "id": 12888483296, "lat": 41.6766177, "lon": 44.8750295}, {"type": "node", "id": 12888483297, "lat": 41.6766778, "lon": 44.8751147}, {"type": "node", "id": 12888483298, "lat": 41.6767639, "lon": 44.8750339}, {"type": "node", "id": 12888483299, "lat": 41.6766768, "lon": 44.8749051}, {"type": "node", "id": 12888483300, "lat": 41.6766677, "lon": 44.875169}, {"type": "node", "id": 12888508901, "lat": 41.6765781, "lon": 44.8750359}, {"type": "node", "id": 13252023424, "lat": 41.6723239, "lon": 44.8728701}, {"type": "node", "id": 13252023425, "lat": 41.6722062, "lon": 44.8728095}, {"type": "node", "id": 13252333504, "lat": 41.6717924, "lon": 44.8725186}, {"type": "node", "id": 13252333505, "lat": 41.6717533, "lon": 44.8725823}, {"type": "node", "id": 919456881, "lat": 41.6798768, "lon": 44.8711923}, {"type": "node", "id": 919456883, "lat": 41.679547, "lon": 44.8718394}, {"type": "node", "id": 919456884, "lat": 41.6792215, "lon": 44.8723168}, {"type": "node", "id": 919456910, "lat": 41.6793216, "lon": 44.8719567}, {"type": "node", "id": 919456912, "lat": 41.6796907, "lon": 44.8712929}, {"type": "node", "id": 919456914, "lat": 41.6797882, "lon": 44.8711121}, {"type": "node", "id": 5665686649, "lat": 41.6798222, "lon": 44.8711078}, {"type": "node", "id": 5665686650, "lat": 41.6798718, "lon": 44.8711557}, {"type": "node", "id": 12888483293, "lat": 41.678923, "lon": 44.872467}, {"type": "node", "id": 919456886, "lat": 41.6788258, "lon": 44.8728003}, {"type": "node", "id": 919456907, "lat": 41.6787472, "lon": 44.8726688}, {"type": "node", "id": 12888483287, "lat": 41.6787507, "lon": 44.8726977}, {"type": "node", "id": 12888483288, "lat": 41.6788063, "lon": 44.8728016}, {"type": "node", "id": 12888483289, "lat": 41.6786891, "lon": 44.8727748}, {"type": "node", "id": 12888483290, "lat": 41.6787347, "lon": 44.8728666}, {"type": "node", "id": 12888483291, "lat": 41.6787287, "lon": 44.8728995}, {"type": "node", "id": 12888483292, "lat": 41.6786535, "lon": 44.8727654}, {"type": "node", "id": 289179581, "lat": 41.6850467, "lon": 44.857176}, {"type": "node", "id": 289179582, "lat": 41.6856189, "lon": 44.8561703}, {"type": "node", "id": 1452349301, "lat": 41.6845853, "lon": 44.85391}, {"type": "node", "id": 2381244748, "lat": 41.6845185, "lon": 44.8577776}, {"type": "node", "id": 2381244754, "lat": 41.6849727, "lon": 44.8579021}, {"type": "node", "id": 9808474335, "lat": 41.6876983, "lon": 44.854669}, {"type": "node", "id": 9808474336, "lat": 41.6875779, "lon": 44.8546519}, {"type": "node", "id": 9808474337, "lat": 41.6875585, "lon": 44.8548806}, {"type": "node", "id": 9808474338, "lat": 41.6875735, "lon": 44.8549712}, {"type": "node", "id": 9808474339, "lat": 41.6877692, "lon": 44.854966}, {"type": "node", "id": 9808474340, "lat": 41.6878689, "lon": 44.8549752}, {"type": "node", "id": 9808474341, "lat": 41.6880753, "lon": 44.8550369}, {"type": "node", "id": 9808474342, "lat": 41.6880969, "lon": 44.8547792}, {"type": "node", "id": 9808474343, "lat": 41.6879788, "lon": 44.8548368}, {"type": "node", "id": 9808474344, "lat": 41.6878375, "lon": 44.8548087}, {"type": "node", "id": 9808474345, "lat": 41.687834, "lon": 44.8547805}, {"type": "node", "id": 9808474346, "lat": 41.6877329, "lon": 44.8547718}, {"type": "node", "id": 9808474347, "lat": 41.6877309, "lon": 44.854814}, {"type": "node", "id": 9808474348, "lat": 41.687686, "lon": 44.8548037}, {"type": "node", "id": 9808474353, "lat": 41.6876681, "lon": 44.8546647}, {"type": "node", "id": 9808694393, "lat": 41.6901288, "lon": 44.8586075}, {"type": "node", "id": 9808694394, "lat": 41.6901338, "lon": 44.8588744}, {"type": "node", "id": 9808694395, "lat": 41.6900487, "lon": 44.8589763}, {"type": "node", "id": 9808694396, "lat": 41.6900467, "lon": 44.8590206}, {"type": "node", "id": 9808694397, "lat": 41.690258, "lon": 44.8590192}, {"type": "node", "id": 9808694398, "lat": 41.6902483, "lon": 44.8592971}, {"type": "node", "id": 9808694399, "lat": 41.6901615, "lon": 44.8593241}, {"type": "node", "id": 9808694400, "lat": 41.6902692, "lon": 44.8593427}, {"type": "node", "id": 9808694401, "lat": 41.6903041, "lon": 44.8593251}, {"type": "node", "id": 9808694402, "lat": 41.6903128, "lon": 44.8592889}, {"type": "node", "id": 9808694403, "lat": 41.6904033, "lon": 44.8592822}, {"type": "node", "id": 9808694404, "lat": 41.6904056, "lon": 44.8593238}, {"type": "node", "id": 9808694405, "lat": 41.6906621, "lon": 44.8593182}, {"type": "node", "id": 9808694406, "lat": 41.6906677, "lon": 44.8589417}, {"type": "node", "id": 9808694407, "lat": 41.6904168, "lon": 44.8589454}, {"type": "node", "id": 9808694408, "lat": 41.6904184, "lon": 44.858686}, {"type": "node", "id": 9808694409, "lat": 41.6903328, "lon": 44.8585957}, {"type": "node", "id": 9808694410, "lat": 41.6903334, "lon": 44.8583515}, {"type": "node", "id": 9808694412, "lat": 41.6904578, "lon": 44.8583718}, {"type": "node", "id": 9808694414, "lat": 41.6904813, "lon": 44.8584326}, {"type": "node", "id": 9808694415, "lat": 41.6904686, "lon": 44.8586855}, {"type": "node", "id": 9869906389, "lat": 41.6852488, "lon": 44.8563149}, {"type": "node", "id": 9869906390, "lat": 41.6857664, "lon": 44.8553231}, {"type": "node", "id": 9869906391, "lat": 41.6857397, "lon": 44.8552833}, {"type": "node", "id": 9869906392, "lat": 41.6846785, "lon": 44.8568428}, {"type": "node", "id": 9869906409, "lat": 41.6850302, "lon": 44.8572637}, {"type": "node", "id": 9869906410, "lat": 41.685092, "lon": 44.8572921}, {"type": "node", "id": 9869916408, "lat": 41.6848959, "lon": 44.8578669}, {"type": "node", "id": 9869916409, "lat": 41.6848773, "lon": 44.8579416}, {"type": "node", "id": 9873050600, "lat": 41.6845009, "lon": 44.8549072}, {"type": "node", "id": 9873050601, "lat": 41.6843317, "lon": 44.8546316}, {"type": "node", "id": 9873050602, "lat": 41.6847179, "lon": 44.8541428}, {"type": "node", "id": 9873050603, "lat": 41.6845295, "lon": 44.8540711}, {"type": "node", "id": 9873050604, "lat": 41.6843742, "lon": 44.8540288}, {"type": "node", "id": 9880456933, "lat": 41.6842897, "lon": 44.8577478}, {"type": "node", "id": 9880456934, "lat": 41.6843094, "lon": 44.8577302}, {"type": "node", "id": 9880456936, "lat": 41.6843811, "lon": 44.8573389}, {"type": "node", "id": 9880456937, "lat": 41.6843653, "lon": 44.8573105}, {"type": "node", "id": 10760045533, "lat": 41.6842314, "lon": 44.857729}, {"type": "node", "id": 10760045534, "lat": 41.6843069, "lon": 44.8572879}, {"type": "node", "id": 11212625647, "lat": 41.684577, "lon": 44.8547222}, {"type": "node", "id": 11212625648, "lat": 41.6842836, "lon": 44.8548261}, {"type": "node", "id": 12855111928, "lat": 41.6854163, "lon": 44.8561161}, {"type": "node", "id": 12855111929, "lat": 41.6851236, "lon": 44.8571698}, {"type": "node", "id": 12855111930, "lat": 41.6852014, "lon": 44.8570292}, {"type": "node", "id": 12855111931, "lat": 41.6852903, "lon": 44.8567232}, {"type": "node", "id": 12855111934, "lat": 41.685139, "lon": 44.8551038}, {"type": "node", "id": 13253164585, "lat": 41.6844158, "lon": 44.8550065}, {"type": "node", "id": 13253164586, "lat": 41.6844719, "lon": 44.8550279}, {"type": "node", "id": 13264829130, "lat": 41.6846952, "lon": 44.8529775}, {"type": "node", "id": 289194028, "lat": 41.6863833, "lon": 44.8599659}, {"type": "node", "id": 289194029, "lat": 41.6872552, "lon": 44.8604138}, {"type": "node", "id": 9808766919, "lat": 41.6906182, "lon": 44.8615736}, {"type": "node", "id": 9808766921, "lat": 41.6907219, "lon": 44.8619931}, {"type": "node", "id": 9808766924, "lat": 41.6905948, "lon": 44.8606187}, {"type": "node", "id": 9808766925, "lat": 41.6906148, "lon": 44.8604954}, {"type": "node", "id": 9808766926, "lat": 41.6906488, "lon": 44.8604176}, {"type": "node", "id": 9808766927, "lat": 41.6906929, "lon": 44.8603908}, {"type": "node", "id": 9808766928, "lat": 41.6907209, "lon": 44.8603854}, {"type": "node", "id": 9865188466, "lat": 41.6846021, "lon": 44.864928}, {"type": "node", "id": 9865188493, "lat": 41.6843425, "lon": 44.8643325}, {"type": "node", "id": 9865188494, "lat": 41.684284, "lon": 44.8648406}, {"type": "node", "id": 9865188495, "lat": 41.6846142, "lon": 44.8647513}, {"type": "node", "id": 9865188496, "lat": 41.6846537, "lon": 44.8645724}, {"type": "node", "id": 9865188497, "lat": 41.6847007, "lon": 44.8644382}, {"type": "node", "id": 9865188498, "lat": 41.6845429, "lon": 44.8643813}, {"type": "node", "id": 9865188499, "lat": 41.6844123, "lon": 44.8643458}, {"type": "node", "id": 9865188500, "lat": 41.6844138, "lon": 44.8643285}, {"type": "node", "id": 9865188520, "lat": 41.6842919, "lon": 44.864778}, {"type": "node", "id": 9865188521, "lat": 41.6842884, "lon": 44.8648085}, {"type": "node", "id": 9865188522, "lat": 41.6845083, "lon": 44.8648634}, {"type": "node", "id": 9865188523, "lat": 41.6845091, "lon": 44.8649244}, {"type": "node", "id": 9865188524, "lat": 41.6842856, "lon": 44.864829}, {"type": "node", "id": 9865188525, "lat": 41.6846081, "lon": 44.8648396}, {"type": "node", "id": 9865188586, "lat": 41.6844919, "lon": 44.8643675}, {"type": "node", "id": 11183957797, "lat": 41.6870568, "lon": 44.8601456}, {"type": "node", "id": 11183957798, "lat": 41.6865747, "lon": 44.8599382}, {"type": "node", "id": 12710527064, "lat": 41.6858971, "lon": 44.8637176}, {"type": "node", "id": 12710527065, "lat": 41.6857368, "lon": 44.8636834}, {"type": "node", "id": 12710527066, "lat": 41.6857193, "lon": 44.8634943}, {"type": "node", "id": 12710527067, "lat": 41.6857749, "lon": 44.8632221}, {"type": "node", "id": 12710527068, "lat": 41.6857959, "lon": 44.8632342}, {"type": "node", "id": 12710527069, "lat": 41.6859186, "lon": 44.8626481}, {"type": "node", "id": 12710527070, "lat": 41.6859261, "lon": 44.8624322}, {"type": "node", "id": 12710527071, "lat": 41.6859462, "lon": 44.8636425}, {"type": "node", "id": 12710527072, "lat": 41.6857659, "lon": 44.8637103}, {"type": "node", "id": 12710527073, "lat": 41.6857173, "lon": 44.8636124}, {"type": "node", "id": 12710527074, "lat": 41.68583, "lon": 44.8637364}, {"type": "node", "id": 12725751177, "lat": 41.6905244, "lon": 44.861443}, {"type": "node", "id": 12725751178, "lat": 41.6905838, "lon": 44.8623448}, {"type": "node", "id": 12725751179, "lat": 41.6905133, "lon": 44.8623843}, {"type": "node", "id": 12725751180, "lat": 41.6904675, "lon": 44.8620879}, {"type": "node", "id": 12725751181, "lat": 41.6905796, "lon": 44.8609437}, {"type": "node", "id": 12725751182, "lat": 41.690442, "lon": 44.8623736}, {"type": "node", "id": 12725751183, "lat": 41.69052, "lon": 44.861483}, {"type": "node", "id": 12725751184, "lat": 41.690483, "lon": 44.8619145}, {"type": "node", "id": 12725751189, "lat": 41.6905085, "lon": 44.8616173}, {"type": "node", "id": 12851827196, "lat": 41.686717, "lon": 44.8599994}, {"type": "node", "id": 1864085018, "lat": 41.694281, "lon": 44.8583551}, {"type": "node", "id": 1864085019, "lat": 41.6942871, "lon": 44.8584088}, {"type": "node", "id": 1864085020, "lat": 41.6945484, "lon": 44.8588769}, {"type": "node", "id": 1864085022, "lat": 41.6952965, "lon": 44.8575692}, {"type": "node", "id": 1864085023, "lat": 41.6954166, "lon": 44.8575291}, {"type": "node", "id": 1864085026, "lat": 41.6947296, "lon": 44.8581245}, {"type": "node", "id": 1864085028, "lat": 41.6948759, "lon": 44.8580172}, {"type": "node", "id": 1864085029, "lat": 41.6950841, "lon": 44.8577973}, {"type": "node", "id": 1864085768, "lat": 41.6967437, "lon": 44.8563756}, {"type": "node", "id": 1864085769, "lat": 41.6966752, "lon": 44.8573295}, {"type": "node", "id": 1864085770, "lat": 41.6967342, "lon": 44.8571957}, {"type": "node", "id": 1864085771, "lat": 41.6969477, "lon": 44.8576373}, {"type": "node", "id": 1864085777, "lat": 41.6964425, "lon": 44.857795}, {"type": "node", "id": 1864085779, "lat": 41.6970033, "lon": 44.8563821}, {"type": "node", "id": 1864085780, "lat": 41.6971794, "lon": 44.8562905}, {"type": "node", "id": 1864085782, "lat": 41.6972195, "lon": 44.8579663}, {"type": "node", "id": 1864085783, "lat": 41.6970748, "lon": 44.8579525}, {"type": "node", "id": 1864085784, "lat": 41.6970282, "lon": 44.8579028}, {"type": "node", "id": 1864085786, "lat": 41.6969371, "lon": 44.8577868}, {"type": "node", "id": 1864085787, "lat": 41.6964539, "lon": 44.8573331}, {"type": "node", "id": 1864085790, "lat": 41.6967319, "lon": 44.8572709}, {"type": "node", "id": 1864085793, "lat": 41.6967787, "lon": 44.8577878}, {"type": "node", "id": 1864085794, "lat": 41.6967803, "lon": 44.8576246}, {"type": "node", "id": 1864085795, "lat": 41.6972817, "lon": 44.857065}, {"type": "node", "id": 1864085798, "lat": 41.6969726, "lon": 44.8578167}, {"type": "node", "id": 5479648222, "lat": 41.694188, "lon": 44.8584149}, {"type": "node", "id": 5479648223, "lat": 41.6944521, "lon": 44.8589515}, {"type": "node", "id": 5479648224, "lat": 41.6939131, "lon": 44.859375}, {"type": "node", "id": 5479648225, "lat": 41.69387, "lon": 44.8590498}, {"type": "node", "id": 5479648226, "lat": 41.6939285, "lon": 44.8590166}, {"type": "node", "id": 5479648227, "lat": 41.6939528, "lon": 44.8588763}, {"type": "node", "id": 5479648228, "lat": 41.6938708, "lon": 44.8585552}, {"type": "node", "id": 9799231560, "lat": 41.6939762, "lon": 44.8542372}, {"type": "node", "id": 9799231561, "lat": 41.6939339, "lon": 44.8542142}, {"type": "node", "id": 9799231562, "lat": 41.6938929, "lon": 44.8542159}, {"type": "node", "id": 9799231563, "lat": 41.6931697, "lon": 44.8548176}, {"type": "node", "id": 9799231564, "lat": 41.6929542, "lon": 44.8549894}, {"type": "node", "id": 9799231565, "lat": 41.6930185, "lon": 44.8551249}, {"type": "node", "id": 9799231566, "lat": 41.6931401, "lon": 44.8550629}, {"type": "node", "id": 9799231567, "lat": 41.6932048, "lon": 44.8550629}, {"type": "node", "id": 9799231568, "lat": 41.6932762, "lon": 44.855093}, {"type": "node", "id": 9799231573, "lat": 41.6939191, "lon": 44.8548272}, {"type": "node", "id": 9799231575, "lat": 41.693958, "lon": 44.8547338}, {"type": "node", "id": 9799231576, "lat": 41.6940852, "lon": 44.8544338}, {"type": "node", "id": 9799231577, "lat": 41.6941047, "lon": 44.8543768}, {"type": "node", "id": 9811548583, "lat": 41.6966811, "lon": 44.8535937}, {"type": "node", "id": 9811548584, "lat": 41.6966759, "lon": 44.8541518}, {"type": "node", "id": 9811548585, "lat": 41.696459, "lon": 44.8541509}, {"type": "node", "id": 9811548626, "lat": 41.6964625, "lon": 44.8540027}, {"type": "node", "id": 9811548627, "lat": 41.696488, "lon": 44.8538759}, {"type": "node", "id": 9811548628, "lat": 41.696524, "lon": 44.8537935}, {"type": "node", "id": 9811548629, "lat": 41.6965831, "lon": 44.8536868}, {"type": "node", "id": 9811548691, "lat": 41.697017, "lon": 44.8562053}, {"type": "node", "id": 9811548692, "lat": 41.6970704, "lon": 44.8562065}, {"type": "node", "id": 9811548693, "lat": 41.6970675, "lon": 44.8562927}, {"type": "node", "id": 9811548694, "lat": 41.6971813, "lon": 44.8561959}, {"type": "node", "id": 9811556891, "lat": 41.695363, "lon": 44.8575196}, {"type": "node", "id": 9811556892, "lat": 41.694993, "lon": 44.8579072}, {"type": "node", "id": 9811556893, "lat": 41.6945693, "lon": 44.858221}, {"type": "node", "id": 9811556894, "lat": 41.695457, "lon": 44.857567}, {"type": "node", "id": 12705810925, "lat": 41.6935178, "lon": 44.855175}, {"type": "node", "id": 12705810926, "lat": 41.6937673, "lon": 44.8547048}, {"type": "node", "id": 13249932021, "lat": 41.697219, "lon": 44.8578946}, {"type": "node", "id": 13249932022, "lat": 41.6972756, "lon": 44.8578718}, {"type": "node", "id": 13249932090, "lat": 41.6972686, "lon": 44.8562497}, {"type": "node", "id": 13249938890, "lat": 41.6940231, "lon": 44.8542783}, {"type": "node", "id": 13283848570, "lat": 41.6956363, "lon": 44.8580039}, {"type": "node", "id": 9808766918, "lat": 41.690763, "lon": 44.8604154}, {"type": "node", "id": 9808766920, "lat": 41.6907746, "lon": 44.8616122}, {"type": "node", "id": 9808766922, "lat": 41.6908982, "lon": 44.8620309}, {"type": "node", "id": 9808766923, "lat": 41.6908651, "lon": 44.8623944}, {"type": "node", "id": 11374099712, "lat": 41.696284, "lon": 44.860724}, {"type": "node", "id": 11374099713, "lat": 41.6962788, "lon": 44.8607544}, {"type": "node", "id": 11374099714, "lat": 41.696346, "lon": 44.8608943}, {"type": "node", "id": 11374099715, "lat": 41.6965881, "lon": 44.8608514}, {"type": "node", "id": 13093102201, "lat": 41.696522, "lon": 44.8605048}, {"type": "node", "id": 13093102202, "lat": 41.6966574, "lon": 44.8608015}, {"type": "node", "id": 4775226342, "lat": 41.6904902, "lon": 44.8719559}, {"type": "node", "id": 4775226343, "lat": 41.6904046, "lon": 44.8718699}, {"type": "node", "id": 4775226344, "lat": 41.6903337, "lon": 44.8719963}, {"type": "node", "id": 4775226345, "lat": 41.6904845, "lon": 44.872148}, {"type": "node", "id": 4775226346, "lat": 41.6905093, "lon": 44.8721038}, {"type": "node", "id": 4775226347, "lat": 41.6904441, "lon": 44.8720381}, {"type": "node", "id": 8361493124, "lat": 41.6869128, "lon": 44.8674364}, {"type": "node", "id": 8361493125, "lat": 41.6854957, "lon": 44.8669647}, {"type": "node", "id": 8361493126, "lat": 41.6851885, "lon": 44.8687092}, {"type": "node", "id": 8361493127, "lat": 41.6861302, "lon": 44.8690927}, {"type": "node", "id": 8361493128, "lat": 41.6863897, "lon": 44.8696202}, {"type": "node", "id": 8361493129, "lat": 41.6868037, "lon": 44.8695302}, {"type": "node", "id": 9808898165, "lat": 41.6868741, "lon": 44.867982}, {"type": "node", "id": 9808898166, "lat": 41.6868148, "lon": 44.8680068}, {"type": "node", "id": 9808898167, "lat": 41.6867828, "lon": 44.8685721}, {"type": "node", "id": 9808898171, "lat": 41.6867538, "lon": 44.8693554}, {"type": "node", "id": 9808898172, "lat": 41.6866417, "lon": 44.8696493}, {"type": "node", "id": 9808898173, "lat": 41.6861791, "lon": 44.8672022}, {"type": "node", "id": 9808898440, "lat": 41.68517, "lon": 44.868498}, {"type": "node", "id": 9808898441, "lat": 41.6863371, "lon": 44.8691696}, {"type": "node", "id": 9808898442, "lat": 41.6862747, "lon": 44.8691834}, {"type": "node", "id": 9808898443, "lat": 41.6862548, "lon": 44.8690515}, {"type": "node", "id": 9808898444, "lat": 41.6863893, "lon": 44.8694614}, {"type": "node", "id": 9808898445, "lat": 41.6851301, "lon": 44.8690794}, {"type": "node", "id": 9808898446, "lat": 41.685448, "lon": 44.8691947}, {"type": "node", "id": 9808898447, "lat": 41.6855378, "lon": 44.8688568}, {"type": "node", "id": 9808898482, "lat": 41.6852471, "lon": 44.8691209}, {"type": "node", "id": 12725752131, "lat": 41.6851049, "lon": 44.8669584}, {"type": "node", "id": 12725752133, "lat": 41.6851335, "lon": 44.8669133}, {"type": "node", "id": 12725752134, "lat": 41.6851795, "lon": 44.8669063}, {"type": "node", "id": 12725752135, "lat": 41.6851605, "lon": 44.8669073}, {"type": "node", "id": 13234486314, "lat": 41.6863898, "lon": 44.8696453}, {"type": "node", "id": 13234486411, "lat": 41.6853447, "lon": 44.8676209}, {"type": "node", "id": 13234486412, "lat": 41.6853738, "lon": 44.8676303}, {"type": "node", "id": 13234486568, "lat": 41.6849336, "lon": 44.8680662}, {"type": "node", "id": 13234486572, "lat": 41.685243, "lon": 44.8669257}, {"type": "node", "id": 13234486573, "lat": 41.6849719, "lon": 44.868563}, {"type": "node", "id": 13234486574, "lat": 41.6848748, "lon": 44.8685341}, {"type": "node", "id": 2882005717, "lat": 41.6906948, "lon": 44.8730551}, {"type": "node", "id": 2882005720, "lat": 41.6907074, "lon": 44.8729995}, {"type": "node", "id": 2882005726, "lat": 41.6907071, "lon": 44.8728225}, {"type": "node", "id": 9817709905, "lat": 41.6882145, "lon": 44.8736}, {"type": "node", "id": 9817709906, "lat": 41.6881435, "lon": 44.8742351}, {"type": "node", "id": 9817709907, "lat": 41.688633, "lon": 44.8736765}, {"type": "node", "id": 9817709908, "lat": 41.6885708, "lon": 44.8743138}, {"type": "node", "id": 10057740992, "lat": 41.6884788, "lon": 44.8765579}, {"type": "node", "id": 10057740993, "lat": 41.687836, "lon": 44.8764141}, {"type": "node", "id": 10057740994, "lat": 41.6877905, "lon": 44.8768064}, {"type": "node", "id": 10057740995, "lat": 41.6884295, "lon": 44.8769405}, {"type": "node", "id": 13152893582, "lat": 41.6906972, "lon": 44.8728635}, {"type": "node", "id": 13152893583, "lat": 41.6907168, "lon": 44.872872}, {"type": "node", "id": 13152893584, "lat": 41.6906881, "lon": 44.8729912}, {"type": "node", "id": 2890549859, "lat": 41.6950395, "lon": 44.8707581}, {"type": "node", "id": 10240762549, "lat": 41.6950719, "lon": 44.870234}, {"type": "node", "id": 10240762550, "lat": 41.6951783, "lon": 44.8702321}, {"type": "node", "id": 10240762551, "lat": 41.6952045, "lon": 44.8703465}, {"type": "node", "id": 10240762552, "lat": 41.6951626, "lon": 44.8703769}, {"type": "node", "id": 10240762553, "lat": 41.6951783, "lon": 44.8704446}, {"type": "node", "id": 10240762554, "lat": 41.6951521, "lon": 44.8704586}, {"type": "node", "id": 10240762555, "lat": 41.6951574, "lon": 44.8705193}, {"type": "node", "id": 10240762568, "lat": 41.6957746, "lon": 44.86986}, {"type": "node", "id": 10240762569, "lat": 41.6958076, "lon": 44.8699024}, {"type": "node", "id": 10240762570, "lat": 41.6959675, "lon": 44.8702847}, {"type": "node", "id": 10240762571, "lat": 41.6959588, "lon": 44.8703293}, {"type": "node", "id": 10240762573, "lat": 41.6956312, "lon": 44.8712341}, {"type": "node", "id": 10240762574, "lat": 41.6956332, "lon": 44.8706687}, {"type": "node", "id": 10240762575, "lat": 41.6953729, "lon": 44.8706403}, {"type": "node", "id": 10240762576, "lat": 41.6953574, "lon": 44.8708448}, {"type": "node", "id": 10240762606, "lat": 41.6954583, "lon": 44.8712294}, {"type": "node", "id": 12725751197, "lat": 41.6950647, "lon": 44.8701272}, {"type": "node", "id": 12725751198, "lat": 41.69507, "lon": 44.8700935}, {"type": "node", "id": 12725751199, "lat": 41.69514, "lon": 44.8700581}, {"type": "node", "id": 12725751200, "lat": 41.6953699, "lon": 44.8699732}, {"type": "node", "id": 12725752101, "lat": 41.6954003, "lon": 44.8699838}, {"type": "node", "id": 12725752103, "lat": 41.6954944, "lon": 44.8699237}, {"type": "node", "id": 13152777163, "lat": 41.6959853, "lon": 44.8703771}, {"type": "node", "id": 13152777165, "lat": 41.6956033, "lon": 44.8724636}, {"type": "node", "id": 13152777168, "lat": 41.6957124, "lon": 44.8723952}, {"type": "node", "id": 13152777169, "lat": 41.6957995, "lon": 44.8723309}, {"type": "node", "id": 13152777170, "lat": 41.6958166, "lon": 44.872355}, {"type": "node", "id": 13152777171, "lat": 41.6959247, "lon": 44.8722837}, {"type": "node", "id": 13152777172, "lat": 41.6957603, "lon": 44.871912}, {"type": "node", "id": 13152777173, "lat": 41.6958299, "lon": 44.8718568}, {"type": "node", "id": 13152777174, "lat": 41.6956941, "lon": 44.8715498}, {"type": "node", "id": 13152777175, "lat": 41.6954295, "lon": 44.8724636}, {"type": "node", "id": 13152777176, "lat": 41.6958982, "lon": 44.8713879}, {"type": "node", "id": 13152777177, "lat": 41.6960672, "lon": 44.8717701}, {"type": "node", "id": 13152777178, "lat": 41.6963407, "lon": 44.8715592}, {"type": "node", "id": 13152777179, "lat": 41.6958634, "lon": 44.8704732}, {"type": "node", "id": 13152777371, "lat": 41.6927913, "lon": 44.8719681}, {"type": "node", "id": 13152777372, "lat": 41.692585, "lon": 44.8720861}, {"type": "node", "id": 13152777373, "lat": 41.6926551, "lon": 44.8722899}, {"type": "node", "id": 13152777374, "lat": 41.6928514, "lon": 44.8721424}, {"type": "node", "id": 914310044, "lat": 41.6953753, "lon": 44.8746304}, {"type": "node", "id": 2882005734, "lat": 41.6907909, "lon": 44.8730718}, {"type": "node", "id": 2882005735, "lat": 41.6908049, "lon": 44.8730021}, {"type": "node", "id": 2882005739, "lat": 41.6908301, "lon": 44.8730107}, {"type": "node", "id": 2882005743, "lat": 41.6908595, "lon": 44.8728883}, {"type": "node", "id": 10238233332, "lat": 41.6946246, "lon": 44.8784531}, {"type": "node", "id": 10238233333, "lat": 41.6947157, "lon": 44.8787939}, {"type": "node", "id": 10238233334, "lat": 41.694773, "lon": 44.8787668}, {"type": "node", "id": 10238233361, "lat": 41.694556, "lon": 44.8784874}, {"type": "node", "id": 10240763006, "lat": 41.6961435, "lon": 44.8743794}, {"type": "node", "id": 10240763007, "lat": 41.6959362, "lon": 44.8740052}, {"type": "node", "id": 10240763008, "lat": 41.6958196, "lon": 44.8742433}, {"type": "node", "id": 10240763012, "lat": 41.6943926, "lon": 44.8748977}, {"type": "node", "id": 10240763013, "lat": 41.6942163, "lon": 44.8743506}, {"type": "node", "id": 10240763014, "lat": 41.6941272, "lon": 44.8744257}, {"type": "node", "id": 10240763015, "lat": 41.6940096, "lon": 44.8740851}, {"type": "node", "id": 10240763016, "lat": 41.6940181, "lon": 44.8738021}, {"type": "node", "id": 10240763017, "lat": 41.6942454, "lon": 44.8738517}, {"type": "node", "id": 10240763018, "lat": 41.6943065, "lon": 44.8735446}, {"type": "node", "id": 10240763019, "lat": 41.6945949, "lon": 44.873621}, {"type": "node", "id": 10240763020, "lat": 41.6947, "lon": 44.873212}, {"type": "node", "id": 10240763021, "lat": 41.6949163, "lon": 44.8732495}, {"type": "node", "id": 10240763022, "lat": 41.6949519, "lon": 44.8730228}, {"type": "node", "id": 10240763023, "lat": 41.6951987, "lon": 44.8729894}, {"type": "node", "id": 10240763024, "lat": 41.6957094, "lon": 44.8725991}, {"type": "node", "id": 10240763025, "lat": 41.6959818, "lon": 44.8726903}, {"type": "node", "id": 10240763026, "lat": 41.6962071, "lon": 44.8731905}, {"type": "node", "id": 10240763027, "lat": 41.696139, "lon": 44.8732468}, {"type": "node", "id": 10240763028, "lat": 41.6962922, "lon": 44.8735888}, {"type": "node", "id": 10240763029, "lat": 41.6968759, "lon": 44.8732582}, {"type": "node", "id": 10240763030, "lat": 41.6968096, "lon": 44.8731091}, {"type": "node", "id": 10240763040, "lat": 41.6955988, "lon": 44.8727151}, {"type": "node", "id": 10240763041, "lat": 41.6954627, "lon": 44.8727783}, {"type": "node", "id": 10240763054, "lat": 41.6957905, "lon": 44.872807}, {"type": "node", "id": 10240763063, "lat": 41.6957625, "lon": 44.8741199}, {"type": "node", "id": 10240763064, "lat": 41.6968255, "lon": 44.8739154}, {"type": "node", "id": 10240763067, "lat": 41.6952308, "lon": 44.8731181}, {"type": "node", "id": 10240763083, "lat": 41.6955822, "lon": 44.8743989}, {"type": "node", "id": 12707766544, "lat": 41.6971675, "lon": 44.8737149}, {"type": "node", "id": 13116188771, "lat": 41.6947975, "lon": 44.8746071}, {"type": "node", "id": 13116188772, "lat": 41.6947952, "lon": 44.8747085}, {"type": "node", "id": 13116188773, "lat": 41.6971344, "lon": 44.8739153}, {"type": "node", "id": 13116196127, "lat": 41.6965426, "lon": 44.8735164}, {"type": "node", "id": 13116196128, "lat": 41.6965035, "lon": 44.8734453}, {"type": "node", "id": 13116196129, "lat": 41.694683, "lon": 44.8747247}, {"type": "node", "id": 13116196130, "lat": 41.6945949, "lon": 44.8748656}, {"type": "node", "id": 13116196131, "lat": 41.6955172, "lon": 44.8729894}, {"type": "node", "id": 13116196132, "lat": 41.6954701, "lon": 44.8727855}, {"type": "node", "id": 13116196133, "lat": 41.6960639, "lon": 44.874366}, {"type": "node", "id": 13116196134, "lat": 41.6961255, "lon": 44.8743231}, {"type": "node", "id": 13116196135, "lat": 41.6966637, "lon": 44.8740032}, {"type": "node", "id": 13116196136, "lat": 41.6966727, "lon": 44.8740247}, {"type": "node", "id": 13116196137, "lat": 41.6969371, "lon": 44.8742285}, {"type": "node", "id": 13116196138, "lat": 41.6970983, "lon": 44.8741179}, {"type": "node", "id": 13116196139, "lat": 41.6971895, "lon": 44.8742151}, {"type": "node", "id": 13116196140, "lat": 41.697248, "lon": 44.8741917}, {"type": "node", "id": 13151759828, "lat": 41.695379, "lon": 44.8745705}, {"type": "node", "id": 13151759829, "lat": 41.6956353, "lon": 44.8744123}, {"type": "node", "id": 13152777115, "lat": 41.6956952, "lon": 44.8725508}, {"type": "node", "id": 13152777117, "lat": 41.6957057, "lon": 44.8725914}, {"type": "node", "id": 13152777166, "lat": 41.6956038, "lon": 44.8726078}, {"type": "node", "id": 13152777167, "lat": 41.6957545, "lon": 44.8725153}, {"type": "node", "id": 13164154332, "lat": 41.6944533, "lon": 44.8785386}, {"type": "node", "id": 13164154339, "lat": 41.6947721, "lon": 44.8790257}, {"type": "node", "id": 13164154340, "lat": 41.6948311, "lon": 44.8789994}, {"type": "node", "id": 9811548573, "lat": 41.698722, "lon": 44.8523008}, {"type": "node", "id": 9811548646, "lat": 41.699081, "lon": 44.8528372}, {"type": "node", "id": 9811548647, "lat": 41.698849, "lon": 44.8528379}, {"type": "node", "id": 9811548648, "lat": 41.6988552, "lon": 44.852329}, {"type": "node", "id": 1864085772, "lat": 41.6973533, "lon": 44.8560026},