{"version": 0.6, "generator": "Overpass API 0.7.62.8 e802775f", "osm3s": {"timestamp_osm_base": "2025-11-20T03:21:27Z", "copyright": "The data included in this document is from www.openstreetmap.org. The data is made available under ODbL."}, "elements": [{"type": "node", "id": 317957633, "lat": 13.7571598, "lon": 100.5218859, "tags": {"addr:housenumber": "1", "addr:province": "\u0e01\u0e23\u0e38\u0e07\u0e40\u0e17\u0e1e\u0e21\u0e2b\u0e32\u0e19\u0e04\u0e23", "addr:street": "Petchburi Soi 1", "comment": "usually 850B a night including wifi and breakfast", "name": "Bangkok City Suite", "tourism": "hotel", "wifi": "free"}}, {"type": "node", "id": 358479765, "lat": 13.7692497, "lon": 100.5120175, "tags": {"artwork_type": "statue", "material": "bronze", "name": "\u0e1e\u0e23\u0e30\u0e1a\u0e23\u0e21\u0e23\u0e39\u0e1b\u0e17\u0e23\u0e07\u0e21\u0e49\u0e32", "name:en": "King Rama V (Chulalongkorn) Statue", "name:th": "\u0e1e\u0e23\u0e30\u0e1a\u0e23\u0e21\u0e23\u0e39\u0e1b\u0e17\u0e23\u0e07\u0e21\u0e49\u0e32", "start_date": "1908", "statue": "equestrian", "subject:wikidata": "Q158861", "tourism": "artwork", "wikidata": "Q16305109", "wikimedia_commons": "Category:Equestrian statue of Rama V (Dusit Palace)", "wikipedia": "en:Equestrian statue of King Chulalongkorn"}}, {"type": "node", "id": 567014290, "lat": 13.7555116, "lon": 100.506445, "tags": {"amenity": "ferry_terminal", "ferry": "yes", "name": "\u0e1c\u0e48\u0e32\u0e19\u0e1f\u0e49\u0e32\u0e25\u0e35\u0e25\u0e32\u0e28", "name:en": "Phanfa Leelard", "name:fr": "Phanfa Leelard", "name:ru": "Phanfa Leelard", "name:th": "\u0e1c\u0e48\u0e32\u0e19\u0e1f\u0e49\u0e32\u0e25\u0e35\u0e25\u0e32\u0e28", "network": "Golden Mount Line", "opening_hours": "Mo-Fr 08:00-20:00; Sa-Su 08:00-19:30", "public_transport": "stop_position", "ref": "W5", "tourism": "attraction"}}, {"type": "node", "id": 776746274, "lat": 13.7601131, "lon": 100.5027895, "tags": {"addr:housenumber": "1 6", "addr:postcode": "10200", "addr:province": "\u0e01\u0e23\u0e38\u0e07\u0e40\u0e17\u0e1e\u0e21\u0e2b\u0e32\u0e19\u0e04\u0e23", "addr:street": "Prachathipatai Rd, Khwaeng Ban Phan Thom, Khet Phra Nakhon, Bangkok 10200, Tha\u00eflande", "amenity": "restaurant", "cuisine": "thai", "name": "The Family", "phone": "+66958960395", "tourism": "hotel", "website": "https://www.facebook.com/thefamilybkk"}}, {"type": "node", "id": 951517623, "lat": 13.7554701, "lon": 100.5368263, "tags": {"brand": "Best Western", "brand:wikidata": "Q830334", "name": "Best Western Mayfair Suites", "note": "Locn to be verified.", "tourism": "hotel"}}, {"type": "node", "id": 1189577730, "lat": 13.7561123, "lon": 100.5020888, "tags": {"addr:postcode": "10200", "amenity": "restaurant", "cuisine": "thai", "name": "\u0e40\u0e21\u0e18\u0e32\u0e27\u0e25\u0e31\u0e22\u0e28\u0e23\u0e41\u0e14\u0e07", "name:en": "Methavalai Sorndaeng", "name:th": "\u0e40\u0e21\u0e18\u0e32\u0e27\u0e25\u0e31\u0e22\u0e28\u0e23\u0e41\u0e14\u0e07", "source": "bing; sign"}}, {"type": "node", "id": 1189577946, "lat": 13.7553773, "lon": 100.5049616, "tags": {"alt_name:th": "\u0e2d\u0e19\u0e38\u0e2a\u0e32\u0e27\u0e23\u0e35\u0e22\u0e4c\u0e23\u0e31\u0e0a\u0e01\u0e32\u0e25\u0e17\u0e35\u0e48 3", "artwork_type": "statue", "name": "\u0e1e\u0e23\u0e30\u0e1a\u0e23\u0e21\u0e23\u0e32\u0e0a\u0e32\u0e19\u0e38\u0e2a\u0e32\u0e27\u0e23\u0e35\u0e22\u0e4c \u0e23\u0e31\u0e0a\u0e01\u0e32\u0e25\u0e17\u0e35\u0e48 3", "name:en": "King Rama III Royal Monument", "name:th": "\u0e1e\u0e23\u0e30\u0e1a\u0e23\u0e21\u0e23\u0e32\u0e0a\u0e32\u0e19\u0e38\u0e2a\u0e32\u0e27\u0e23\u0e35\u0e22\u0e4c \u0e23\u0e31\u0e0a\u0e01\u0e32\u0e25\u0e17\u0e35\u0e48 3", "source": "bing;sign", "tourism": "artwork"}}, {"type": "node", "id": 1422384779, "lat": 13.7990775, "lon": 100.5145264, "tags": {"amenity": "restaurant", "name": "To-Sit Pier 92"}}, {"type": "node", "id": 1632794902, "lat": 13.764882, "lon": 100.5027294, "tags": {"name": "Swana Bangkok", "tourism": "hotel", "website": "http://www.swanabangkok.com/"}}, {"type": "node", "id": 1730178225, "lat": 13.7797359, "lon": 100.544962, "tags": {"amenity": "cafe", "brand": "Starbucks", "brand:wikidata": "Q37158", "brand:wikipedia": "en:Starbucks", "cuisine": "coffee_shop", "internet_access": "wlan", "level": "0", "name": "Starbucks", "name:en": "Starbucks Coffee", "name:th": "\u0e2a\u0e15\u0e32\u0e23\u0e4c\u0e1a\u0e31\u0e04\u0e2a\u0e4c", "official_name": "Starbucks Coffee", "phone": "+6626130540", "smoking": "no", "takeaway": "yes", "website": "https://www.starbucks.co.th/"}}, {"type": "node", "id": 1756541842, "lat": 13.7513157, "lon": 100.510866, "tags": {"addr:city": "\u0e41\u0e02\u0e27\u0e07\u0e04\u0e25\u0e2d\u0e07\u0e21\u0e2b\u0e32\u0e19\u0e32\u0e04", "addr:postcode": "10100", "addr:street": "\u0e16\u0e19\u0e19\u0e1a\u0e33\u0e23\u0e38\u0e07\u0e40\u0e21\u0e37\u0e2d\u0e07", "amenity": "restaurant", "cuisine": "thai;noodle", "diet:fish": "yes", "name": "\u0e41\u0e0b\u0e1a-\u0e40\u0e1a\u0e4a", "name:en": "Saab-Bae Fish Ball Noodle", "name:th": "\u0e41\u0e0b\u0e1a-\u0e40\u0e1a\u0e4a", "opening_hours": "Tu-Sa 10:00-20:30; Su 09:00-20:00", "phone": "+6622233515"}}, {"type": "node", "id": 1762380437, "lat": 13.7826402, "lon": 100.5425957, "tags": {"amenity": "restaurant", "name": "Salt", "website": "http://www.saltbangkok.com"}}, {"type": "node", "id": 1762949406, "lat": 13.7835553, "lon": 100.5432856, "tags": {"amenity": "restaurant", "cuisine": "vietnamese", "name": "Dalad"}}, {"type": "node", "id": 1797244566, "lat": 13.7917699, "lon": 100.549412, "tags": {"amenity": "restaurant"}}, {"type": "node", "id": 1797249245, "lat": 13.778878, "lon": 100.5383131, "tags": {"amenity": "restaurant", "cuisine": "international", "name": "13 Coins restaurant"}}, {"type": "node", "id": 1797250064, "lat": 13.7774296, "lon": 100.5395791, "tags": {"amenity": "restaurant", "cuisine": "thai", "name": "Suankularb restaurant", "source": "local knowledge"}}, {"type": "node", "id": 1797257470, "lat": 13.780144, "lon": 100.5358562, "tags": {"amenity": "restaurant", "cuisine": "thai", "name": "roasted chicken", "source": "local knowledge"}}, {"type": "node", "id": 1797274116, "lat": 13.7867086, "lon": 100.5355504, "tags": {"amenity": "restaurant"}}, {"type": "node", "id": 1856766520, "lat": 13.7628922, "lon": 100.5010387, "tags": {"tourism": "guest_house"}}, {"type": "node", "id": 1868781115, "lat": 13.7527631, "lon": 100.5048237, "tags": {"amenity": "restaurant", "cuisine": "thai", "name": "\u0e17\u0e34\u0e1e\u0e22\u0e4c\u0e2a\u0e21\u0e31\u0e22", "name:en": "Thip Samai", "name:he": "\u05d8\u05d9\u05e4 \u05e1\u05de\u05d0\u05d9", "name:ko": "\ud301\uc0ac\ub9c8\uc774 \ud31f\ud0c0\uc774", "name:th": "\u0e17\u0e34\u0e1e\u0e22\u0e4c\u0e2a\u0e21\u0e31\u0e22", "opening_hours": "Mo-Su 17:00-02:00", "website": "https://www.thipsamai.com/"}}, {"type": "node", "id": 1873065953, "lat": 13.7627912, "lon": 100.5135317, "tags": {"artwork_type": "statue", "historic": "memorial", "tourism": "artwork"}}, {"type": "node", "id": 1886961506, "lat": 13.7553498, "lon": 100.5053797, "tags": {"historic": "city_gate"}}, {"type": "node", "id": 1886961610, "lat": 13.760066, "lon": 100.5016239, "tags": {"historic": "city_gate"}}, {"type": "node", "id": 1958683494, "lat": 13.7796045, "lon": 100.5368512, "tags": {"amenity": "restaurant", "cuisine": "international;asian", "name": "Pladib"}}, {"type": "node", "id": 2071772629, "lat": 13.7800253, "lon": 100.5451683, "tags": {"amenity": "restaurant", "cuisine": "international", "level": "0", "name": "Greyhound Cafe", "opening_hours": "11:00-22:00", "payment:credit_cards": "yes", "phone": "+6626130547", "reservation": "yes", "website": "https://www.greyhoundcafe.co.th/"}}, {"type": "node", "id": 2075726785, "lat": 13.779768, "lon": 100.5450323, "tags": {"amenity": "restaurant", "cuisine": "japanese", "level": "1", "name": "Fuji", "name:en": "Fuji", "name:th": "\u0e1f\u0e39\u0e08\u0e34", "opening_hours": "Mo-Su 11:00-22:00", "payment:credit_cards": "yes", "price": "251 - 500 bath", "website": "https://fuji.co.th/"}}, {"type": "node", "id": 2075727317, "lat": 13.7801668, "lon": 100.545044, "tags": {"amenity": "restaurant", "cuisine": "japanese", "level": "1", "name": "tazu shabu", "opening_hours": "11:00-22:00", "payment:credit_cards": "yes", "phone": "+6626130595", "price": "251- 500 bath"}}, {"type": "node", "id": 2075727571, "lat": 13.7800952, "lon": 100.54504, "tags": {"amenity": "restaurant", "level": "1", "name": "yuu bbq", "opening_hours": "11:00-22:00", "phone": "+6626130563", "price": "100-1200 THB", "website": "http://www.yuurestaurant.com/"}}, {"type": "node", "id": 2075727702, "lat": 13.7800462, "lon": 100.5451965, "tags": {"amenity": "restaurant", "cuisine": "japanese", "level": "1", "name": "CoCo ICHIBANYA", "name:en": "CoCo ICHIBANYA", "name:th": "\u0e42\u0e04\u0e42\u0e04\u0e48 \u0e2d\u0e34\u0e09\u0e34\u0e1a\u0e31\u0e19\u0e22\u0e30", "opening_hours": "Mo-Fr 10:30-22:00; Sa,Su 10:00-22:00", "payment:credit_cards": "yes", "price": "101 - 250 THB", "website": "https://www.cocothailand.com/"}}, {"type": "node", "id": 2075728142, "lat": 13.7797357, "lon": 100.5450065, "tags": {"amenity": "restaurant", "level": "2", "name": "italian job restaurant", "opening_hours": "11:00-22:00", "payment:credit_cards": "yes", "phone": "+6626130518", "price": "251 - 500 bath"}}, {"type": "node", "id": 2075728143, "lat": 13.779875, "lon": 100.5450105, "tags": {"amenity": "restaurant", "credit": "yes", "cuisine": "thai", "level": "2", "name": "\u0e40\u0e15\u0e35\u0e4b\u0e22\u0e27\u0e2b\u0e19\u0e49\u0e32\u0e04\u0e25\u0e31\u0e07", "name:th": "\u0e23\u0e49\u0e32\u0e19\u0e2d\u0e32\u0e2b\u0e32\u0e23\u0e44\u0e17\u0e22\u0e40\u0e23\u0e37\u0e2d\u0e19\u0e04\u0e33", "opening_hours": "10:00-22:00", "phone": "+6626130515;+66819035412"}}, {"type": "node", "id": 2075729002, "lat": 13.7800625, "lon": 100.54504, "tags": {"amenity": "restaurant", "cuisine": "japanese", "email": "kinnikugyudon@gmail.com", "level": "2", "name": "kinniku gyudon restaurant", "opening_hours": "11:00-22:00", "payment:credit_cards": "yes", "phone": "+6626130516", "price": "101 - 250 THB", "website": "http://www.facebook.com/pages/KINNIKU-GYUDON/128122801147"}}, {"type": "node", "id": 2075731848, "lat": 13.7798315, "lon": 100.5452473, "tags": {"amenity": "cafe", "level": "1", "name": "after you", "opening_hours": "10:00-22:00", "phone": "+6626130597", "price": "101 - 250 THB", "website": "https://www.afteryoudessertcafe.com/"}}, {"type": "node", "id": 2075731870, "lat": 13.7796874, "lon": 100.5450493, "tags": {"amenity": "restaurant", "credit": "yes", "cuisine": "international", "level": "1", "name": "secret recipe", "opening_hours": "10:30-22:00", "phone": "+6626130575", "website": "www.secretrecipe.co.th"}}, {"type": "node", "id": 2085346364, "lat": 13.7635808, "lon": 100.5000174, "tags": {"addr:housenumber": "168/7", "addr:street": "Soi Samsen 4", "amenity": "cafe", "cuisine": "coffee_shop", "name": "Bow's Restaurant", "opening_hours": "Mo-Su 08:00-21:00", "outdoor_seating": "yes", "smoking": "isolated"}}, {"type": "node", "id": 2104179951, "lat": 13.7800403, "lon": 100.5450937, "tags": {"amenity": "restaurant", "level": "0", "name": "\u0e23\u0e2a\u0e19\u0e34\u0e22\u0e21", "name:th": "\u0e23\u0e2a\u0e19\u0e34\u0e22\u0e21"}}, {"type": "node", "id": 2104194062, "lat": 13.7800344, "lon": 100.5451174, "tags": {"amenity": "cafe", "level": "0", "name": "Iberry"}}, {"type": "node", "id": 2104288005, "lat": 13.7802045, "lon": 100.5450426, "tags": {"amenity": "restaurant", "level": "2", "name": "Up To Yuu", "opening_hours": "10:30-21:00", "payment:credit_cards": "yes", "phone": "+6626190122", "price": "101 - 250 bath", "website": "http://www.yuurestaurant.com/uptoyuu.html"}}, {"type": "node", "id": 2107224379, "lat": 13.7980669, "lon": 100.5486727, "tags": {"amenity": "restaurant", "cuisine": "chinese", "designation": "\u0e23\u0e49\u0e32\u0e19\u0e01\u0e4a\u0e27\u0e22\u0e40\u0e15\u0e35\u0e4b\u0e22\u0e27"}}, {"type": "node", "id": 2107251215, "lat": 13.7980887, "lon": 100.5491737, "tags": {"alt_name": "\u0e1a\u0e30\u0e2b\u0e21\u0e35\u0e48\u0e40\u0e08\u0e49\u0e32\u0e40\u0e01\u0e48\u0e32", "amenity": "restaurant", "cuisine": "chinese", "designation": "\u0e23\u0e49\u0e32\u0e19\u0e1a\u0e30\u0e2b\u0e21\u0e35\u0e48", "name": "Bamee Jaokao"}}, {"type": "node", "id": 2107308837, "lat": 13.7980458, "lon": 100.549973, "tags": {"amenity": "cafe", "cuisine": "coffee_shop", "name": "Anyadharu tea house", "product": "perfumery and tea house"}}, {"type": "node", "id": 2144688839, "lat": 13.7666161, "lon": 100.5011449, "tags": {"amenity": "cafe", "name": "Caffeine Lover", "smoking": "no"}}, {"type": "node", "id": 2180487980, "lat": 13.7706056, "lon": 100.5047314, "tags": {"addr:housenumber": "354/20", "amenity": "restaurant", "name": "\u0e2a\u0e27\u0e19\u0e08\u0e34\u0e15\u0e23", "name:th": "\u0e2a\u0e27\u0e19\u0e08\u0e34\u0e15\u0e23"}}, {"type": "node", "id": 2310928058, "lat": 13.7521872, "lon": 100.5300557, "tags": {"addr:country": "TH", "addr:housenumber": "359/1", "addr:province": "\u0e01\u0e23\u0e38\u0e07\u0e40\u0e17\u0e1e\u0e21\u0e2b\u0e32\u0e19\u0e04\u0e23", "addr:street": "Soi Phayanak, Phetchaburi Rd", "name": "Siam Swana", "name:zh": "\u66b9\u7f57\u601d\u74e6\u7eb3\u9152\u5e97", "note": "Locn to be verified.", "phone": "+662 6110191", "tourism": "hotel"}}, {"type": "node", "id": 2313566471, "lat": 13.7649304, "lon": 100.5382847, "tags": {"historic": "monument", "name": "\u0e2d\u0e19\u0e38\u0e2a\u0e32\u0e27\u0e23\u0e35\u0e22\u0e4c\u0e0a\u0e31\u0e22\u0e2a\u0e21\u0e23\u0e20\u0e39\u0e21\u0e34", "name:en": "Victory Monument", "name:ja": "\u6226\u52dd\u8a18\u5ff5\u5854"}}, {"type": "node", "id": 2337055721, "lat": 13.7634068, "lon": 100.5000875, "tags": {"name": "Amazing House", "tourism": "guest_house"}}, {"type": "node", "id": 2339262162, "lat": 13.799178, "lon": 100.5470681, "tags": {"amenity": "restaurant", "cuisine": "thai", "diet:vegan": "only", "name": "\u0e08\u0e33\u0e25\u0e2d\u0e07\u0e2d\u0e42\u0e28\u0e01", "name:en": "Chamlong's Asoke", "name:th": "\u0e08\u0e33\u0e25\u0e2d\u0e07\u0e2d\u0e42\u0e28\u0e01"}}, {"type": "node", "id": 2339262163, "lat": 13.7993551, "lon": 100.5491281, "tags": {"amenity": "restaurant", "diet:vegetarian": "yes", "name": "Krua Krung Kaow"}}, {"type": "node", "id": 2340521136, "lat": 13.7528942, "lon": 100.5396364, "tags": {"email": "baiyokesuite@baiyoke.co.th", "fax": "+66 2254 5553", "name": "Baiyoke Suite Hotel", "phone": "+66 2255 7755", "stars": "4", "tourism": "hotel", "website": "https://baiyokesuite.baiyokehotel.com/"}}, {"type": "node", "id": 2361919548, "lat": 13.7541319, "lon": 100.5011811, "tags": {"addr:housenumber": "160/1-3", "addr:postcode": "10200", "addr:street": "Thanon Dinso", "amenity": "cafe", "cuisine": "coffee_shop", "name": "\u0e21\u0e19\u0e15\u0e4c\u0e19\u0e21\u0e2a\u0e14", "name:en": "Mont Nomsod", "name:th": "\u0e21\u0e19\u0e15\u0e4c\u0e19\u0e21\u0e2a\u0e14", "website": "http://www.mont-nomsod.com/"}}, {"type": "node", "id": 2365836782, "lat": 13.7523283, "lon": 100.5265345, "tags": {"name": "Diamond City Hotel", "tourism": "hotel"}}, {"type": "node", "id": 2391364879, "lat": 13.757402, "lon": 100.5345009, "tags": {"name": "Florida Hotel", "stars": "2", "tourism": "hotel"}}, {"type": "node", "id": 2402013969, "lat": 13.7632664, "lon": 100.500154, "tags": {"amenity": "restaurant", "name": "Green"}}, {"type": "node", "id": 2406015241, "lat": 13.7577519, "lon": 100.5000585, "tags": {"name": "C.H. 2", "tourism": "guest_house"}}, {"type": "node", "id": 2406015801, "lat": 13.7577272, "lon": 100.5001748, "tags": {"name": "Nat 2", "tourism": "guest_house"}}, {"type": "node", "id": 2484887626, "lat": 13.7519311, "lon": 100.537043, "tags": {"addr:housename": "Pakdee bed and breakfast", "addr:postcode": "10400", "addr:province": "\u0e01\u0e23\u0e38\u0e07\u0e40\u0e17\u0e1e\u0e21\u0e2b\u0e32\u0e19\u0e04\u0e23", "addr:street": "Phetchaburi 15", "contact:facebook": "https://www.facebook.com/Pakdee-Bed-and-Breakfast-623965297624026/", "facebook": "https://www.facebook.com/Pakdee-Bed-and-Breakfast-623965297624026/", "name": "\u0e1e\u0e31\u0e01\u0e14\u0e35 \u0e1b\u0e23\u0e30\u0e15\u0e39\u0e19\u0e49\u0e33 \u0e40\u0e1a\u0e14\u0e41\u0e2d\u0e19\u0e14\u0e4c\u0e40\u0e1a\u0e23\u0e04\u0e1f\u0e32\u0e2a\u0e15\u0e4c", "name:en": "Pakdee Bed and Breakfast", "name:th": "\u0e1e\u0e31\u0e01\u0e14\u0e35 \u0e1b\u0e23\u0e30\u0e15\u0e39\u0e19\u0e49\u0e33 \u0e40\u0e1a\u0e14\u0e41\u0e2d\u0e19\u0e14\u0e4c\u0e40\u0e1a\u0e23\u0e04\u0e1f\u0e32\u0e2a\u0e15\u0e4c", "phone": "+6626537611", "tourism": "hotel", "website": "http://www.pak-d.com/"}}, {"type": "node", "id": 2494606497, "lat": 13.750609, "lon": 100.5384124, "tags": {"amenity": "cafe", "brand": "Starbucks", "brand:wikidata": "Q37158", "cuisine": "coffee_shop", "internet_access": "wlan", "internet_access:fee": "no", "level": "0", "name": "Starbucks", "name:en": "Starbucks Coffee", "name:th": "\u0e2a\u0e15\u0e32\u0e23\u0e4c\u0e1a\u0e31\u0e04\u0e2a\u0e4c", "official_name": "Starbucks Coffee", "shop": "coffee", "smoking": "no", "takeaway": "yes", "website": "https://www.starbucks.co.th/"}}, {"type": "node", "id": 2494606498, "lat": 13.7501837, "lon": 100.5396726, "tags": {"amenity": "cafe", "brand": "Swensen's", "cuisine": "ice_cream", "level": "0", "name": "Swensen's", "website": "https://www.swensens1112.com/"}}, {"type": "node", "id": 2512936178, "lat": 13.7539288, "lon": 100.5066298, "tags": {"image": "https://photos.app.goo.gl/boxsFTqYVKWNNHoK8", "name:en": "Golden Mount", "name:es": "Monta\u00f1a Dorada", "name:ru": "\u0425\u0440\u0430\u043c \u0417\u043e\u043b\u043e\u0442\u0430\u044f \u0433\u043e\u0440\u0430", "tourism": "viewpoint"}}, {"type": "node", "id": 2703771524, "lat": 13.7719701, "lon": 100.5035084, "tags": {"addr:country": "TH", "addr:housenumber": "16", "addr:province": "\u0e01\u0e23\u0e38\u0e07\u0e40\u0e17\u0e1e\u0e21\u0e2b\u0e32\u0e19\u0e04\u0e23", "addr:street": "\u0e16\u0e19\u0e19\u0e28\u0e23\u0e35\u0e2d\u0e22\u0e38\u0e18\u0e22\u0e32", "name": "Shanti Lodge", "source": "survey", "tourism": "guest_house", "website": "https://www.shantilodge.com/page/shanti-bangkok"}}, {"type": "node", "id": 2753736888, "lat": 13.7717915, "lon": 100.5002291, "tags": {"amenity": "restaurant", "name": "In Love", "name:ko": "\uc778\ub7ec\ube0c"}}, {"type": "node", "id": 2753739785, "lat": 13.7736179, "lon": 100.5011958, "tags": {"amenity": "restaurant", "name": "Kaloang Home Kitchen"}}, {"type": "node", "id": 2768111339, "lat": 13.7544598, "lon": 100.5393412, "tags": {"addr:housenumber": "88/19", "addr:postcode": "10400", "addr:province": "\u0e01\u0e23\u0e38\u0e07\u0e40\u0e17\u0e1e\u0e21\u0e2b\u0e32\u0e19\u0e04\u0e23", "addr:street": "Ratchaprapop 3", "alt_name": "Citin Pratunam Hotel Bangkok by Compass Hospitality", "name": "Citin Pratunam", "tourism": "hotel"}}, {"type": "node", "id": 2893548580, "lat": 13.755314, "lon": 100.531298, "tags": {"addr:district": "\u0e1e\u0e0d\u0e32\u0e44\u0e17\u0e22", "addr:housenumber": "164/68", "addr:postcode": "10400", "addr:province": "\u0e01\u0e23\u0e38\u0e07\u0e40\u0e17\u0e1e\u0e21\u0e2b\u0e32\u0e19\u0e04\u0e23", "addr:street": "\u0e0b\u0e2d\u0e22\u0e19\u0e49\u0e2d\u0e21\u0e08\u0e34\u0e15\u0e15\u0e4c", "contact:email": "siamjourney.guesthouse@gmail.com", "name": "Siam Journey Guesthouse", "name:en": "Siam Journey Guesthouse", "phone": "+66 2 162 0620", "smoking": "outside", "source": "Survey", "tourism": "hostel", "website": "http://www.siamjourneyguesthouse.com/"}}, {"type": "node", "id": 2894977953, "lat": 13.7553631, "lon": 100.5327535, "tags": {"addr:postcode": "10400", "addr:province": "\u0e01\u0e23\u0e38\u0e07\u0e40\u0e17\u0e1e\u0e21\u0e2b\u0e32\u0e19\u0e04\u0e23", "addr:street": "Phaya Thai Road", "amenity": "cafe", "cuisine": "coffee_shop", "internet_access": "wlan", "name": "Quest Cafe", "opening_hours": "06:00-22:00", "phone": "+66 26121442", "smoking": "no", "website": "http://www.questcafebkk.com/"}}, {"type": "node", "id": 2896468788, "lat": 13.7517447, "lon": 100.5306258, "tags": {"addr:province": "\u0e01\u0e23\u0e38\u0e07\u0e40\u0e17\u0e1e\u0e21\u0e2b\u0e32\u0e19\u0e04\u0e23", "addr:street": "Soi Phaya Nak", "amenity": "cafe", "cuisine": "breakfast", "internet_access": "no", "name": "8 Bit House", "note": "8 Bit House, Cafe & Restaurant, Coffee & Breakfast", "opening_hours": "07:00-21:00", "smoking": "no", "source": "Survey"}}, {"type": "node", "id": 2896616995, "lat": 13.7544423, "lon": 100.5322744, "tags": {"addr:housenumber": "240/5", "addr:postcode": "10400", "addr:province": "\u0e01\u0e23\u0e38\u0e07\u0e40\u0e17\u0e1e\u0e21\u0e2b\u0e32\u0e19\u0e04\u0e23", "addr:street": "\u0e16\u0e19\u0e19\u0e1e\u0e0d\u0e32\u0e44\u0e17", "amenity": "restaurant", "cuisine": "thai", "name": "Gift Kae"}}, {"type": "node", "id": 2962489061, "lat": 13.7530368, "lon": 100.5497571, "tags": {"addr:street": "Ratchathewi Road", "name": "\u0e1e\u0e34\u0e1e\u0e34\u0e18\u0e20\u0e31\u0e13\u0e11\u0e4c\u0e41\u0e23\u0e07\u0e07\u0e32\u0e19\u0e44\u0e17\u0e22", "name:en": "Thai Labour Museum", "phone": "+66 02 251 3173", "tourism": "museum", "wikidata": "Q7709126", "wikipedia": "en:Thai Labour Museum"}}, {"type": "node", "id": 2972684241, "lat": 13.7581293, "lon": 100.5191735, "tags": {"amenity": "restaurant", "diet:vegetarian": "yes", "name": "Mission Health Food Center"}}, {"type": "node", "id": 2994063310, "lat": 13.7701422, "lon": 100.5014752, "tags": {"amenity": "cafe", "internet_access": "no", "name": "Inthanin Coffee", "smoking": "no"}}, {"type": "node", "id": 3010119633, "lat": 13.7814514, "lon": 100.5445841, "tags": {"amenity": "restaurant", "cuisine": "pancake", "name": "Panary Cafe"}}, {"type": "node", "id": 3016393596, "lat": 13.779234, "lon": 100.5230525, "tags": {"amenity": "restaurant", "name": "\u0e21\u0e30\u0e22\u0e2d\u0e14\u0e1c\u0e31\u0e01"}}, {"type": "node", "id": 3039144605, "lat": 13.757116, "lon": 100.5043537, "tags": {"amenity": "restaurant", "cuisine": "chinese", "name": "\u0e20\u0e31\u0e15\u0e15\u0e32\u0e04\u0e32\u0e23\u0e1c\u0e48\u0e32\u0e19\u0e1f\u0e49\u0e32"}}, {"type": "node", "id": 3078432038, "lat": 13.751705, "lon": 100.531948, "tags": {"amenity": "restaurant", "name": "T.S. Cuisine", "source": "Survey"}}, {"type": "node", "id": 3078617867, "lat": 13.7830644, "lon": 100.5422636, "tags": {"amenity": "restaurant", "name": "Cafe Marlin"}}, {"type": "node", "id": 3114186393, "lat": 13.768501, "lon": 100.5408617, "tags": {"amenity": "cafe", "brand": "Caf\u00e9 Amazon", "brand:wikidata": "Q43247503", "brand:wikipedia": "en:Caf\u00e9 Amazon", "cuisine": "coffee_shop", "name": "Caf\u00e9 Amazon", "name:en": "Caf\u00e9 Amazon", "name:th": "\u0e04\u0e32\u0e40\u0e1f\u0e48 \u0e2d\u0e40\u0e21\u0e0b\u0e2d\u0e19", "operator": "PTT", "smoking": "no", "takeaway": "yes"}}, {"type": "node", "id": 3133292409, "lat": 13.7562403, "lon": 100.5006133, "tags": {"name": "Baan Noppawong", "phone": "+66 2 224 1047", "tourism": "hotel"}}, {"type": "node", "id": 3152433010, "lat": 13.7517868, "lon": 100.5363661, "tags": {"addr:province": "\u0e01\u0e23\u0e38\u0e07\u0e40\u0e17\u0e1e\u0e21\u0e2b\u0e32\u0e19\u0e04\u0e23", "addr:street": "Phetchaburi 20", "amenity": "restaurant", "cuisine": "thai", "name": "Sri Lanka"}}, {"type": "node", "id": 3237436683, "lat": 13.7554862, "lon": 100.5293573, "tags": {"amenity": "restaurant", "cuisine": "thai", "name": "P'Aor Restaurant", "website": "https://bangkokgoplay.pixnet.net/blog/post/59384173-%E3%80%90%E6%9B%BC%E8%B0%B7%E7%BE%8E%E9%A3%9F%E3%80%91%E6%8C%91%E6%88%B0%E4%BD%A0%E7%9A%84%E8%83%83%E5%AE%B9%E9%87%8F!!-%E5%B7%A8%E7%84%A1%E9%9C%B8%E6%B5%B7%E5%8D%97%E9%9B%9E"}}, {"type": "node", "id": 3255004461, "lat": 13.7529189, "lon": 100.5311982, "tags": {"addr:country": "TH", "addr:housenumber": "486/157", "addr:postcode": "10400", "addr:province": "\u0e01\u0e23\u0e38\u0e07\u0e40\u0e17\u0e1e\u0e21\u0e2b\u0e32\u0e19\u0e04\u0e23", "addr:street": "Soi Phetchaburi16", "name": "Monomer Hostel", "tourism": "hostel"}}, {"type": "node", "id": 3256556870, "lat": 13.7611311, "lon": 100.5016091, "tags": {"name": "Baan Nampetch Hostel", "tourism": "hostel"}}, {"type": "node", "id": 3272167257, "lat": 13.7532575, "lon": 100.5311223, "tags": {"addr:country": "TH", "addr:housenumber": "484", "addr:postcode": "10400", "addr:province": "\u0e01\u0e23\u0e38\u0e07\u0e40\u0e17\u0e1e\u0e21\u0e2b\u0e32\u0e19\u0e04\u0e23", "addr:street": "Soi Phetchaburi16", "air_conditioning": "yes", "guest_house": "hostel", "internet_access": "yes", "name": "Bed Station Hostel", "tourism": "hostel"}}, {"type": "node", "id": 3272170166, "lat": 13.7558895, "lon": 100.5330154, "tags": {"addr:housenumber": "138", "addr:street": "\u0e16\u0e19\u0e19\u0e1e\u0e0d\u0e32\u0e44\u0e17", "amenity": "cafe", "brand": "Starbucks", "brand:wikidata": "Q37158", "cuisine": "coffee_shop", "internet_access": "wlan", "name": "Starbucks", "name:en": "Starbucks Coffee", "name:th": "\u0e2a\u0e15\u0e32\u0e23\u0e4c\u0e1a\u0e31\u0e04\u0e2a\u0e4c", "official_name": "Starbucks Coffee", "opening_hours": "Mo-Su 06:30-21:00", "phone": "+66 84 438 7490", "smoking": "no", "takeaway": "yes", "website": "https://www.starbucks.co.th/"}}, {"type": "node", "id": 3303523523, "lat": 13.7500839, "lon": 100.5311532, "tags": {"addr:street": "\u0e16\u0e19\u0e19\u0e1e\u0e0d\u0e32\u0e44\u0e17", "addr:street:en": "Phaya Thai Road", "amenity": "restaurant", "cuisine": "thai", "note": "Grilled fish/chicken street stall", "opening_hours": "Evenings only"}}, {"type": "node", "id": 3303524182, "lat": 13.7539331, "lon": 100.5304155, "tags": {"addr:street": "Phetchaburi Road", "amenity": "restaurant", "cuisine": "thai", "diet:halal": "yes", "name": "Roti street stall", "opening_hours": "Evenings only. Closed Mondays."}}, {"type": "node", "id": 3346270187, "lat": 13.780801, "lon": 100.544732, "tags": {"amenity": "restaurant", "name": "1000zen Noodle Cafe"}}, {"type": "node", "id": 3387487155, "lat": 13.7572354, "lon": 100.5043544, "tags": {"amenity": "cafe", "name": "\u0e42\u0e01\u0e1b\u0e35\u0e49\u0e40\u0e2e\u0e35\u0e49\u0e22\u0e30\u0e44\u0e16\u0e48\u0e01\u0e35\u0e48"}}, {"type": "node", "id": 3431325828, "lat": 13.7500567, "lon": 100.5145589, "tags": {"amenity": "cafe", "brand": "Starbucks", "brand:wikidata": "Q37158", "brand:wikipedia": "en:Starbucks", "cuisine": "coffee_shop", "name": "Starbucks", "name:en": "Starbucks Coffee", "name:th": "\u0e2a\u0e15\u0e32\u0e23\u0e4c\u0e1a\u0e31\u0e04\u0e2a\u0e4c", "official_name": "Starbucks Coffee", "shop": "coffee", "smoking": "no", "takeaway": "yes", "website": "https://www.starbucks.com/"}}, {"type": "node", "id": 3431325831, "lat": 13.7704161, "lon": 100.5406823, "tags": {"amenity": "cafe", "brand": "Starbucks", "brand:wikidata": "Q37158", "brand:wikipedia": "en:Starbucks", "cuisine": "coffee_shop", "name": "Starbucks", "name:en": "Starbucks Coffee", "name:th": "\u0e2a\u0e15\u0e32\u0e23\u0e4c\u0e1a\u0e31\u0e04\u0e2a\u0e4c", "official_name": "Starbucks Coffee", "smoking": "no", "takeaway": "yes", "website": "https://www.starbucks.co.th/"}}, {"type": "node", "id": 3436443896, "lat": 13.7579349, "lon": 100.5022014, "tags": {"amenity": "restaurant", "name": "noodle soup"}}, {"type": "node", "id": 3440625084, "lat": 13.7567055, "lon": 100.5184007, "tags": {"amenity": "marketplace", "name": "Night market"}}, {"type": "node", "id": 3444474803, "lat": 13.7511914, "lon": 100.538077, "tags": {"amenity": "cafe", "brand": "Starbucks", "brand:wikidata": "Q37158", "brand:wikipedia": "en:Starbucks", "cuisine": "coffee_shop", "internet_access": "wlan", "internet_access:fee": "no", "name": "Starbucks", "name:en": "Starbucks Coffee", "official_name": "Starbucks Coffee", "takeaway": "yes", "website": "www.starbuckscard.in.th"}}, {"type": "node", "id": 3529791755, "lat": 13.7627848, "lon": 100.5367218, "tags": {"historic": "monument", "name": "Monument"}}, {"type": "node", "id": 3529878891, "lat": 13.7663951, "lon": 100.5342342, "tags": {"historic": "memorial", "name": "Prince Mahidol Statue"}}, {"type": "node", "id": 3542061033, "lat": 13.7723651, "lon": 100.500557, "tags": {"amenity": "restaurant", "cuisine": "thai", "name": "Steve Cafe & Cuisine", "website": "stevecafeandcuisine.com"}}, {"type": "node", "id": 3548636595, "lat": 13.7557905, "lon": 100.5192997, "tags": {"name": "\u0e2b\u0e2d\u0e40\u0e01\u0e35\u0e22\u0e23\u0e15\u0e34\u0e20\u0e39\u0e21\u0e34\u0e19\u0e32\u0e22\u0e01\u0e23\u0e31\u0e10\u0e21\u0e19\u0e15\u0e23\u0e35\u0e44\u0e17\u0e22", "name:en": "Thailand Prime Ministers Museum", "name:pl": "Muzeum Premier\u00f3w Tajlandii", "tourism": "museum"}}, {"type": "node", "id": 3644576293, "lat": 13.7660302, "lon": 100.5378054, "tags": {"alt_name": "HEAP Victory Monument", "amenity": "restaurant", "cuisine": "thai", "internet_access": "wlan", "name": "Heap Cafe and Restaurant", "outdoor_seating": "yes"}}, {"type": "node", "id": 3693892339, "lat": 13.7549746, "lon": 100.5013511, "tags": {"amenity": "restaurant", "capacity": "30", "cuisine": "thai", "name": "YaYa Coffee Shop", "takeaway": "yes"}}, {"type": "node", "id": 3706275349, "lat": 13.7900649, "lon": 100.5028076, "tags": {"name": "Resort Bang Phlat", "tourism": "guest_house", "website": "http://www.resortbangphlat.com"}}, {"type": "node", "id": 3706287896, "lat": 13.7878235, "lon": 100.5049858, "tags": {"name": "Marina House", "tourism": "apartment", "website": "http://marinahouse.bangpladliving.com/"}}, {"type": "node", "id": 3858706151, "lat": 13.7502671, "lon": 100.5394636, "tags": {"amenity": "cafe", "brand": "\u0e04\u0e32\u0e40\u0e1f\u0e48 \u0e2d\u0e40\u0e21\u0e0b\u0e2d\u0e19", "brand:en": "Caf\u00e9 Amazon", "brand:th": "\u0e04\u0e32\u0e40\u0e1f\u0e48 \u0e2d\u0e40\u0e21\u0e0b\u0e2d\u0e19", "brand:wikidata": "Q43247503", "cuisine": "coffee_shop", "level": "0", "name": "\u0e04\u0e32\u0e40\u0e1f\u0e48 \u0e2d\u0e40\u0e21\u0e0b\u0e2d\u0e19", "name:en": "Caf\u00e9 Amazon", "name:th": "\u0e04\u0e32\u0e40\u0e1f\u0e48 \u0e2d\u0e40\u0e21\u0e0b\u0e2d\u0e19", "operator": "PTT", "shop": "coffee", "smoking": "no", "takeaway": "yes"}}, {"type": "node", "id": 3858706259, "lat": 13.7510062, "lon": 100.5372968, "tags": {"amenity": "restaurant", "brand": "S&P", "name": "S&P"}}, {"type": "node", "id": 3894724840, "lat": 13.7666356, "lon": 100.5007815, "tags": {"name": "Wayla Hostel", "tourism": "hostel"}}, {"type": "node", "id": 3894725262, "lat": 13.7668303, "lon": 100.5008255, "tags": {"amenity": "cafe", "name": "Caffeine Lover"}}, {"type": "node", "id": 3904123582, "lat": 13.757158, "lon": 100.5027219, "tags": {"name": "Ratchadamnoen Residence", "tourism": "hotel"}}, {"type": "node", "id": 3904124019, "lat": 13.7559848, "lon": 100.5017873, "tags": {"amenity": "restaurant", "name": "Baan Dinso", "tourism": "hotel"}}, {"type": "node", "id": 3904124021, "lat": 13.755971, "lon": 100.5034502, "tags": {"addr:postcode": "10200", "amenity": "cafe", "name": "Golden Coffee"}}, {"type": "node", "id": 3904124024, "lat": 13.7571217, "lon": 100.5028917, "tags": {"name": "Siamese Views Lodge", "tourism": "hotel"}}, {"type": "node", "id": 3904124025, "lat": 13.7570851, "lon": 100.5033118, "tags": {"name": "Sourire\u00a0@\u00a0Rattanakosin Island", "tourism": "hotel"}}, {"type": "node", "id": 3912745796, "lat": 13.7549177, "lon": 100.5267272, "tags": {"name": "Cacha Hotel", "tourism": "hotel"}}, {"type": "node", "id": 3912747542, "lat": 13.7525894, "lon": 100.5496074, "tags": {"name": "Oasis Hotel", "tourism": "hotel"}}, {"type": "node", "id": 3925242295, "lat": 13.7909949, "lon": 100.5460628, "tags": {"name": "Liberty Hotel", "tourism": "hotel"}}, {"type": "node", "id": 3933649924, "lat": 13.7628178, "lon": 100.5010248, "tags": {"addr:housenumber": "360", "addr:street": "Samsen Road", "name": "Samsen 360 Hostel", "tourism": "hostel"}}, {"type": "node", "id": 3952004863, "lat": 13.7539415, "lon": 100.5393892, "tags": {"addr:province": "\u0e01\u0e23\u0e38\u0e07\u0e40\u0e17\u0e1e\u0e21\u0e2b\u0e32\u0e19\u0e04\u0e23", "addr:street": "122/11 Pratunam", "amenity": "restaurant", "cuisine": "indian", "diet:vegan": "yes", "diet:vegetarian": "only", "name": "Guptaji Ki Kitchen", "phone": "+66868949628", "website": "https://www.guptajikitchen.com/"}}, {"type": "node", "id": 3952010078, "lat": 13.7539232, "lon": 100.5394911, "tags": {"amenity": "restaurant", "cuisine": "indian", "diet:vegetarian": "yes"}}, {"type": "node", "id": 3952022188, "lat": 13.7540535, "lon": 100.5394372, "tags": {"amenity": "restaurant", "cuisine": "indian", "diet:vegetarian": "yes"}}, {"type": "node", "id": 3952149219, "lat": 13.7539968, "lon": 100.5394159, "tags": {"amenity": "restaurant", "cuisine": "indian", "diet:vegan": "yes", "diet:vegetarian": "only", "name": "Royal Dosa"}}, {"type": "node", "id": 3953970957, "lat": 13.7556742, "lon": 100.5065267, "tags": {"amenity": "restaurant", "cuisine": "regional", "name": "Street food restaurant"}}, {"type": "node", "id": 3965355804, "lat": 13.7928814, "lon": 100.5455479, "tags": {"addr:housenumber": "49", "addr:postcode": "10400", "addr:province": "\u0e01\u0e23\u0e38\u0e07\u0e40\u0e17\u0e1e\u0e21\u0e2b\u0e32\u0e19\u0e04\u0e23", "addr:street": "\u0e1b\u0e23\u0e30\u0e14\u0e34\u0e1e\u0e31\u0e17\u0e18\u0e34\u0e4c 19", "contact:email": "info@udeebangkok.com", "contact:phone": "+66 2279 2595", "contact:website": "http://www.udeebangkok.com/", "name": "Udee Bangkok", "tourism": "hostel"}}, {"type": "node", "id": 3977891081, "lat": 13.7596228, "lon": 100.5034318, "tags": {"amenity": "marketplace", "name:en": "Street food market"}}, {"type": "node", "id": 3995523989, "lat": 13.7671921, "lon": 100.502982, "tags": {"historic": "monument", "name": "\u0e1e\u0e23\u0e30\u0e1e\u0e38\u0e17\u0e18\u0e28\u0e23\u0e35\u0e2d\u0e23\u0e34\u0e22\u0e40\u0e21\u0e15\u0e44\u0e15\u0e23\u0e22", "name:en": "Phra Phuttha Si Ariyamettrai"}}, {"type": "node", "id": 4038224948, "lat": 13.7549779, "lon": 100.5308473, "tags": {"amenity": "cafe", "name": "Fada"}}, {"type": "node", "id": 4052460126, "lat": 13.7558817, "lon": 100.5337246, "tags": {"addr:housenumber": "55/39", "addr:postcode": "10400", "addr:province": "\u0e01\u0e23\u0e38\u0e07\u0e40\u0e17\u0e1e\u0e21\u0e2b\u0e32\u0e19\u0e04\u0e23", "addr:street": "Soi Kolit, Phayathai Road", "internet_access:fee": "no", "name": "In A Box", "tourism": "hostel", "website": "http://in-a-box-hostel.bangkokthaihotels.com/en/"}}, {"type": "node", "id": 4072391009, "lat": 13.7521394, "lon": 100.5388984, "tags": {"addr:housenumber": "14/20-29", "addr:postcode": "10400", "addr:province": "\u0e01\u0e23\u0e38\u0e07\u0e40\u0e17\u0e1e\u0e21\u0e2b\u0e32\u0e19\u0e04\u0e23", "addr:street": "\u0e16\u0e19\u0e19\u0e40\u0e1e\u0e0a\u0e23\u0e1a\u0e38\u0e23\u0e35 \u0e0b\u0e2d\u0e2219", "name": "First House Hotel", "tourism": "hotel"}}, {"type": "node", "id": 4087946038, "lat": 13.7643189, "lon": 100.5010011, "tags": {"addr:housenumber": "21", "addr:street": "Samsen Soi 6", "name": "Blue House", "opening_hours": "Mo-Su 06:00-22:00", "phone": "+66897461505", "tourism": "hotel"}}, {"type": "node", "id": 4108160394, "lat": 13.7615417, "lon": 100.5044524, "tags": {"name": "Hotel De Moc", "tourism": "hotel"}}, {"type": "node", "id": 4114789799, "lat": 13.7524548, "lon": 100.5048001, "tags": {"addr:housenumber": "337", "addr:street": "\u0e16\u0e19\u0e19\u0e21\u0e2b\u0e32\u0e44\u0e0a\u0e22", "email": "timmansionbkk@gmail.com", "name": "Tim Mansion", "phone": "+66 65 353 2549", "tourism": "hotel", "website": "https://www.timmansionbkk.com"}}, {"type": "node", "id": 4130483202, "lat": 13.7512805, "lon": 100.5354576, "tags": {"addr:housenumber": "588/1", "addr:street": "Petchburi Road", "email": "info@residence-hotel.com", "internet_access": "wlan", "name": "The Residence Rajtaevee Hotel", "phone": "+6626565165", "tourism": "hotel", "website": "residence-hotel.com"}}, {"type": "node", "id": 4143815488, "lat": 13.786497, "lon": 100.5467938, "tags": {"amenity": "restaurant", "cuisine": "thai", "name": "S&P ", "website": "https://www.snpfood.com/en/"}}, {"type": "node", "id": 4145954689, "lat": 13.7532091, "lon": 100.502206, "tags": {"amenity": "cafe", "cuisine": "thai", "name": "Hya Tai Kee"}}, {"type": "node", "id": 4148051590, "lat": 13.7892971, "lon": 100.5465442, "tags": {"amenity": "restaurant", "name": "Uan Bamee Giew", "opening_hours": "Mo-Su 17:00-22:00"}}, {"type": "node", "id": 4148555094, "lat": 13.7593579, "lon": 100.5354145, "tags": {"internet_access": "wlan", "name": "The Motley House", "tourism": "hotel"}}, {"type": "node", "id": 4148645289, "lat": 13.7556608, "lon": 100.5035135, "tags": {"addr:city": "\u0e41\u0e02\u0e27\u0e07\u0e1a\u0e27\u0e23\u0e19\u0e34\u0e40\u0e27\u0e28", "addr:postcode": "10200", "email": "herehostel@gmail.com", "guest_house": "hostel", "internet_access": "wlan", "name": "Here Hostel", "opening_hours": "Mo-Su 07:00-21:00", "phone": "+66909877438", "tourism": "hostel", "website": "https://www.herehostel.com/"}}, {"type": "node", "id": 4150097290, "lat": 13.7561826, "lon": 100.5357264, "tags": {"addr:housenumber": "55", "addr:street": "Phetchaburi 11", "email": "55ddhome@hotmail.com", "internet_access": "wlan", "name": "DD home", "phone": "+6622501960", "tourism": "guest_house"}}, {"type": "node", "id": 4155951368, "lat": 13.7577339, "lon": 100.5228604, "tags": {"addr:housenumber": "35/28", "addr:province": "\u0e01\u0e23\u0e38\u0e07\u0e40\u0e17\u0e1e\u0e21\u0e2b\u0e32\u0e19\u0e04\u0e23", "addr:street": "\u0e1e\u0e23\u0e30\u0e23\u0e32\u0e21 6 \u0e0b\u0e2d\u0e22 29", "amenity": "restaurant", "name": "Surat Restaurant & Cafe", "phone": "+66 2 215 8885"}}, {"type": "node", "id": 4173664738, "lat": 13.7788531, "lon": 100.5324508, "tags": {"amenity": "restaurant", "name": "\u0e0a\u0e49\u0e2d\u0e19\u0e40\u0e07\u0e34\u0e19\u0e0a\u0e49\u0e2d\u0e19\u0e17\u0e2d\u0e07"}}, {"type": "node", "id": 4187656508, "lat": 13.7571489, "lon": 100.5353171, "tags": {"addr:street": "\u0e16\u0e19\u0e19\u0e28\u0e23\u0e35\u0e2d\u0e22\u0e38\u0e18\u0e22\u0e32", "internet_access": "wlan", "name": "Noble Revent", "phone": "022519955", "tourism": "hotel", "website": "https://www.noblehome.com/condominium/revent/th/home"}}, {"type": "node", "id": 4187656800, "lat": 13.7600961, "lon": 100.5370916, "tags": {"addr:street": "\u0e16\u0e19\u0e19\u0e1e\u0e0d\u0e32\u0e44\u0e17", "name": "The Victory Executive Residences Bangkok", "tourism": "hotel", "website": "https://www.the-victory.com/"}}, {"type": "node", "id": 4188222603, "lat": 13.7552126, "lon": 100.5015447, "tags": {"addr:housenumber": "196", "addr:street": "Dinso Road", "amenity": "restaurant", "name": "Krua Apsorn", "name:en": "Namo's Kitchen", "opening_hours": "Mo-Su 10:30-20:00"}}, {"type": "node", "id": 4192440398, "lat": 13.7796743, "lon": 100.5301357, "tags": {"addr:street": "Thanon Setsiri", "amenity": "restaurant", "name": "Soei"}}, {"type": "node", "id": 4196949697, "lat": 13.7626507, "lon": 100.5012908, "tags": {"addr:housenumber": "318", "addr:postcode": "10200", "addr:province": "\u0e01\u0e23\u0e38\u0e07\u0e40\u0e17\u0e1e\u0e21\u0e2b\u0e32\u0e19\u0e04\u0e23", "addr:street": "Samsen Soi 2", "name": "The Oasis Hostel Bangkok", "phone": "+66 97 006 3099", "smoking": "outside", "tourism": "hostel"}}, {"type": "node", "id": 4210536391, "lat": 13.759038, "lon": 100.5031726, "tags": {"addr:postcode": "10200", "name": "Villa phra sumen", "tourism": "hotel"}}, {"type": "node", "id": 4211932791, "lat": 13.7626417, "lon": 100.5020101, "tags": {"amenity": "restaurant", "cuisine": "thai", "internet_access": "wlan", "name": "Warm At Heart"}}, {"type": "node", "id": 4221789924, "lat": 13.7605423, "lon": 100.5018184, "tags": {"name": "Khaosan lovers hostel", "tourism": "hostel"}}, {"type": "node", "id": 4226198391, "lat": 13.7624268, "lon": 100.5038659, "tags": {"addr:street": "\u0e16\u0e19\u0e19\u0e1b\u0e23\u0e30\u0e0a\u0e32\u0e18\u0e34\u0e1b\u0e44\u0e15\u0e22", "internet_access": "wlan", "name": "JC House", "tourism": "hostel"}}, {"type": "node", "id": 4227672991, "lat": 13.7500308, "lon": 100.542967, "tags": {"addr:housenumber": "559", "addr:postcode": "10400", "addr:street": "\u0e16\u0e19\u0e19\u0e40\u0e1e\u0e0a\u0e23\u0e1a\u0e38\u0e23\u0e35", "internet_access": "wlan", "name": "The Berkeley Hotel Pratunam", "phone": "+6623099999", "tourism": "hotel"}}, {"type": "node", "id": 4234467125, "lat": 13.7546847, "lon": 100.5412959, "tags": {"internet_access": "wlan", "name": "KC Place", "tourism": "hotel"}}, {"type": "node", "id": 4242721200, "lat": 13.759029, "lon": 100.542291, "tags": {"amenity": "restaurant", "name": "Kuang Seafood"}}, {"type": "node", "id": 4244512392, "lat": 13.7523382, "lon": 100.5043521, "tags": {"check_date": "2024-11-10", "name": "Niras Bankoc Cultural Hostel", "tourism": "hostel", "wheelchair": "no"}}, {"type": "node", "id": 4245257907, "lat": 13.7506084, "lon": 100.5204461, "tags": {"addr:housenumber": "29/36-38", "addr:postcode": "10330", "addr:street": "Thanon Rama VI, Soi 13, Rong Muang, Pathum Wan", "internet_access": "wlan", "name": "The Fifith Resident", "phone": "022141655", "tourism": "hotel", "website": "http://www.5thresidence.com"}}, {"type": "node", "id": 4249951791, "lat": 13.7534858, "lon": 100.5391148, "tags": {"name": "DD House", "tourism": "hotel"}}, {"type": "node", "id": 4250583489, "lat": 13.7515717, "lon": 100.5393524, "tags": {"addr:street": "\u0e16\u0e19\u0e19\u0e40\u0e1e\u0e0a\u0e23\u0e1a\u0e38\u0e23\u0e35 \u0e0b\u0e2d\u0e2217", "amenity": "restaurant", "name": "Hong Gi Seafood"}}, {"type": "node", "id": 4258250815, "lat": 13.7624863, "lon": 100.5023426, "tags": {"name": "Once in Bangkok ", "tourism": "hotel"}}, {"type": "node", "id": 4267994894, "lat": 13.7793302, "lon": 100.5431359, "tags": {"addr:postcode": "10400", "addr:street": "40/2", "amenity": "cafe", "internet_access": "wlan", "name": "Hor Hidden Caf\u00e9 ", "opening_hours": "We-Mo 10:00-22:30", "phone": "+66 82 670 5000", "website": "www.facebook.com/horhiddencafe"}}, {"type": "node", "id": 4270944630, "lat": 13.782095, "lon": 100.5437573, "tags": {"amenity": "restaurant", "cuisine": "italian", "name": "Basilico"}}, {"type": "node", "id": 4270953354, "lat": 13.7832894, "lon": 100.5460909, "tags": {"amenity": "restaurant", "cuisine": "thai", "name": "Zaap Express", "note": "Isaan Thai food"}}, {"type": "node", "id": 4271560090, "lat": 13.7575215, "lon": 100.5028628, "tags": {"internet_access": "wlan", "name": "Paragon One Residence", "tourism": "hotel"}}, {"type": "node", "id": 4272442908, "lat": 13.7815576, "lon": 100.5425285, "tags": {"amenity": "restaurant", "cuisine": "thai", "internet_access": "wlan", "name": "Somtum Bangkok", "smoking": "no", "wifi": "free"}}, {"type": "node", "id": 4272443864, "lat": 13.7829747, "lon": 100.5439287, "tags": {"addr:city": "Phayathai", "addr:housenumber": "38/1", "addr:postcode": "10400", "addr:street": "Ari Soi 7", "amenity": "restaurant", "cuisine": "thai", "name": "Baan Pueng Chom", "smoking": "outside"}}, {"type": "node", "id": 4272512131, "lat": 13.7862527, "lon": 100.5454615, "tags": {"addr:city": "Phayathai", "addr:housenumber": "21", "addr:postcode": "10400", "addr:street": "Phaholyothin Soi 9", "amenity": "restaurant", "cuisine": "fusion", "name": "Flow Restaurant & Bar"}}, {"type": "node", "id": 4272525905, "lat": 13.7854411, "lon": 100.5450219, "tags": {"amenity": "restaurant", "cuisine": "steak", "name": "Flat Marble", "smoking": "outside"}}, {"type": "node", "id": 4272530917, "lat": 13.785774, "lon": 100.5452522, "tags": {"addr:street": "Soi Chamnanaksorn, Phaholyothin Soi 9", "amenity": "restaurant", "cuisine": "Fondue", "name": "Fondue House", "opening_hours": "11:00-14:00,18:00-22:00"}}, {"type": "node", "id": 4274825631, "lat": 13.7852352, "lon": 100.5447189, "tags": {"amenity": "restaurant", "cuisine": "thai", "name": "Baan Baitong"}}, {"type": "node", "id": 4275258338, "lat": 13.7831974, "lon": 100.5430186, "tags": {"addr:city": "Phayathai", "addr:housenumber": "24/4", "addr:postcode": "10400", "addr:street": "Ari Soi 4", "amenity": "restaurant", "cuisine": "coffee_shop", "name": "103 Factory", "opening_hours": "11:00 - 11:00"}}, {"type": "node", "id": 4275268354, "lat": 13.7867467, "lon": 100.5425626, "tags": {"amenity": "restaurant", "cuisine": "thai", "name": "Ban Kan Asa"}}, {"type": "node", "id": 4275543293, "lat": 13.7643275, "lon": 100.54067, "tags": {"addr:housenumber": "481/3", "addr:postcode": "10400", "addr:street": "\u0e16\u0e19\u0e19\u0e23\u0e32\u0e0a\u0e27\u0e34\u0e16\u0e35", "internet_access": "wlan", "name": "HI Mid Bangkok", "opening_hours": "24/7", "phone": "026445744", "tourism": "hostel", "website": "Facebook.com/Midbangkok"}}, {"type": "node", "id": 4277609789, "lat": 13.772619, "lon": 100.536, "tags": {"addr:postcode": "10400", "addr:street": "\u0e2d\u0e32\u0e23\u0e35\u0e22\u0e4c\u0e2a\u0e31\u0e21\u0e1e\u0e31\u0e19\u0e18\u0e4c 2", "amenity": "cafe", "name": "True love cafe", "opening_hours": "Tu-Th 12:00-22:00; Fr-Su 12:00-22:00"}}, {"type": "node", "id": 4279255816, "lat": 13.7837078, "lon": 100.5434222, "tags": {"amenity": "restaurant", "cuisine": "dessert", "name": "Chubby Cheeks", "phone": "+66 81 687 7932"}}, {"type": "node", "id": 4279260006, "lat": 13.7813028, "lon": 100.5446136, "tags": {"addr:city": "Phayathai", "addr:postcode": "10400", "addr:street": "1/F Noble Reform Phaholoyothin Soi 7", "amenity": "cafe", "name": "Casa Lapin", "opening_hours": "Mo-Su 08:30-22:00", "phone": "+66812612040", "website": "https://www.facebook.com/CasaLapin"}}, {"type": "node", "id": 4279264529, "lat": 13.7812404, "lon": 100.5446859, "tags": {"addr:city": "Phayathai", "addr:postcode": "10400", "addr:street": "1/FL Noble Reform Phaholyothin Soi 7", "amenity": "restaurant", "cuisine": "japanese", "name": "Kaizen Sushi & Hibachi", "opening_hours": "11:00-23:00"}}, {"type": "node", "id": 4279265777, "lat": 13.781734, "lon": 100.5437808, "tags": {"addr:city": "Phayathai", "addr:housenumber": "65-67", "addr:postcode": "10400", "addr:street": "Phaholyothin Soi 7", "amenity": "restaurant", "cuisine": "thai", "name": "Lay Lao", "opening_hours": "10:00-22:00", "phone": "+66 2 279 4498"}}, {"type": "node", "id": 4279267836, "lat": 13.7819924, "lon": 100.5452071, "tags": {"addr:city": "Phayathai", "addr:housenumber": "1271/4-7", "addr:postcode": "10400", "addr:street": "Phaholyotin Road", "amenity": "restaurant", "cuisine": "seafood", "delivery": "yes", "name": "Lhao-Lhao Seafood", "name:th": "\u0e40\u0e2b\u0e25\u0e32\u0e40\u0e2b\u0e25\u0e32", "opening_hours": "16:00 - 03:00", "phone": "+66 2 271-4260", "smoking": "outside", "takeaway": "yes", "website": "https://www.facebook.com/lhaolhao1980#_=_"}}, {"type": "node", "id": 4279278319, "lat": 13.7819383, "lon": 100.5439594, "tags": {"addr:city": "Phayathai", "addr:housenumber": "1 FL", "addr:postcode": "10400", "addr:street": "Ban Yoswadi Phaholyothin Soi 7", "amenity": "restaurant", "cuisine": "coffee_shop", "name": "Coffee Zelection", "opening_hours": "10:00-23:00"}}, {"type": "node", "id": 4279287301, "lat": 13.790501, "lon": 100.5441326, "tags": {"addr:city": "Phayathai", "addr:postcode": "10400", "addr:street": "Soi Pradipat 14", "amenity": "restaurant", "diet:halal": "yes", "name": "Ibrahim Restaurant", "opening_hours": "09:00 - 23:00", "phone": "+66 2 278 1606"}}, {"type": "node", "id": 4280756389, "lat": 13.75877, "lon": 100.5035757, "tags": {"amenity": "restaurant", "name": "Brown Sugar"}}, {"type": "node", "id": 4281599983, "lat": 13.7823025, "lon": 100.5433123, "tags": {"addr:housenumber": "36/3", "addr:street": "Phaholyothin Soi 9", "amenity": "restaurant", "name": "Ari Ba Bar", "opening_hours": "17:00 - 00:00", "phone": "+66 2 279 7660"}}, {"type": "node", "id": 4281610472, "lat": 13.7825147, "lon": 100.5430972, "tags": {"addr:city": "Phayathai", "addr:housenumber": "36/9", "addr:postcode": "10400", "addr:street": "Phaholyothin Soi 7", "amenity": "restaurant", "cuisine": "international", "name": "Fat Bird", "opening_hours": "18:00 - 23:00", "phone": "+66 2 619 6609"}}, {"type": "node", "id": 4283515289, "lat": 13.7628945, "lon": 100.5016078, "tags": {"name": "Oh Bangkok Hostel", "tourism": "hostel"}}, {"type": "node", "id": 4292998190, "lat": 13.7536979, "lon": 100.538623, "tags": {"name": "Prince house", "tourism": "guest_house"}}, {"type": "node", "id": 4293153892, "lat": 13.7546928, "lon": 100.5103755, "tags": {"name": "Smile inn", "tourism": "hotel"}}, {"type": "node", "id": 4294805991, "lat": 13.765504, "lon": 100.5397413, "tags": {"addr:street": "\u0e27\u0e07\u0e40\u0e27\u0e35\u0e22\u0e19\u0e2d\u0e19\u0e38\u0e2a\u0e32\u0e27\u0e23\u0e35\u0e22\u0e4c\u0e0a\u0e31\u0e22\u0e2a\u0e21\u0e23\u0e20\u0e39\u0e21\u0e34", "amenity": "restaurant", "cuisine": "thai", "name": "pa yak boat noodles", "opening_hours": "Mo-Su 11:00-22:00", "phone": "+6622713178"}}, {"type": "node", "id": 4315869093, "lat": 13.7518843, "lon": 100.5381258, "tags": {"name": "Ideal Hotel", "tourism": "hotel"}}, {"type": "node", "id": 4316590300, "lat": 13.7634803, "lon": 100.5001495, "tags": {"addr:housenumber": "378", "addr:street": "Samsen Soi 4", "email": "baanbangkok16@gmail.com", "internet_access": "wlan", "name": "Baanbangkok", "opening_hours": "Mo-Su 07:00-11:15, 19:45-00:00", "phone": "020458100", "tourism": "hostel", "website": "facebook.com/baanboran"}}, {"type": "node", "id": 4329323293, "lat": 13.753961, "lon": 100.5150676, "tags": {"facebook": "https://www.facebook.com/PRINCEPALACE/", "image": "https://images.mapillary.com/0-Ez9xZXYgGDak1kZt4YsQ/thumb-2048.jpg", "mapillary": "1161576271018940", "name": "prince palace", "phone": "+66 2 628 1111", "tourism": "hotel", "website": "https://www.princepalace.co.th/"}}, {"type": "node", "id": 4330645492, "lat": 13.7805789, "lon": 100.5307567, "tags": {"amenity": "cafe", "cuisine": "coffee_shop;cake;hot_dog;tea", "internet_access": "wlan", "name": "Lamontee"}}, {"type": "node", "id": 4330802201, "lat": 13.7679929, "lon": 100.5329418, "tags": {"name": "Phyathai Palace", "tourism": "attraction"}}, {"type": "node", "id": 4336602589, "lat": 13.7533917, "lon": 100.5362045, "tags": {"addr:housenumber": "22", "addr:postcode": "10400", "addr:street": "\u0e0b\u0e2d\u0e22\u0e40\u0e1e\u0e0a\u0e23\u0e1a\u0e38\u0e23\u0e35 13", "alt_name": "Need a Pillow", "internet_access": "wlan", "name": "NAP Hotel Bangkok", "tourism": "hotel", "website": "http://www.naphotelbangkok.com/"}}, {"type": "node", "id": 4339753604, "lat": 13.7706821, "lon": 100.5050652, "tags": {"addr:housenumber": "3/5", "addr:street": "\u0e16\u0e19\u0e19\u0e1e\u0e34\u0e29\u0e13\u0e38\u0e42\u0e25\u0e01", "alt_name:en": "Machi Machi Caf\u00e9", "amenity": "cafe", "brand": "machi machi", "brand:en": "machi machi", "brand:wikidata": "Q114828290", "brand:zh": "\u9ea5\u5409", "cuisine": "bubble_tea", "ice_cream": "yes", "internet_access": "wlan", "name": "Machi machi", "name:en": "machi machi", "name:th": "\u0e21\u0e32\u0e08\u0e34 \u0e21\u0e32\u0e08\u0e34 \u0e01\u0e39\u0e23\u0e4c\u0e40\u0e21\u0e15\u0e4c \u0e44\u0e2d\u0e28\u0e04\u0e23\u0e35\u0e21", "opening_hours": "Mo-Fr 08:00-18:00", "takeaway": "yes"}}, {"type": "node", "id": 4356245789, "lat": 13.7526317, "lon": 100.5466677, "tags": {"name": "Ecotel", "tourism": "hotel"}}, {"type": "node", "id": 4356303994, "lat": 13.752401, "lon": 100.53809, "tags": {"amenity": "restaurant", "cuisine": "thai", "name": "Once upon a time"}}, {"type": "node", "id": 4356760689, "lat": 13.7585561, "lon": 100.533818, "tags": {"addr:housenumber": "471/6", "addr:postcode": "10400", "addr:street": "\u0e16\u0e19\u0e19\u0e28\u0e23\u0e35\u0e2d\u0e22\u0e38\u0e18\u0e22\u0e32", "amenity": "restaurant", "cuisine": "international", "name:en": "Ban Busrin Homemade Food, Bakery and Ice cream", "name:th": "\u0e23\u0e49\u0e32\u0e19\u0e2d\u0e32\u0e2b\u0e32\u0e23\u0e1a\u0e49\u0e32\u0e19\u0e1a\u0e38\u0e28\u0e23\u0e34\u0e19\u0e17\u0e23\u0e4c", "phone": "02-644-7500"}}, {"type": "node", "id": 4358995490, "lat": 13.767534, "lon": 100.5489225, "tags": {"addr:housenumber": "49", "addr:postcode": "10400", "addr:street": "\u0e0b\u0e2d\u0e22\u0e23\u0e27\u0e21\u0e21\u0e34\u0e15\u0e23", "name": "ST Mansion", "name:th": "ST Mansion", "opening_hours": "Mo-Su 08:00-18:00", "operator": "0615678554", "phone": "021169557", "tourism": "hostel"}}, {"type": "node", "id": 4367330089, "lat": 13.7514118, "lon": 100.5302134, "tags": {"name": "Been Hostel Ratchathewi", "tourism": "hostel"}}, {"type": "node", "id": 4405153989, "lat": 13.752678, "lon": 100.5044192, "tags": {"amenity": "restaurant", "name": "\u0e2d\u0e39\u0e4b \u0e40\u0e22\u0e47\u0e19\u0e15\u0e32\u0e42\u0e1f", "name:en": "Wu YENTAFO", "name:th": "\u0e2d\u0e39\u0e4b \u0e40\u0e22\u0e47\u0e19\u0e15\u0e32\u0e42\u0e1f"}}, {"type": "node", "id": 4412535889, "lat": 13.7590864, "lon": 100.5311732, "tags": {"amenity": "cafe", "name": "Ka - Tak Kafe", "name:th": "Ka - Tak Kafe"}}, {"type": "node", "id": 4426458589, "lat": 13.762919, "lon": 100.5034416, "tags": {"addr:street": "358/1 Wisut Kasat, Ban Phan Thom, Phra Nakhon, 10200 \u05d1\u05e0\u05d2\u05e7\u05d5\u05e7", "internet_access": "wlan", "name:en": "SiBamboo", "tourism": "hostel"}}, {"type": "node", "id": 4427633402, "lat": 13.7556319, "lon": 100.5328535, "tags": {"amenity": "restaurant", "cuisine": "japanese;noodles;asian;thai", "internet_access": "wlan", "name": "Canton", "name:th": "Canton"}}, {"type": "node", "id": 4430017293, "lat": 13.7590595, "lon": 100.5418078, "tags": {"addr:street": "rang nam alley", "amenity": "restaurant", "name": "Baan Ajarn"}}, {"type": "node", "id": 4438022589, "lat": 13.7525335, "lon": 100.5047365, "tags": {"addr:postcode": "10200", "amenity": "restaurant", "cuisine": "thai", "name:en": "Raan Jay Fai", "opening_hours": "We-Sa 07:00-19:30", "wikidata": "Q47206330", "wikimedia_commons": "Category:Jay Fai", "wikipedia": "en:Jay Fai"}}, {"type": "node", "id": 4440125290, "lat": 13.79516, "lon": 100.5494936, "tags": {"amenity": "restaurant"}}, {"type": "node", "id": 4444065194, "lat": 13.7558705, "lon": 100.5295171, "tags": {"amenity": "restaurant", "name:zh-Hant": "\u9f8d\u8766\u9eb5"}}, {"type": "node", "id": 4465718389, "lat": 13.7527757, "lon": 100.538974, "tags": {"addr:street": "\u0e16\u0e19\u0e19\u0e40\u0e1e\u0e0a\u0e23\u0e1a\u0e38\u0e23\u0e35 \u0e0b\u0e2d\u0e2219", "name": "city home inn", "tourism": "hotel"}}, {"type": "node", "id": 4470606789, "lat": 13.7784702, "lon": 100.5386136, "tags": {"addr:housenumber": "146", "addr:postcode": "10400", "addr:street": "Rama 6 Soi 30", "amenity": "restaurant", "cuisine": "italian", "internet_access": "wlan", "name:en": "Bangkok", "name:nl": "Bangkok", "opening_hours": "Mo-Su 17:00-00:00", "operator": "Cantina Wine Bar and Italian Kitchen"}}, {"type": "node", "id": 4483820991, "lat": 13.750315, "lon": 100.5080751, "tags": {"addr:housenumber": "181", "addr:street": "\u0e16\u0e19\u0e19\u0e27\u0e23\u0e08\u0e31\u0e01\u0e23", "amenity": "restaurant", "cuisine": "noodle", "name": "\u0e2d\u0e32\u0e0b\u0e31\u0e49\u0e07 \u0e01\u0e4b\u0e27\u0e22\u0e40\u0e15\u0e35\u0e4b\u0e22\u0e27\u0e25\u0e39\u0e01\u0e0a\u0e34\u0e49\u0e19\u0e1b\u0e25\u0e32", "name:en": "Ah Sang Fish Ball Noodles", "name:th": "\u0e2d\u0e32\u0e0b\u0e31\u0e49\u0e07 \u0e01\u0e4b\u0e27\u0e22\u0e40\u0e15\u0e35\u0e4b\u0e22\u0e27\u0e25\u0e39\u0e01\u0e0a\u0e34\u0e49\u0e19\u0e1b\u0e25\u0e32", "opening_hours": "Mo-Su 19:00-22:00", "phone": "+6622234875"}}, {"type": "node", "id": 4496346290, "lat": 13.7512607, "lon": 100.5042613, "tags": {"amenity": "cafe", "cuisine": "ice_cream;coffee_shop", "internet_access": "wlan", "name": "Fresh Milk Coffe", "name:th": "Fresh Milk Coffe"}}, {"type": "node", "id": 4505520290, "lat": 13.7760589, "lon": 100.5453051, "tags": {"addr:housenumber": "30/4", "addr:postcode": "10400", "addr:street": "\u0e1e\u0e2b\u0e25\u0e42\u0e22\u0e18\u0e34\u0e19 \u0e0b\u0e2d\u0e22 2", "email": "unitatohostel@hotmail.com", "internet_access": "wlan", "name": "Unitato Hostel", "name:es": "Unitato Hostel", "opening_hours": "24/7", "phone": "0925966105", "tourism": "hostel", "website": "http://Facebook.com"}}, {"type": "node", "id": 4506586491, "lat": 13.7779352, "lon": 100.5416771, "tags": {"name:en": "Lost and Found B&B", "tourism": "guest_house"}}, {"type": "node", "id": 4508743791, "lat": 13.7514946, "lon": 100.5385762, "tags": {"amenity": "restaurant", "name:en": "Tom Yum"}}, {"type": "node", "id": 4509981691, "lat": 13.7528625, "lon": 100.5037142, "tags": {"amenity": "restaurant", "name:en": "Soi Samanrat"}}, {"type": "node", "id": 4518156290, "lat": 13.7810056, "lon": 100.5446082, "tags": {"addr:housenumber": "7", "addr:street": "Soi Ari", "amenity": "restaurant", "cuisine": "chinese;noodles", "name": "\u0e19\u0e32\u0e22\u0e40\u0e21\u0e49\u0e07\u0e1a\u0e30\u0e2b\u0e21\u0e35\u0e48\u0e1b\u0e39 \u0e40\u0e01\u0e35\u0e4a\u0e22\u0e27\u0e01\u0e38\u0e49\u0e07\u0e22\u0e31\u0e01\u0e29\u0e4c (\u0e2d\u0e32\u0e23\u0e35\u0e22\u0e4c)", "name:en": "Meng Noodle (Ari)", "opening_hours": "Mo-Su 10:00-21:00", "phone": "026197981", "website": "http://www.facebook.com/NaiMeng"}}, {"type": "node", "id": 4532165469, "lat": 13.7696921, "lon": 100.5077584, "tags": {"addr:housenumber": "228", "amenity": "cafe", "cuisine": "coffee_shop", "internet_access": "yes", "name": "Estate Caf\u00e9", "name:en": "Estate Caf\u00e9", "name:th": "\u0e40\u0e2d\u0e2a\u0e40\u0e15\u0e17 \u0e04\u0e32\u0e40\u0e1f\u0e48"}}, {"type": "node", "id": 4532169721, "lat": 13.7696452, "lon": 100.5078737, "tags": {"amenity": "restaurant", "cuisine": "thai", "name": "Take a Bowl", "name:en": "Take a Bowl", "old_name:th": "\u0e44\u0e17\u0e22\u0e40\u0e08\u0e23\u0e34\u0e0d", "phone": "+66 81 834 2521"}}, {"type": "node", "id": 4532170657, "lat": 13.7699317, "lon": 100.5069242, "tags": {"amenity": "restaurant", "cuisine": "japanese", "name": "Shabu Baan Chan"}}, {"type": "node", "id": 4532178049, "lat": 13.7704401, "lon": 100.5061376, "tags": {"amenity": "restaurant", "cuisine": "thai", "name": "\u0e01\u0e4b\u0e27\u0e22\u0e40\u0e15\u0e35\u0e4b\u0e22\u0e27\u0e40\u0e23\u0e37\u0e2d \u0e28\u0e23\u0e35\u0e2d\u0e22\u0e38\u0e18\u0e22\u0e32", "name:en": "Si Ayutthaya Noodle", "name:th": "\u0e01\u0e4b\u0e27\u0e22\u0e40\u0e15\u0e35\u0e4b\u0e22\u0e27\u0e40\u0e23\u0e37\u0e2d \u0e28\u0e23\u0e35\u0e2d\u0e22\u0e38\u0e18\u0e22\u0e32", "opening_hours": "Mo-Su 08:30-18:00"}}, {"type": "node", "id": 4532193912, "lat": 13.7677252, "lon": 100.5079274, "tags": {"amenity": "cafe", "cuisine": "coffee_shop", "name": "Rom Sai"}}, {"type": "node", "id": 4532223551, "lat": 13.7719707, "lon": 100.5067475, "tags": {"amenity": "restaurant", "cuisine": "thai", "name": "Salad Pla"}}, {"type": "node", "id": 4532223605, "lat": 13.7740652, "lon": 100.5062486, "tags": {"amenity": "restaurant", "branch": "\u0e2a\u0e32\u0e21\u0e40\u0e2a\u0e19", "email": "kruaapsornth@gmail.com", "name": "\u0e04\u0e23\u0e31\u0e27\u0e2d\u0e31\u0e1b\u0e29\u0e23", "name:en": "Krua Apsorn", "name:th": "\u0e04\u0e23\u0e31\u0e27\u0e2d\u0e31\u0e1b\u0e29\u0e23", "opening_hours": "Mo-Sa 10:30-20:00; Su closed", "phone": "+66 2 668 8788;+66 2 241 8528", "website": "http://www.kruaapsorn.com/"}}, {"type": "node", "id": 4532227964, "lat": 13.7711024, "lon": 100.5016659, "tags": {"name": "Baan Manusarn", "tourism": "hotel"}}, {"type": "node", "id": 4532232703, "lat": 13.7690008, "lon": 100.5043442, "tags": {"amenity": "restaurant", "name": "Thewes Sreetfood"}}, {"type": "node", "id": 4532237971, "lat": 13.7659372, "lon": 100.5068655, "tags": {"amenity": "restaurant", "cuisine": "thai", "name": "Crown Kitchen"}}, {"type": "node", "id": 4532243704, "lat": 13.7678986, "lon": 100.5050172, "tags": {"amenity": "marketplace", "name": "Na Krung Thewes"}}, {"type": "node", "id": 4532248167, "lat": 13.7688706, "lon": 100.504312, "tags": {"amenity": "cafe", "name": "Doi Tung"}}, {"type": "node", "id": 4532248329, "lat": 13.7692336, "lon": 100.5034651, "tags": {"amenity": "restaurant"}}, {"type": "node", "id": 4537953490, "lat": 13.765186, "lon": 100.50001, "tags": {"amenity": "restaurant", "cuisine": "thai", "name:en": "Thai identic restaurant"}}, {"type": "node", "id": 4547414398, "lat": 13.7513057, "lon": 100.5336432, "tags": {"addr:street": "Phetchaburi 18", "name": "Rajthivi Apartment", "name:en": "Rajthivi Apartment", "name:th": "Rajthivi Apartment", "tourism": "guest_house"}}, {"type": "node", "id": 4556314697, "lat": 13.752809, "lon": 100.5382383, "tags": {"name:en": "The Konnect Hotel", "tourism": "hotel"}}, {"type": "node", "id": 4563085329, "lat": 13.7546453, "lon": 100.5106947, "tags": {"name": "The Region", "tourism": "hotel"}}, {"type": "node", "id": 4564961639, "lat": 13.7542572, "lon": 100.5012864, "tags": {"amenity": "restaurant", "name:fr": "Arawy restaurant v\u00e9g\u00e9tarien"}}, {"type": "node", "id": 4564988329, "lat": 13.7563687, "lon": 100.5002463, "tags": {"name:fr": "h\u00f4tel 90", "tourism": "hotel"}}, {"type": "node", "id": 4567238189, "lat": 13.7768911, "lon": 100.5398914, "tags": {"amenity": "restaurant", "name:en": "Baan Mae Yui"}}, {"type": "node", "id": 4579125390, "lat": 13.7633404, "lon": 100.5421539, "tags": {"addr:housenumber": "507", "addr:street": "\u0e16\u0e19\u0e19\u0e23\u0e32\u0e0a\u0e27\u0e34\u0e16\u0e35", "internet_access": "wlan", "name:en": "Must Sea Hotel", "tourism": "hotel"}}, {"type": "node", "id": 4585404490, "lat": 13.7503907, "lon": 100.5102489, "tags": {"amenity": "restaurant", "internet_access": "wlan", "name:en": "Thawichai Restaurant", "opening_hours": "Mo-Sa 11:00-14:00, 16:30-22:00; Su 11:00-22:00", "phone": "+66 2 224 7575", "website": "http://www.thaveechaipochana.com/"}}, {"type": "node", "id": 4587190614, "lat": 13.750252, "lon": 100.5457703, "tags": {"addr:city": "\u0e41\u0e02\u0e27\u0e07\u0e25\u0e38\u0e21\u0e1e\u0e34\u0e19\u0e35", "addr:housenumber": "1091/213-216", "addr:postcode": "10400", "addr:street": "Soi Petchburi 33 Alley", "internet_access": "wlan", "internet_access:fee": "no", "name": "P2 Boutique", "tourism": "hotel"}}, {"type": "node", "id": 4589166621, "lat": 13.7553478, "lon": 100.5310172, "tags": {"addr:street": "\u0e0b\u0e2d\u0e22\u0e19\u0e49\u0e2d\u0e21\u0e08\u0e34\u0e15\u0e15\u0e4c", "email": "rkuan11@gmail.com", "internet_access": "wlan", "name:en": "5 minutes", "opening_hours": "24/7", "operator": "kuan", "phone": "+66813763033", "tourism": "hostel"}}, {"type": "node", "id": 4590676392, "lat": 13.7604332, "lon": 100.5015881, "tags": {"name:en": "Nacorn Hostel", "tourism": "hostel"}}, {"type": "node", "id": 4597649697, "lat": 13.753722, "lon": 100.5393695, "tags": {"amenity": "restaurant", "name:en": "Kebab Corner"}}, {"type": "node", "id": 4597649890, "lat": 13.7549253, "lon": 100.5394959, "tags": {"internet_access": "wlan", "name:en": "Grand Omari", "tourism": "hotel"}}, {"type": "node", "id": 4601113494, "lat": 13.7519685, "lon": 100.5355266, "tags": {"amenity": "bank", "atm": "yes", "name": "Siam City Bank", "name:en": "Ellizabeth Guest House", "tourism": "guest_house"}}, {"type": "node", "id": 4603705689, "lat": 13.7556865, "lon": 100.5023579, "tags": {"addr:housenumber": "78/4", "addr:postcode": "10200", "addr:street": "\u0e16\u0e19\u0e19\u0e23\u0e32\u0e0a\u0e14\u0e33\u0e40\u0e19\u0e34\u0e19\u0e01\u0e25\u0e32\u0e07", "name": "Methavalai Residence", "name:en": "Metahvalai residence", "name:es": "methavalai residence", "tourism": "hotel", "website": "http://www.methavalairesidence.com/"}}, {"type": "node", "id": 4605625110, "lat": 13.7522844, "lon": 100.5046463, "tags": {"amenity": "restaurant", "cuisine": "noodle", "name": "\u0e15\u0e35\u0e4b\u0e40\u0e22\u0e47\u0e19\u0e15\u0e32\u0e42\u0e1f\u0e23\u0e2a\u0e40\u0e14\u0e47\u0e14", "name:en": "Tee Yentafo", "name:th": "\u0e15\u0e35\u0e4b\u0e40\u0e22\u0e47\u0e19\u0e15\u0e32\u0e42\u0e1f\u0e23\u0e2a\u0e40\u0e14\u0e47\u0e14"}}, {"type": "node", "id": 4607193691, "lat": 13.762232, "lon": 100.50217, "tags": {"name:en": "Long luck guest house", "name:ja": "\u30ed\u30f3\u30b0\u30e9\u30c3\u30af\u30b2\u30b9\u30c8\u30cf\u30a6\u30b9", "tourism": "guest_house"}}, {"type": "node", "id": 4609269792, "lat": 13.7509346, "lon": 100.5041682, "tags": {"amenity": "restaurant", "name:en": "Wok Streetfood"}}, {"type": "node", "id": 4620569889, "lat": 13.751623, "lon": 100.5385454, "tags": {"addr:postcode": "10500", "addr:street": "\u0e16\u0e19\u0e19\u0e40\u0e1e\u0e0a\u0e23\u0e1a\u0e38\u0e23\u0e35 \u0e0b\u0e2d\u0e2219", "amenity": "restaurant", "cuisine": "noodle", "name": "Original Thai Wonton Mee", "opening_hours": "Mo-Su 09:00-15:00", "phone": "+6626539618"}}, {"type": "node", "id": 4622955489, "lat": 13.7520489, "lon": 100.5386509, "tags": {"tourism": "hotel"}}, {"type": "node", "id": 4630419289, "lat": 13.7590404, "lon": 100.5091761, "tags": {"addr:street": "\u0e16\u0e19\u0e19\u0e08\u0e31\u0e01\u0e23\u0e1e\u0e23\u0e23\u0e14\u0e34\u0e1e\u0e07\u0e29\u0e4c", "amenity": "restaurant", "diet:vegetarian": "only", "name": "seven spoons vegetarian", "opening_hours": "Tu-Sa 11:00-15:00; Mo 18:00-00:00"}}, {"type": "node", "id": 4634245448, "lat": 13.7994171, "lon": 100.5487613, "tags": {"name": "Information Center", "tourism": "information"}}, {"type": "node", "id": 4658261590, "lat": 13.7566058, "lon": 100.5061827, "tags": {"name:en": "Junction", "name:fr": "Carrefour", "tourism": "viewpoint"}}, {"type": "node", "id": 4690178491, "lat": 13.751361, "lon": 100.531938, "tags": {"amenity": "cafe", "internet_access": "wlan", "name:en": "Caturday Cat Cafe", "opening_hours": "Tu-Fr 12:00-21:00; Sa-Su 11:00-21:00"}}, {"type": "node", "id": 4691636889, "lat": 13.7633093, "lon": 100.5005584, "tags": {"addr:housenumber": "360/14", "addr:postcode": "10200", "addr:street": "Samsen Soi 4", "amenity": "restaurant", "cuisine": "thai", "email": "cmakchaipuk@gmail.com", "internet_access": "wlan", "name": "\u0e40\u0e14\u0e2d\u0e30\u0e04\u0e2d\u0e23\u0e4c\u0e40\u0e19\u0e2d\u0e23\u0e4c50", "name:en": "TheCorner50", "name:es": "LaEsquina50", "name:pt": "A ESquina50", "name:th": "\u0e40\u0e14\u0e2d\u0e30\u0e04\u0e2d\u0e23\u0e4c\u0e40\u0e19\u0e2d\u0e23\u0e4c50", "opening_hours": "Mo-Su 10:00-22:00", "phone": "+66616928775"}}, {"type": "node", "id": 4699593192, "lat": 13.7857448, "lon": 100.5361554, "tags": {"amenity": "restaurant", "cuisine": "fish;seafood;thai", "name:en": "Soei Restaurant"}}, {"type": "node", "id": 4716461202, "lat": 13.7591294, "lon": 100.5089013, "tags": {"amenity": "restaurant", "name": "Seven spoons"}}, {"type": "node", "id": 4719766191, "lat": 13.7528204, "lon": 100.5464516, "tags": {"addr:housenumber": "1091/388", "addr:postcode": "10400", "addr:street": "New Petchburi Road 33", "name": "Ramada by Wyndham D MA Bangkok", "name:th": "Ramada dma", "tourism": "hotel"}}, {"type": "node", "id": 4723009790, "lat": 13.7514026, "lon": 100.5032, "tags": {"name": "Chern Hostel", "name:th": "Chern Hostel", "tourism": "hostel"}}, {"type": "node", "id": 4725488491, "lat": 13.7538025, "lon": 100.5370364, "tags": {"amenity": "restaurant", "cuisine": "indian;thai", "internet_access": "wlan", "name:en": "TastyFood @ Bangkok", "opening_hours": "Mo-Su 09:30-23:30"}}, {"type": "node", "id": 4727022789, "lat": 13.7586601, "lon": 100.5333403, "tags": {"amenity": "restaurant", "name:en": "Chairoj"}}, {"type": "node", "id": 4728927894, "lat": 13.753594, "lon": 100.5302303, "tags": {"addr:housenumber": "362-3", "addr:street": "\u0e16\u0e19\u0e19\u0e40\u0e1e\u0e0a\u0e23\u0e1a\u0e38\u0e23\u0e35", "amenity": "restaurant", "cuisine": "thai", "name:en": "Jae Koi Moo Jum", "opening_hours": "Mo-Su 17:00-03:00"}}, {"type": "node", "id": 4739865621, "lat": 13.7543554, "lon": 100.5355558, "tags": {"name": "vince hotel", "tourism": "hotel"}}, {"type": "node", "id": 4744950055, "lat": 13.75579, "lon": 100.5334881, "tags": {"name": "Sleep lab", "tourism": "hostel"}}, {"type": "node", "id": 4744952697, "lat": 13.7545846, "lon": 100.5329648, "tags": {"name": "Vimarn hostel", "tourism": "hostel", "wheelchair": "yes"}}, {"type": "node", "id": 4744952708, "lat": 13.7630593, "lon": 100.5433471, "tags": {"name": "DD hostel Bangkok", "tourism": "hostel"}}, {"type": "node", "id": 4745106721, "lat": 13.7721022, "lon": 100.503729, "tags": {"addr:housenumber": "83", "addr:postcode": "10300", "addr:province": "\u0e01\u0e23\u0e38\u0e07\u0e40\u0e17\u0e1e\u0e21\u0e2b\u0e32\u0e19\u0e04\u0e23", "addr:street": "\u0e16\u0e19\u0e19\u0e28\u0e23\u0e35\u0e2d\u0e22\u0e38\u0e18\u0e22\u0e32", "email": "taveethai@yahoo.com", "internet_access": "wlan", "name": "Tavee Guesthouse", "name:en": "Tavee Guesthouse", "name:th": "\u0e17\u0e27\u0e35\u0e40\u0e01\u0e2a\u0e17\u0e40\u0e2e\u0e32\u0e2a\u0e4c", "note": "Also Restaurant, with breakfast and Thai Food", "opening_hours": "24/7", "phone": "+662 2801447", "rooms": "15", "tourism": "guest_house", "website": "http://www.facebook.com/taveeguesthouse", "wifi": "yes"}}, {"type": "node", "id": 4750279924, "lat": 13.7594426, "lon": 100.5125001, "tags": {"amenity": "restaurant", "name:en": "Sor Roong Roj"}}, {"type": "node", "id": 4761126221, "lat": 13.7719901, "lon": 100.5033153, "tags": {"name": "Taewez Guesthouse", "name:th": "Taewez Guesthouse", "tourism": "guest_house"}}, {"type": "node", "id": 4763918321, "lat": 13.7635848, "lon": 100.500236, "tags": {"addr:street": "Samsen Soi 4", "air_conditioning": "yes", "amenity": "restaurant", "check_date": "2024-03-17", "cuisine": "thai;international", "internet_access": "wlan", "internet_access:fee": "customers", "level": "0", "name": "Laun", "outdoor_seating": "yes", "payment:cards": "no", "payment:cash": "yes", "payment:credit_cards": "no", "payment:debit_cards": "no"}}, {"type": "node", "id": 4769778523, "lat": 13.7631568, "lon": 100.5000833, "tags": {"amenity": "restaurant", "name": "Sam Sen Centet", "name:en": "Sam Sen Centet"}}, {"type": "node", "id": 4772589725, "lat": 13.7573021, "lon": 100.5044891, "tags": {"amenity": "restaurant", "name": "Klaire - coffee and brunch"}}, {"type": "node", "id": 4787411621, "lat": 13.7754182, "lon": 100.5433006, "tags": {"amenity": "cafe", "name:en": "Rolling Coffee"}}, {"type": "node", "id": 4789701022, "lat": 13.7563835, "lon": 100.540094, "tags": {"amenity": "restaurant", "name:en": "Ran Sa Art"}}, {"type": "node", "id": 4790887824, "lat": 13.7518938, "lon": 100.5389302, "tags": {"name:en": "The Richy Place", "tourism": "guest_house"}}, {"type": "node", "id": 4790887825, "lat": 13.7513858, "lon": 100.5385083, "tags": {"amenity": "restaurant", "name:en": "SabX2 Wonton Noodle", "opening_hours": "Mo-Su 09:00-15:00"}}, {"type": "node", "id": 4795121623, "lat": 13.7605642, "lon": 100.5060477, "tags": {"addr:housenumber": "632", "addr:postcode": "10200", "addr:street": "\u0e16\u0e19\u0e19\u0e27\u0e34\u0e2a\u0e38\u0e17\u0e18\u0e34\u0e01\u0e29\u0e31\u0e15\u0e23\u0e34\u0e22\u0e4c", "internet_access": "wlan", "name": "Nanda Heritage Hotel", "tourism": "hotel"}}, {"type": "node", "id": 4800377421, "lat": 13.7564519, "lon": 100.5304911, "tags": {"amenity": "cafe", "name": "Rich Coffee", "name:en": "Rich Coffee"}}, {"type": "node", "id": 4801754121, "lat": 13.7923586, "lon": 100.5489416, "tags": {"amenity": "restaurant"}}, {"type": "node", "id": 4836730723, "lat": 13.7545588, "lon": 100.5006488, "tags": {"addr:housenumber": "56", "addr:postcode": "10200", "addr:street": "Soi Tuek Din, Dinso Road", "internet_access": "wlan", "name:en": "Oh Compound Hostel", "phone": "020330659", "tourism": "hostel", "website": "http://www.ohcompound.com"}}, {"type": "node", "id": 4875343022, "lat": 13.7554532, "lon": 100.5493404, "tags": {"name:en": "Train station graveyard", "tourism": "attraction"}}, {"type": "node", "id": 4887206922, "lat": 13.765711, "lon": 100.5395578, "tags": {"amenity": "restaurant", "name": "\u0e01\u0e4b\u0e27\u0e22\u0e40\u0e15\u0e35\u0e4b\u0e22\u0e27\u200b\u0e40\u0e23\u0e37\u0e2d\u0e17\u0e2d\u0e07", "name:en": "Ruathong noodle", "name:th": "\u0e01\u0e4b\u0e27\u0e22\u0e40\u0e15\u0e35\u0e4b\u0e22\u0e27\u200b\u0e40\u0e23\u0e37\u0e2d\u0e17\u0e2d\u0e07"}}, {"type": "node", "id": 4889051322, "lat": 13.7543311, "lon": 100.5322633, "tags": {"addr:housenumber": "282", "addr:postcode": "10400", "addr:street": "\u0e16\u0e19\u0e19\u0e1e\u0e0d\u0e32\u0e44\u0e17", "email": "houseofphayathai@gmail.com", "internet_access": "wlan", "name:en": "House of Phayathai", "phone": "021014280", "tourism": "hotel"}}, {"type": "node", "id": 4892016221, "lat": 13.7630418, "lon": 100.5376345, "tags": {"name:en": "Street market", "name:ko": "\uc2a4\ud2b8\ub9bf\ub9c8\ucf13", "tourism": "attraction"}}, {"type": "node", "id": 4892057422, "lat": 13.7610302, "lon": 100.5364254, "tags": {"amenity": "restaurant", "name:ko": "\ub85c\uceec \uc0bc\uacb9\uc0b4"}}, {"type": "node", "id": 4899365921, "lat": 13.7534818, "lon": 100.5388401, "tags": {"name": "DD House", "name:en": "DD House", "name:th": "DD House", "tourism": "guest_house"}}, {"type": "node", "id": 4900795521, "lat": 13.7545701, "lon": 100.5006792, "tags": {"addr:housenumber": "56", "addr:postcode": "10200", "addr:street": "Soi Tuek Din", "email": "info@ohcompound.com", "internet_access": "wlan", "name:en": "Oh Compound Hostel", "opening_hours": "24/7", "phone": "02-033-0659", "tourism": "hostel", "website": "http://www.ohcompound.com"}}, {"type": "node", "id": 4907284122, "lat": 13.7513874, "lon": 100.5370385, "tags": {"name:en": "Centre Point", "tourism": "hotel"}}, {"type": "node", "id": 4920374923, "lat": 13.7642048, "lon": 100.5001903, "tags": {"amenity": "restaurant", "name:en": "Nancy Home"}}, {"type": "node", "id": 4929911321, "lat": 13.7559724, "lon": 100.5358628, "tags": {"name": "PS Metro", "name:en": "PS Metro", "tourism": "hotel"}}, {"type": "node", "id": 4951808221, "lat": 13.7624982, "lon": 100.5020961, "tags": {"tourism": "hostel"}}, {"type": "node", "id": 4959541921, "lat": 13.7978091, "lon": 100.5486752, "tags": {"name:en": "flower martket", "tourism": "attraction"}}, {"type": "node", "id": 4999065921, "lat": 13.767835, "lon": 100.5361348, "tags": {"addr:street": "\u0e0b\u0e2d\u0e22\u0e23\u0e32\u0e0a\u0e27\u0e34\u0e16\u0e35 18", "amenity": "restaurant", "name:en": "Doy kway teow reua. Boat noodle"}}, {"type": "node", "id": 5003146721, "lat": 13.7531255, "lon": 100.5383084, "tags": {"addr:street": "\u0e16\u0e19\u0e19\u0e40\u0e1e\u0e0a\u0e23\u0e1a\u0e38\u0e23\u0e35 \u0e0b\u0e2d\u0e2217", "name": "Benzene House", "tourism": "hotel"}}, {"type": "node", "id": 5020586721, "lat": 13.7636424, "lon": 100.5001262, "tags": {"name": "Barnana", "tourism": "guest_house"}}, {"type": "node", "id": 5020786622, "lat": 13.750498, "lon": 100.50813, "tags": {"amenity": "cafe", "name:en": "Little Home Bakery"}}, {"type": "node", "id": 5036772221, "lat": 13.7655533, "lon": 100.5396541, "tags": {"addr:street": "\u0e16\u0e19\u0e19\u0e1e\u0e2b\u0e25\u0e42\u0e22\u0e18\u0e34\u0e19", "amenity": "restaurant", "cuisine": "thai", "name:en": "Best of the Best Boat Noodle", "opening_hours": "Mo-Su 09:00-21:00"}}, {"type": "node", "id": 5036787122, "lat": 13.7603431, "lon": 100.535952, "tags": {"addr:street": "\u0e16\u0e19\u0e19\u0e1e\u0e0d\u0e32\u0e44\u0e17", "amenity": "restaurant", "cuisine": "international", "name:en": "Eat Am Are", "opening_hours": "Mo-Su 11:30-03:00"}}, {"type": "node", "id": 5134518698, "lat": 13.7574505, "lon": 100.5000303, "tags": {"addr:street": "\u0e16\u0e19\u0e19\u0e23\u0e32\u0e0a\u0e14\u0e33\u0e40\u0e19\u0e34\u0e19\u0e01\u0e25\u0e32\u0e07", "amenity": "restaurant", "description": "\u0e02\u0e49\u0e32\u0e27\u0e21\u0e31\u0e19\u0e44\u0e01\u0e48, \u0e01\u0e4b\u0e27\u0e22\u0e40\u0e15\u0e35\u0e4b\u0e22\u0e27, \u0e02\u0e19\u0e21\u0e08\u0e35\u0e19\u0e19\u0e49\u0e33\u0e22\u0e32 5 \u0e2b\u0e21\u0e49\u0e2d", "name": "\u0e04\u0e23\u0e31\u0e27\u0e01\u0e33\u0e44\u0e23\u0e17\u0e2d\u0e07", "name:th": "\u0e04\u0e23\u0e31\u0e27\u0e01\u0e33\u0e44\u0e23\u0e17\u0e2d\u0e07", "opening_hours": "Mo-Su 11:00-16:00 open; PH closed"}}, {"type": "node", "id": 5143186921, "lat": 13.7789708, "lon": 100.5379967, "tags": {"addr:street": "SOI ARI 6", "amenity": "restaurant", "cuisine": "pizza;international;burger;barbecue", "internet_access": "wlan", "name": "SHAKA", "opening_hours": "Mo-Su 17:00-00:00", "phone": "+66 856657557"}}, {"type": "node", "id": 5157438000, "lat": 13.7601883, "lon": 100.5028539, "tags": {"amenity": "cafe", "contact:phone": "+66 89 422 6635", "meet:animal": "cat", "name": "Kitty Cat Caf\u00e9", "opening_hours": "PH, Tu-Su 11:00-21:00"}}, {"type": "node", "id": 5160100821, "lat": 13.7816706, "lon": 100.5438401, "tags": {"amenity": "restaurant", "cuisine": "thai", "name": "Shambhala"}}, {"type": "node", "id": 5161579921, "lat": 13.7542326, "lon": 100.5011985, "tags": {"amenity": "restaurant", "diet:vegetarian": "only", "name:en": "arawy vegetarian", "opening_hours": "Mo-Su 07:00-20:00"}}, {"type": "node", "id": 5172341841, "lat": 13.7673678, "lon": 100.5049855, "tags": {"addr:housenumber": "164-172", "addr:postcode": "10200", "addr:province": "\u0e01\u0e23\u0e38\u0e07\u0e40\u0e17\u0e1e\u0e21\u0e2b\u0e32\u0e19\u0e04\u0e23", "addr:street": "Soi Thewet 2 Krung", "amenity": "restaurant", "name": "Raweekanlaya"}}, {"type": "node", "id": 5180083722, "lat": 13.7556389, "lon": 100.5434012, "tags": {"name:en": "The best Bangkok House", "tourism": "hotel"}}, {"type": "node", "id": 5217886233, "lat": 13.7871961, "lon": 100.546477, "tags": {"addr:housenumber": "4/7", "addr:postcode": "10400", "addr:province": "\u0e01\u0e23\u0e38\u0e07\u0e40\u0e17\u0e1e\u0e21\u0e2b\u0e32\u0e19\u0e04\u0e23", "addr:street": "\u0e0b\u0e2d\u0e22\u0e1e\u0e2b\u0e25\u0e42\u0e22\u0e18\u0e34\u0e19 11", "amenity": "cafe", "name": "Caffe Undici", "wheelchair": "limited"}}, {"type": "node", "id": 5220847422, "lat": 13.7506807, "lon": 100.5125254, "tags": {"tourism": "guest_house"}}, {"type": "node", "id": 5221313342, "lat": 13.7555682, "lon": 100.5067331, "tags": {"addr:housenumber": "40", "addr:postcode": "10100", "addr:street": "\u0e0b\u0e2d\u0e22\u0e1a\u0e23\u0e21\u0e1a\u0e23\u0e23\u0e1e\u0e15", "amenity": "cafe", "cuisine": "cake;coffee_shop", "internet_access": "wlan", "name": "Remedy Coffee Roastery"}}, {"type": "node", "id": 5221313343, "lat": 13.7561596, "lon": 100.5076073, "tags": {"addr:city": "\u0e41\u0e02\u0e27\u0e07\u0e27\u0e31\u0e14\u0e42\u0e2a\u0e21\u0e19\u0e31\u0e2a", "addr:housenumber": "8", "addr:postcode": "10100", "addr:street": "\u0e16\u0e19\u0e19\u0e2b\u0e25\u0e32\u0e19\u0e2b\u0e25\u0e27\u0e07", "air_conditioning": "yes", "amenity": "cafe", "delivery": "yes", "name": "Starbuck Susco Lan Luang", "name:th": "\u0e2a\u0e15\u0e32\u0e1a\u0e31\u0e04\u0e2a\u0e4c\u0e0b\u0e31\u0e2a\u0e42\u0e01\u0e49\u0e2b\u0e25\u0e32\u0e19\u0e2b\u0e25\u0e27\u0e07", "outdoor_seating": "no", "phone": "0844387344"}}, {"type": "node", "id": 5221313344, "lat": 13.7550343, "lon": 100.5086635, "tags": {"amenity": "marketplace", "name": "Wood Market"}}, {"type": "node", "id": 5221944187, "lat": 13.7579803, "lon": 100.5093825, "tags": {"amenity": "restaurant", "name": "\u0e01\u0e25\u0e49\u0e27\u0e22\u0e17\u0e2d\u0e14 \u0e19\u0e32\u0e07\u0e40\u0e25\u0e34\u0e49\u0e07", "name:en": "Nang Leerng Fried Banana", "name:es": "Pl\u00e1tano Frito Nang Leung", "name:km": "\u1785\u17c1\u1780\u1787\u17b6\u1793 \u178e\u17b6\u17c6\u1784\u179b\u17be\u1784"}}, {"type": "node", "id": 5221944188, "lat": 13.7592813, "lon": 100.5120329, "tags": {"addr:housenumber": "224-226", "addr:postcode": "10100", "addr:province": "\u0e01\u0e23\u0e38\u0e07\u0e40\u0e17\u0e1e\u0e21\u0e2b\u0e32\u0e19\u0e04\u0e23", "addr:street": "\u0e16\u0e19\u0e19\u0e19\u0e04\u0e23\u0e2a\u0e27\u0e23\u0e23\u0e04\u0e4c", "amenity": "restaurant", "name": "\u0e40\u0e02\u0e32\u0e40\u0e01\u0e34\u0e07\u0e23\u0e31\u0e15\u0e19\u0e32", "name:en": "Khao Kaeng Ruttana", "name:es": "Khao Kaeng Ruttana", "name:km": "\u1781\u17c4\u1782\u17be\u1784\u179a\u178f\u1793\u17b6", "phone": "+66-2-282-6150"}}, {"type": "node", "id": 5222206723, "lat": 13.7544292, "lon": 100.501223, "tags": {"addr:housenumber": "156/2", "addr:postcode": "10200", "addr:province": "\u0e01\u0e23\u0e38\u0e07\u0e40\u0e17\u0e1e\u0e21\u0e2b\u0e32\u0e19\u0e04\u0e23", "addr:street": "\u0e16\u0e19\u0e19\u0e14\u0e34\u0e19\u0e2a\u0e2d", "amenity": "restaurant", "name": "\u0e2a. \u0e2b\u0e19\u0e49\u0e32\u0e27\u0e31\u0e07", "name:en": "Saw Nah Wang", "name:es": "So Nawang", "name:th": "\u0e2a. \u0e2b\u0e19\u0e49\u0e32\u0e27\u0e31\u0e07", "opening_hours": "Mo-Su 10:00-23:00", "phone": "+66-2-622-1525"}}, {"type": "node", "id": 5224592122, "lat": 13.7537785, "lon": 100.5304936, "tags": {"addr:housenumber": "497", "addr:street": "\u0e16\u0e19\u0e19\u0e40\u0e1e\u0e0a\u0e23\u0e1a\u0e38\u0e23\u0e35", "internet_access": "wlan", "name": "Mali Home Hostel", "tourism": "hostel", "website": "https://booking.com/"}}, {"type": "node", "id": 5263801658, "lat": 13.7700566, "lon": 100.504228, "tags": {"amenity": "cafe", "name": "Tea Time", "name:en": "Tea Time"}}, {"type": "node", "id": 5263801661, "lat": 13.7699746, "lon": 100.5041529, "tags": {"amenity": "cafe", "ice_cream": "yes", "name": "iKOFFIE", "name:en": "iKOFFIE"}}, {"type": "node", "id": 5265327821, "lat": 13.7550338, "lon": 100.5329244, "tags": {"amenity": "cafe", "cuisine": "coffee_shop;tea", "internet_access": "wlan", "name:en": "Caf\u00e9 Anan", "name:nl": "Caf\u00e9 Anan"}}, {"type": "node", "id": 5265449423, "lat": 13.7652646, "lon": 100.5392768, "tags": {"amenity": "restaurant", "name:en": "ruathong noodles"}}, {"type": "node", "id": 5271387951, "lat": 13.7707993, "lon": 100.5049827, "tags": {"alt_name:en": "Namkati Station", "amenity": "cafe", "layer": "1", "name": "\u0e2a\u0e16\u0e32\u0e19\u0e35\u0e19\u0e49\u0e33\u0e01\u0e30\u0e17\u0e34", "name:en": "Namkati@Station", "name:th": "\u0e2a\u0e16\u0e32\u0e19\u0e35\u0e19\u0e49\u0e33\u0e01\u0e30\u0e17\u0e34", "opening_hours": "07:00-20:00", "phone": "+66 97 971 9915"}}, {"type": "node", "id": 5277054815, "lat": 13.770336, "lon": 100.5044786, "tags": {"amenity": "cafe", "brand": "\u0e04\u0e32\u0e40\u0e1f\u0e48 \u0e2d\u0e40\u0e21\u0e0b\u0e2d\u0e19", "brand:en": "Caf\u00e9 Amazon", "brand:th": "\u0e04\u0e32\u0e40\u0e1f\u0e48 \u0e2d\u0e40\u0e21\u0e0b\u0e2d\u0e19", "brand:wikidata": "Q43247503", "brand:wikipedia": "th:\u0e04\u0e32\u0e40\u0e1f\u0e48 \u0e2d\u0e40\u0e21\u0e0b\u0e2d\u0e19", "cuisine": "coffee_shop", "name": "\u0e04\u0e32\u0e40\u0e1f\u0e48 \u0e2d\u0e40\u0e21\u0e0b\u0e2d\u0e19", "name:en": "Caf\u00e9 Amazon", "name:th": "\u0e04\u0e32\u0e40\u0e1f\u0e48 \u0e2d\u0e40\u0e21\u0e0b\u0e2d\u0e19", "opening_hours": "Mo-Su 06:00-19:00", "takeaway": "yes", "website": "http://www.cafe-amazon.com/"}}, {"type": "node", "id": 5277180191, "lat": 13.7704408, "lon": 100.5045691, "tags": {"amenity": "restaurant", "cuisine": "noodle", "name": "Hongkong Noodle", "name:en": "Hongkong Noodle", "name:th": "\u0e2e\u0e48\u0e2d\u0e07\u0e01\u0e07 \u0e19\u0e39\u0e49\u0e14\u0e40\u0e14\u0e34\u0e49\u0e25", "short_name:en": "HKN"}}, {"type": "node", "id": 5285644721, "lat": 13.7700306, "lon": 100.5054045, "tags": {"amenity": "cafe", "internet_access": "wlan", "internet_access:fee": "customers", "name": "The Sound Cafe'", "name:en": "The Sound Cafe'"}}, {"type": "node", "id": 5290113721, "lat": 13.7662249, "lon": 100.537757, "tags": {"addr:street": "\u0e0b\u0e2d\u0e22\u0e23\u0e32\u0e0a\u0e27\u0e34\u0e16\u0e35 12", "amenity": "restaurant", "cuisine": "diner", "name": "\u0e2a\u0e49\u0e21\u0e15\u0e33\u0e2a\u0e32\u0e27\u0e2d\u0e38\u0e1a\u0e25", "opening_hours": "Mo-Su 09:00-21:00"}}, {"type": "node", "id": 5291368595, "lat": 13.7707234, "lon": 100.5050094, "tags": {"amenity": "restaurant", "cuisine": "noodle", "name": "\u0e41\u0e0a\u0e21\u0e1b\u0e4c \u0e2e\u0e31\u0e49\u0e07\u0e40\u0e1e\u0e49\u0e07", "name:th": "\u0e41\u0e0a\u0e21\u0e1b\u0e4c \u0e2e\u0e31\u0e49\u0e07\u0e40\u0e1e\u0e49\u0e07"}}, {"type": "node", "id": 5302229554, "lat": 13.76727, "lon": 100.5056666, "tags": {"amenity": "restaurant", "cuisine": "noodle", "name": "\u0e42\u0e2a\u0e20\u0e13\u0e25\u0e39\u0e01\u0e0a\u0e34\u0e49\u0e19\u0e2b\u0e21\u0e39", "name:th": "\u0e42\u0e2a\u0e20\u0e13\u0e25\u0e39\u0e01\u0e0a\u0e34\u0e49\u0e19\u0e2b\u0e21\u0e39", "phone": "+66 81 827 3963;+66 82 709 4858;+66 89 488 6361"}}, {"type": "node", "id": 5302229557, "lat": 13.7673406, "lon": 100.5056063, "tags": {"amenity": "cafe", "name": "Smooth Caffein", "name:en": "Smooth Caffein"}}, {"type": "node", "id": 5302267366, "lat": 13.7698416, "lon": 100.5041378, "tags": {"amenity": "restaurant", "cuisine": "noodle", "name": "\u0e01\u0e4b\u0e27\u0e22\u0e40\u0e15\u0e35\u0e4b\u0e22\u0e27\u0e40\u0e19\u0e37\u0e49\u0e2d \u0e40\u0e08\u0e4a\u0e14\u0e33\u0e40\u0e17\u0e40\u0e27\u0e28\u0e19\u0e4c", "name:th": "\u0e01\u0e4b\u0e27\u0e22\u0e40\u0e15\u0e35\u0e4b\u0e22\u0e27\u0e40\u0e19\u0e37\u0e49\u0e2d \u0e40\u0e08\u0e4a\u0e14\u0e33\u0e40\u0e17\u0e40\u0e27\u0e28\u0e19\u0e4c"}}, {"type": "node", "id": 5302435922, "lat": 13.7875196, "lon": 100.5476339, "tags": {"amenity": "cafe", "wheelchair": "limited"}}, {"type": "node", "id": 5316410623, "lat": 13.7540412, "lon": 100.5289569, "tags": {"amenity": "restaurant", "name:en": "Samran"}}, {"type": "node", "id": 5321262721, "lat": 13.7556228, "lon": 100.5381966, "tags": {"name:en": "Pratunam Family House", "tourism": "hotel"}}, {"type": "node", "id": 5331201621, "lat": 13.7556591, "lon": 100.5066281, "tags": {"amenity": "cafe", "name:en": "Blue tree", "opening_hours": "Mo-Su 07:00-18:00"}}, {"type": "node", "id": 5338212821, "lat": 13.7537816, "lon": 100.5008491, "tags": {"amenity": "restaurant", "internet_access": "wlan", "name:en": "China food. Duck duck go"}}, {"type": "node", "id": 5397556021, "lat": 13.7909511, "lon": 100.5406426, "tags": {"amenity": "restaurant", "cuisine": "local;thai", "diet:vegan": "only", "name:en": "All you can eat vegan (jay) buffet 40baht", "opening_hours": "Mo-Su 06:00-15:00"}}, {"type": "node", "id": 5402906822, "lat": 13.7568039, "lon": 100.5267984, "tags": {"internet_access": "wlan", "name": "Greenery Hostel", "name:en": "Greenery Hostel", "opening_hours": "24/7", "tourism": "hostel"}}, {"type": "node", "id": 5410048321, "lat": 13.7626442, "lon": 100.501795, "tags": {"addr:housenumber": "316/1", "addr:postcode": "10200", "addr:street": "\u0e16\u0e19\u0e19\u0e1b\u0e23\u0e30\u0e0a\u0e32\u0e18\u0e34\u0e1b\u0e44\u0e15\u0e22", "internet_access": "wlan", "name:en": "Mint Hostel", "phone": "0895310609", "tourism": "hostel"}}, {"type": "node", "id": 5413710021, "lat": 13.7743985, "lon": 100.5247498, "tags": {"addr:housenumber": "328/10", "addr:postcode": "10300", "addr:street": "\u0e16\u0e19\u0e19\u0e2a\u0e38\u0e42\u0e02\u0e17\u0e31\u0e22", "amenity": "restaurant", "name:en": "Khao Soy Chiang Mai", "opening_hours": "Mo-Su 08:00-14:00"}}, {"type": "node", "id": 5450880821, "lat": 13.7773251, "lon": 100.5429331, "tags": {"amenity": "restaurant", "name": "beef and beer"}}, {"type": "node", "id": 5455401623, "lat": 13.7812768, "lon": 100.5138308, "tags": {"addr:housenumber": "323", "addr:postcode": "10300", "addr:street": "\u0e16\u0e19\u0e19\u0e19\u0e04\u0e23\u0e23\u0e32\u0e0a\u0e2a\u0e35\u0e21\u0e32", "internet_access": "wlan", "name": "Suan Parichat", "phone": "+66 81 870 1976", "tourism": "apartment", "website": "https://the-parichat-apartment.business.site/"}}, {"type": "node", "id": 5463468022, "lat": 13.7622383, "lon": 100.5019401, "tags": {"internet_access": "wlan", "name": "Baan Bangkok (private Rooms)", "name:de": "Baan Bangkok (private R\u00e4ume)", "tourism": "hostel"}}, {"type": "node", "id": 5467041321, "lat": 13.7843194, "lon": 100.5137218, "tags": {"addr:postcode": "10300", "addr:street": "\u0e16\u0e19\u0e19\u0e19\u0e04\u0e23\u0e44\u0e0a\u0e22\u0e28\u0e23\u0e35", "amenity": "restaurant", "cuisine": "thai", "name:th": "Panettone", "opening_hours": "Mo-Su 11:00-22:00", "phone": "+66 2 241 4568"}}, {"type": "node", "id": 5477818423, "lat": 13.7880027, "lon": 100.5421056, "tags": {"amenity": "restaurant", "name:en": "Pizza Pazza", "wheelchair": "limited"}}, {"type": "node", "id": 5485625121, "lat": 13.7667195, "lon": 100.501107, "tags": {"amenity": "restaurant", "name": "Good street food (green curry)"}}, {"type": "node", "id": 5485728107, "lat": 13.7500226, "lon": 100.5374018, "tags": {"amenity": "cafe", "internet_access": "wlan", "internet_access:fee": "no", "level": "3", "name": "Ken Caf\u00e9", "smoking": "no"}}, {"type": "node", "id": 5488041122, "lat": 13.7825939, "lon": 100.5438671, "tags": {"amenity": "cafe", "name:en": "Ease cafe and coworking space"}}, {"type": "node", "id": 5492460133, "lat": 13.7841258, "lon": 100.5437878, "tags": {"amenity": "cafe", "name:en": "Bar Storia del Caff\u00e8"}}, {"type": "node", "id": 5508674123, "lat": 13.7560029, "lon": 100.5365196, "tags": {"addr:housenumber": "33", "addr:street": "Phetchaburi 11", "internet_access": "yes", "internet_access:fee": "no", "name": "Top High Airport Link Hotel", "name:en": "Top High Airport Link Hotel", "phone": "+66 2 253 4396", "rooms": "84", "stars": "3", "tourism": "hotel", "website": "http://tophighairportlinkhotel.com/"}}, {"type": "node", "id": 5508693022, "lat": 13.785391, "lon": 100.5450227, "tags": {"amenity": "restaurant", "cuisine": "international", "name:en": "Falt Marble", "opening_hours": "Su-Fr 17:00-00:00", "phone": "+66 61 695 9666"}}, {"type": "node", "id": 5520352129, "lat": 13.7906706, "lon": 100.5432324, "tags": {"amenity": "restaurant", "name:en": "Rajawatee pub restaurant"}}, {"type": "node", "id": 5542701821, "lat": 13.7660601, "lon": 100.5017314, "tags": {"amenity": "restaurant", "name:en": "Inter restaurant", "name:ko": "\uac08\ube44\ud0d5", "opening_hours": "Mo-Su 17:00-02:00"}}, {"type": "node", "id": 5561644723, "lat": 13.7517355, "lon": 100.5293817, "tags": {"amenity": "restaurant", "cuisine": "thai", "name:fr": "halal food", "opening_hours": "24/7"}}, {"type": "node", "id": 5567934052, "lat": 13.7500018, "lon": 100.5383513, "tags": {"addr:postcode": "10400", "name": "grand diamond hotel", "tourism": "hotel"}}, {"type": "node", "id": 5569235280, "lat": 13.796693, "lon": 100.5498638, "tags": {"amenity": "restaurant", "name:en": "Sanan seafood"}}, {"type": "node", "id": 5638211323, "lat": 13.7763372, "lon": 100.5428792, "tags": {"addr:street": "\u0e16\u0e19\u0e19\u0e1e\u0e2b\u0e25\u0e42\u0e22\u0e18\u0e34\u0e19", "internet_access": "wlan", "name": "\u0e1a\u0e39\u0e21\u0e23\u0e33\u0e1e\u0e32 \u0e04\u0e2d\u0e19\u0e42\u0e14\u0e40\u0e17\u0e25", "name:en": "BoomRumpa Condotel", "tourism": "apartment"}}, {"type": "node", "id": 5645454824, "lat": 13.7900304, "lon": 100.5420659, "tags": {"addr:postcode": "10400", "check_date": "2023-06-04", "internet_access": "yes", "internet_access:fee": "customers", "name": "Siam Palace Hotel", "name:en": "Siam Palace Hotel", "name:th": "Siam Palace Hotel", "phone": "+66 66 146 9464", "tourism": "hotel"}}, {"type": "node", "id": 5656376722, "lat": 13.7545616, "lon": 100.5014427, "tags": {"amenity": "restaurant", "name:en": "Sor.NaWang"}}, {"type": "node", "id": 5658739027, "lat": 13.7658444, "lon": 100.5007112, "tags": {"addr:housenumber": "176", "addr:street": "\u0e16\u0e19\u0e19\u0e2a\u0e32\u0e21\u0e40\u0e2a\u0e19", "email": "info@casanithra.com", "internet_access": "wlan", "name:en": "Casa Nithra Bangkok", "phone": "+6626286228", "tourism": "hotel", "website": "http://www.casanithra.com"}}, {"type": "node", "id": 5663256721, "lat": 13.7634689, "lon": 100.5002525, "tags": {"addr:housenumber": "378", "addr:postcode": "10200", "addr:street": "Samsen Soi 4", "email": "bkkhostel@gmail.com", "internet_access": "wlan", "name": "\u0e1a\u0e49\u0e32\u0e19\u0e1a\u0e32\u0e07\u0e01\u0e2d\u0e01", "name:en": "Baanbangkok backpackers hostel & B5 cafe\u2019", "name:th": "\u0e1a\u0e49\u0e32\u0e19\u0e1a\u0e32\u0e07\u0e01\u0e2d\u0e14\u0e41\u0e1a\u0e47\u0e01\u0e41\u0e1e\u0e47\u0e04\u0e40\u0e01\u0e2d\u0e23\u0e4c \u0e42\u0e2e\u0e2a\u0e40\u0e17\u0e25", "opening_hours": "Mo-Su 07:00-00:00", "operator": "Bo", "phone": "020458100, 0972415491", "tourism": "hostel", "website": "http://baanbangkokhostel.com"}}, {"type": "node", "id": 5674261823, "lat": 13.7811037, "lon": 100.5444506, "tags": {"addr:housenumber": "17", "addr:postcode": "10400", "addr:street": "\u0e16\u0e19\u0e19\u0e1e\u0e2b\u0e25\u0e42\u0e22\u0e18\u0e34\u0e19", "amenity": "restaurant", "name:en": "Ongtong Khaosoi", "opening_hours": "Mo-Su 10:30-21:00"}}, {"type": "node", "id": 5674372421, "lat": 13.7811721, "lon": 100.5444047, "tags": {"amenity": "cafe", "name:en": "Onedee Cafe", "opening_hours": "Mo-Su 11:00-22:00"}}, {"type": "node", "id": 5728692421, "lat": 13.7519295, "lon": 100.5319204, "tags": {"amenity": "restaurant", "name:en": "Shuba Shabu Buffet"}}, {"type": "node", "id": 5736005848, "lat": 13.75182, "lon": 100.53182, "tags": {"alt_name:en": "Nerdy World Company Limited", "alt_name:th": "\u0e1a\u0e23\u0e34\u0e29\u0e31\u0e17 \u0e40\u0e19\u0e34\u0e23\u0e4c\u0e14\u0e14\u0e35\u0e49 \u0e40\u0e27\u0e34\u0e25\u0e14\u0e4c \u0e08\u0e33\u0e01\u0e31\u0e14", "amenity": "restaurant", "building:levels": "2", "cuisine": "steak_house", "name": "Hungry Nerd", "name:en": "Hungry Nerd"}}, {"type": "node", "id": 5743147230, "lat": 13.7519076, "lon": 100.5318453, "tags": {"amenity": "cafe", "name": "B-Story Cafe", "name:en": "B-Story Cafe"}}, {"type": "node", "id": 5755600422, "lat": 13.7578741, "lon": 100.5407105, "tags": {"name": "Rangnam", "tourism": "apartment"}}, {"type": "node", "id": 5757464922, "lat": 13.7624436, "lon": 100.5042748, "tags": {"amenity": "cafe"}}, {"type": "node", "id": 5759643224, "lat": 13.7539822, "lon": 100.5033841, "tags": {"name:en": "Krit hostel", "tourism": "hostel"}}, {"type": "node", "id": 5759652122, "lat": 13.7539606, "lon": 100.5033895, "tags": {"name:en": "Krit hostel", "tourism": "hostel"}}, {"type": "node", "id": 5800285853, "lat": 13.7627294, "lon": 100.5016532, "tags": {"name": "3howw Hostel", "tourism": "hostel"}}, {"type": "node", "id": 5810435245, "lat": 13.7538624, "lon": 100.501174, "tags": {"addr:street": "\u0e16\u0e19\u0e19\u0e14\u0e34\u0e19\u0e2a\u0e2d", "amenity": "restaurant", "name": "\u0e21\u0e34\u0e15\u0e23\u0e42\u0e01\u0e2b\u0e22\u0e48\u0e27\u0e19", "name:en": "Mit Ko Yuan", "opening_hours": "Mo-Su 11:00-14:00,16:00-22:00"}}, {"type": "node", "id": 5810491153, "lat": 13.7544294, "lon": 100.5424812, "tags": {"tourism": "hotel"}}, {"type": "node", "id": 5875546985, "lat": 13.7552206, "lon": 100.5315667, "tags": {"addr:housenumber": "164/23", "addr:postcode": "10400", "addr:street": "\u0e0b\u0e2d\u0e22\u0e19\u0e49\u0e2d\u0e21\u0e08\u0e34\u0e15\u0e15\u0e4c", "email": "info@trueasiatraveler.com", "internet_access": "wlan", "name:en": "Bangkok Legend", "opening_hours": "24/7", "operator": "TRUE ASIA TRAVELS", "phone": "+66021620034", "tourism": "guest_house", "website": "https://www.trueasiatravels.com/"}}, {"type": "node", "id": 5888497185, "lat": 13.7756835, "lon": 100.5434017, "tags": {"internet_access": "wlan", "name": "19a Bangkok Hostel", "name:en": "19A Bangkok Hostel", "tourism": "hostel"}}, {"type": "node", "id": 5894263287, "lat": 13.7583191, "lon": 100.5329461, "tags": {"amenity": "cafe", "name:en": "Coco coffee"}}, {"type": "node", "id": 5894610185, "lat": 13.7634225, "lon": 100.5004643, "tags": {"amenity": "restaurant", "cuisine": "thai", "name:fr": "excellent restaurant de rue"}}, {"type": "node", "id": 5899745285, "lat": 13.7514089, "lon": 100.5375233, "tags": {"name": "Leela Orchid Hotel", "tourism": "hotel"}}, {"type": "node", "id": 5901823787, "lat": 13.7566613, "lon": 100.51812, "tags": {"name:en": "Street market", "tourism": "attraction"}}, {"type": "node", "id": 5906446585, "lat": 13.7941032, "lon": 100.5495699, "tags": {"addr:housenumber": "1155", "addr:postcode": "10400", "addr:street": "\u0e16\u0e19\u0e19\u0e1e\u0e2b\u0e25\u0e42\u0e22\u0e18\u0e34\u0e19", "internet_access": "wlan", "name:en": "The Editor", "tourism": "apartment"}}, {"type": "node", "id": 5909201985, "lat": 13.7580698, "lon": 100.5333216, "tags": {"amenity": "cafe", "name:en": "SL Caf\u00e9"}}, {"type": "node", "id": 5912053740, "lat": 13.76672, "lon": 100.50107, "tags": {"building": "kiosk", "information": "office", "operator": "Bangkok Metropolitan Administration", "operator:wikidata": "Q4855218", "tourism": "information"}}, {"type": "node", "id": 5935855496, "lat": 13.7559711, "lon": 100.5101538, "tags": {"addr:housenumber": "90/2-5", "addr:postcode": "10100", "addr:street": "\u0e2b\u0e25\u0e32\u0e19\u0e2b\u0e25\u0e27\u0e07 4", "email": "Visuthouse@gmail.com", "internet_access": "wlan", "name": "VISUT House", "phone": "020108855", "tourism": "hotel"}}, {"type": "node", "id": 5940945696, "lat": 13.7573801, "lon": 100.5015417, "tags": {"description": "\u0e28\u0e32\u0e25\u0e1e\u0e23\u0e30\u0e20\u0e39\u0e21\u0e34", "description:en": "A spirit house", "historic": "wayside_shrine"}}, {"type": "node", "id": 5964589386, "lat": 13.755836, "lon": 100.5294733, "tags": {"amenity": "restaurant", "cuisine": "thai", "name:en": "Pe\u2019 Aor"}}, {"type": "node", "id": 5966546840, "lat": 13.76681, "lon": 100.50093, "tags": {"information": "guidepost", "tourism": "information"}}, {"type": "node", "id": 5975917986, "lat": 13.7572663, "lon": 100.5017975, "tags": {"information": "guidepost", "tourism": "information"}}, {"type": "node", "id": 5980528785, "lat": 13.7520929, "lon": 100.5380953, "tags": {"addr:housenumber": "4/32-33", "addr:postcode": "10500", "addr:street": "\u0e16\u0e19\u0e19\u0e40\u0e1e\u0e0a\u0e23\u0e1a\u0e38\u0e23\u0e35 \u0e0b\u0e2d\u0e2219", "amenity": "restaurant", "name:en": "Sabx2 Wonton Noodle", "opening_hours": "Mo-Su 09:00-15:00"}}, {"type": "node", "id": 5982331183, "lat": 13.7745882, "lon": 100.5068044, "tags": {"description": "\u0e14\u0e49\u0e32\u0e19\u0e43\u0e19\u0e21\u0e35\u0e23\u0e39\u0e1b\u0e1b\u0e31\u0e49\u0e19\u0e2d\u0e07\u0e04\u0e4c\u0e1e\u0e23\u0e30\u0e1e\u0e34\u0e06\u0e40\u0e19\u0e28\u0e22\u0e37\u0e19", "description:en": "There is a standing Ganesha statue inside.", "historic": "wayside_shrine", "religion": "hindu"}}, {"type": "node", "id": 5983651289, "lat": 13.7561892, "lon": 100.5015419, "tags": {"information": "map", "map_size": "city", "map_type": "street", "tourism": "information"}}, {"type": "node", "id": 5983702350, "lat": 13.7572573, "lon": 100.5021615, "tags": {"historic": "monument", "name": "\u0e2b\u0e25\u0e31\u0e01\u0e01\u0e34\u0e42\u0e25\u0e40\u0e21\u0e15\u0e23\u0e17\u0e35\u0e48 0", "name:en": "Zero kilometer marker", "name:th": "\u0e2b\u0e25\u0e31\u0e01\u0e01\u0e34\u0e42\u0e25\u0e40\u0e21\u0e15\u0e23\u0e17\u0e35\u0e48 0", "official_name:th": "\u0e2b\u0e25\u0e31\u0e01\u0e01\u0e34\u0e42\u0e25\u0e40\u0e21\u0e15\u0e23\u0e17\u0e35\u0e48 \u0e50", "subject:wikidata": "Q329477"}}, {"type": "node", "id": 5986382158, "lat": 13.7570646, "lon": 100.5012572, "tags": {"colour": "seagreen", "information": "map", "tourism": "information"}}, {"type": "node", "id": 5986382159, "lat": 13.7566007, "lon": 100.5011177, "tags": {"colour": "seagreen", "information": "map", "tourism": "information"}}, {"type": "node", "id": 5988761403, "lat": 13.7550188, "lon": 100.5007686, "tags": {"addr:housenumber": "15", "addr:street": "15 Dinso Road", "description": "Please walk into the small alley next to 7/11, about 50 meters or 1 minute walking, you will find a Thai house with door no. 15 on the right of alley.", "name": "Banankhon Hostel", "phone": "00654898077", "tourism": "hostel", "website": "https://m.facebook.com/BaankhonBangkok"}}, {"type": "node", "id": 5989287686, "lat": 13.7634569, "lon": 100.5002845, "tags": {"addr:housenumber": "378", "addr:postcode": "10200", "addr:street": "Samsen Soi 4", "amenity": "restaurant", "cuisine": "thai", "email": "bbkkhostel@gmail.com", "internet_access": "wlan", "name": "\u0e23\u0e49\u0e32\u0e19\u0e2d\u0e32\u0e2b\u0e32\u0e23\u0e1a\u0e35\u0e44\u0e1f\u0e27\u0e4c", "name:en": "B5 cafe\u2019", "opening_hours": "24/7", "operator": "Bo", "phone": "020458100", "website": "http://www.facebook.com/b5cafe"}}, {"type": "node", "id": 5992202670, "lat": 13.7564643, "lon": 100.5019783, "tags": {"colour": "seagreen", "information": "map", "tourism": "information"}}, {"type": "node", "id": 5992202671, "lat": 13.7568377, "lon": 100.5024287, "tags": {"colour": "seagreen", "information": "map", "tourism": "information"}}, {"type": "node", "id": 5992202672, "lat": 13.7563297, "lon": 100.5024207, "tags": {"information": "map", "tourism": "information"}}, {"type": "node", "id": 6009125185, "lat": 13.7524401, "lon": 100.5283125, "tags": {"internet_access": "yes", "name": "Timber Hostel", "tourism": "hostel"}},