{"version": 0.6, "generator": "Overpass API 0.7.62.8 e802775f", "osm3s": {"timestamp_osm_base": "2025-11-20T03:19:23Z", "copyright": "The data included in this document is from www.openstreetmap.org. The data is made available under ODbL."}, "elements": [{"type": "node", "id": 5273823922, "lat": 13.6045471, "lon": 100.7808916, "tags": {"addr:street": "\u0e16\u0e19\u0e19\u0e1a\u0e32\u0e07\u0e19\u0e32-\u0e15\u0e23\u0e32\u0e14", "historic": "castle", "name": "CATERPILLAR \u0e01\u0e21.20"}}, {"type": "node", "id": 12389857401, "lat": 13.6197495, "lon": 100.7510801, "tags": {"internet_access": "wlan", "name": "Toucan Bed and Cafe", "phone": "+66989398958", "self_service": "no", "tourism": "hotel", "website": "https://toucanbedandcafe.zoombookdirect.com/"}}, {"type": "node", "id": 12630760985, "lat": 13.6292107, "lon": 100.7732721, "tags": {"amenity": "place_of_worship", "denomination": "thai_thammayut", "name": "\u0e27\u0e31\u0e14\u0e28\u0e23\u0e35\u0e23\u0e31\u0e15\u0e19\u0e18\u0e23\u0e23\u0e21\u0e32\u0e23\u0e32\u0e21", "name:en": "Wat Si Rattana Thamma Ram", "name:th": "\u0e27\u0e31\u0e14\u0e28\u0e23\u0e35\u0e23\u0e31\u0e15\u0e19\u0e18\u0e23\u0e23\u0e21\u0e32\u0e23\u0e32\u0e21", "religion": "buddhist", "wikidata": "Q100715934", "wikipedia": "th:\u0e27\u0e31\u0e14\u0e28\u0e23\u0e35\u0e23\u0e31\u0e15\u0e19\u0e18\u0e23\u0e23\u0e21\u0e32\u0e23\u0e32\u0e21"}}, {"type": "node", "id": 12645537702, "lat": 13.6264559, "lon": 100.7945083, "tags": {"amenity": "place_of_worship", "denomination": "thai_mahanikaya", "name": "\u0e27\u0e31\u0e14\u0e08\u0e23\u0e40\u0e02\u0e49\u0e43\u0e2b\u0e0d\u0e48", "name:en": "Wat Chorakhe Yai", "name:th": "\u0e27\u0e31\u0e14\u0e08\u0e23\u0e40\u0e02\u0e49\u0e43\u0e2b\u0e0d\u0e48", "religion": "buddhist", "wikidata": "Q100715928", "wikipedia": "th:\u0e27\u0e31\u0e14\u0e08\u0e23\u0e40\u0e02\u0e49\u0e43\u0e2b\u0e0d\u0e48"}}, {"type": "way", "id": 1266067466, "nodes": [8605976768, 8605976767, 5684363163, 5684363162, 5684363164, 8606005149, 5684363157, 5684363158, 5684363159, 5684363160, 5684363161, 8605976768], "tags": {"amenity": "marketplace", "name": "Tipgaysorn"}}, {"type": "node", "id": 5684363157, "lat": 13.6350922, "lon": 100.7710736}, {"type": "node", "id": 5684363158, "lat": 13.6360376, "lon": 100.7699114}, {"type": "node", "id": 5684363159, "lat": 13.6363973, "lon": 100.7694635}, {"type": "node", "id": 5684363160, "lat": 13.6364599, "lon": 100.769371}, {"type": "node", "id": 5684363161, "lat": 13.6365693, "lon": 100.769198}, {"type": "node", "id": 5684363162, "lat": 13.6368372, "lon": 100.7696309}, {"type": "node", "id": 5684363163, "lat": 13.6369258, "lon": 100.7694487}, {"type": "node", "id": 5684363164, "lat": 13.6356325, "lon": 100.7714771}, {"type": "node", "id": 8605976767, "lat": 13.6369108, "lon": 100.7693709}, {"type": "node", "id": 8605976768, "lat": 13.6366039, "lon": 100.7691857}, {"type": "node", "id": 8606005149, "lat": 13.6353364, "lon": 100.7712592}]}