{"version": 0.6, "generator": "Overpass API 0.7.62.8 e802775f", "osm3s": {"timestamp_osm_base": "2025-11-20T03:21:27Z", "copyright": "The data included in this document is from www.openstreetmap.org. The data is made available under ODbL."}, "elements": [{"type": "node", "id": 925805914, "lat": 13.7537457, "lon": 100.5780742, "tags": {"amenity": "restaurant", "name": "Talay Bangkok"}}, {"type": "node", "id": 1158439467, "lat": 13.768767, "lon": 100.571906, "tags": {"addr:street": "\u0e23\u0e31\u0e0a\u0e14\u0e32\u0e20\u0e34\u0e40\u0e29\u0e01", "amenity": "restaurant", "name": "\u0e2e\u0e30\u0e08\u0e34\u0e1a\u0e31\u0e07 \u0e23\u0e32\u0e40\u0e21\u0e19", "name:en": "Hachiban-Ramen", "name:th": "\u0e2e\u0e30\u0e08\u0e34\u0e1a\u0e31\u0e07 \u0e23\u0e32\u0e40\u0e21\u0e19"}}, {"type": "node", "id": 1692001840, "lat": 13.7937414, "lon": 100.5859092, "tags": {"historic": "wayside_shrine", "religion": "buddhist"}}, {"type": "node", "id": 1692732873, "lat": 13.7890502, "lon": 100.5876301, "tags": {"amenity": "restaurant", "cuisine": "thai", "name": "\u0e0a\u0e49\u0e32\u0e27\u0e41\u0e01\u0e07\u0e1b\u0e31\u0e01\u0e29\u0e4c\u0e43\u0e15\u0e49", "name:en": "Thai Southern Food", "name:th": "\u0e02\u0e49\u0e32\u0e27\u0e41\u0e01\u0e07\u0e1b\u0e31\u0e01\u0e29\u0e4c\u0e43\u0e15\u0e49"}}, {"type": "node", "id": 1695825320, "lat": 13.7903919, "lon": 100.5825801, "tags": {"amenity": "restaurant", "name": "\u0e01\u0e4b\u0e27\u0e22\u0e40\u0e15\u0e35\u0e4b\u0e22\u0e27\u0e15\u0e30\u0e41\u0e04\u0e07\u0e0a\u0e32\u0e21", "name:en": "Ta Kaeng Cham Noodle House", "name:th": "\u0e01\u0e4b\u0e27\u0e22\u0e40\u0e15\u0e35\u0e4b\u0e22\u0e27\u0e15\u0e30\u0e41\u0e04\u0e07\u0e0a\u0e32\u0e21"}}, {"type": "node", "id": 1696475413, "lat": 13.7898352, "lon": 100.5747223, "tags": {"amenity": "restaurant", "cuisine": "thai", "internet_access": "no", "internet_access:fee": "no", "name": "\u0e40\u0e1b\u0e47\u0e14\u0e22\u0e48\u0e32\u0e07\u0e19\u0e32\u0e17\u0e2d\u0e07", "name:en": "Ped Yang Na Thong", "name:th": "\u0e40\u0e1b\u0e47\u0e14\u0e22\u0e48\u0e32\u0e07\u0e19\u0e32\u0e17\u0e2d\u0e07", "wheelchair": "no"}}, {"type": "node", "id": 1696540443, "lat": 13.7838673, "lon": 100.587021, "tags": {"amenity": "restaurant", "cuisine": "japanese", "name": "\u0e40\u0e19\u0e37\u0e49\u0e2d\u0e22\u0e48\u0e32\u0e07\u0e01\u0e34\u0e27\u0e01\u0e34\u0e27\u0e40\u0e15\u0e49", "name:en": "Gyu Gyu Tei Yakiniku", "name:th": "\u0e40\u0e19\u0e37\u0e49\u0e2d\u0e22\u0e48\u0e32\u0e07\u0e01\u0e34\u0e27\u0e01\u0e34\u0e27\u0e40\u0e15\u0e49"}}, {"type": "node", "id": 1700639717, "lat": 13.7896795, "lon": 100.5777958, "tags": {"amenity": "restaurant", "cuisine": "thai", "name": "\u0e23\u0e49\u0e32\u0e19\u0e2d\u0e32\u0e2b\u0e32\u0e23\u0e15\u0e32\u0e21\u0e2a\u0e31\u0e48\u0e07"}}, {"type": "node", "id": 1715872023, "lat": 13.7943275, "lon": 100.5885598, "tags": {"amenity": "cafe", "internet_access": "terminal", "name": "Internet"}}, {"type": "node", "id": 1715872042, "lat": 13.7940298, "lon": 100.588324, "tags": {"amenity": "restaurant"}}, {"type": "node", "id": 1715872049, "lat": 13.7941016, "lon": 100.5885659, "tags": {"amenity": "cafe"}}, {"type": "node", "id": 1715872050, "lat": 13.7941007, "lon": 100.5885995, "tags": {"amenity": "restaurant"}}, {"type": "node", "id": 1736945294, "lat": 13.7753363, "lon": 100.5967597, "tags": {"amenity": "restaurant", "name": "VT \u0e41\u0e2b\u0e19\u0e21\u0e40\u0e19\u0e37\u0e2d\u0e07", "name:en": "VT Nam Nueng", "name:th": "VT \u0e41\u0e2b\u0e19\u0e21\u0e40\u0e19\u0e37\u0e2d\u0e07"}}, {"type": "node", "id": 1748190979, "lat": 13.7820065, "lon": 100.5939424, "tags": {"amenity": "restaurant", "cuisine": "thai", "name": "\u0e23\u0e49\u0e32\u0e19\u0e05\u0e19\u0e40\u0e2b\u0e19\u0e37\u0e2d \u0e2d\u0e32\u0e2b\u0e32\u0e23\u0e40\u0e2b\u0e19\u0e37\u0e2d", "name:en": "Khon Nuae Northern Thailand Foods", "name:th": "\u0e23\u0e49\u0e32\u0e19\u0e05\u0e19\u0e40\u0e2b\u0e19\u0e37\u0e2d \u0e2d\u0e32\u0e2b\u0e32\u0e23\u0e40\u0e2b\u0e19\u0e37\u0e2d"}}, {"type": "node", "id": 1757048268, "lat": 13.7810325, "lon": 100.5758991, "tags": {"amenity": "restaurant", "cuisine": "asian", "name": "Asian"}}, {"type": "node", "id": 2107308784, "lat": 13.7980275, "lon": 100.550142, "tags": {"alt_name": "\u0e27\u0e38\u0e48\u0e19\u0e27\u0e32\u0e22", "amenity": "restaurant", "cuisine": "thai", "designation": "\u0e23\u0e49\u0e32\u0e19\u0e2a\u0e49\u0e21\u0e15\u0e33", "name": "Wunwai"}}, {"type": "node", "id": 2108892024, "lat": 13.7980587, "lon": 100.5502587, "tags": {"alt_name": "\u0e08\u0e15\u0e38\u0e08\u0e31\u0e01\u0e23\u0e40\u0e09\u0e32\u0e01\u0e4a\u0e27\u0e22\u0e42\u0e1a\u0e23\u0e32\u0e13", "amenity": "restaurant", "cuisine": "thai", "name": "Chatuchak chow-koiw Boran", "type": "Dessert"}}, {"type": "node", "id": 2108922513, "lat": 13.7982138, "lon": 100.5508327, "tags": {"alt_name": "\u0e14\u0e34\u0e19\u0e40\u0e1c\u0e32\u0e40\u0e40\u0e2b\u0e19\u0e21\u0e40\u0e19\u0e37\u0e2d\u0e07", "amenity": "restaurant", "cuisine": "vietnamese", "name": "Din Paw"}}, {"type": "node", "id": 2108922528, "lat": 13.7981421, "lon": 100.550484, "tags": {"amenity": "cafe", "name": "Fruit smoothie"}}, {"type": "node", "id": 2108922533, "lat": 13.798189, "lon": 100.5507818, "tags": {"amenity": "restaurant", "cuisine": "thai", "name": "Caf\u00e9 de France"}}, {"type": "node", "id": 2108923575, "lat": 13.7980562, "lon": 100.5505939, "tags": {"amenity": "cafe", "name": "Green tea"}}, {"type": "node", "id": 2368064673, "lat": 13.7675606, "lon": 100.5987824, "tags": {"addr:housenumber": "999/166", "addr:postcode": "10310", "addr:province": "\u0e01\u0e23\u0e38\u0e07\u0e40\u0e17\u0e1e\u0e21\u0e2b\u0e32\u0e19\u0e04\u0e23", "addr:street": "Condo Than Living Ratchada-Prachauthit Ramkhamhaeng Soi, 39, Prachauthit Road, whangthonglang, Wang Thonglang", "amenity": "cafe", "cuisine": "bingsu;coffee_shop;ice_cream", "internet_access": "wlan", "internet_access:fee": "no", "name": "Mama Bingsu , Bangkok 10310, Tha\u00eflande", "opening_hours": "10:00-22:30", "outdoor_seating": "yes", "phone": "+66 87 987 1083", "smoking": "outside", "website": "www.mamabingsu.com", "wheelchair": "yes"}}, {"type": "node", "id": 2406468124, "lat": 13.7624547, "lon": 100.5676547, "tags": {"amenity": "restaurant"}}, {"type": "node", "id": 2406468539, "lat": 13.7623526, "lon": 100.567864, "tags": {"amenity": "cafe"}}, {"type": "node", "id": 2406468541, "lat": 13.7623166, "lon": 100.5679899, "tags": {"amenity": "restaurant"}}, {"type": "node", "id": 2507885445, "lat": 13.7891135, "lon": 100.5873019, "tags": {"amenity": "restaurant", "cuisine": "thai", "name": "\u0e1a\u0e34\u0e4a\u0e01\u0e44\u0e01\u0e48", "name:en": "Big Gai", "name:th": "\u0e1a\u0e34\u0e4a\u0e01\u0e44\u0e01\u0e48", "source": "http://www.mapillary.com/map/im/TvPWyX7BBQss7WAAxYr98A/photo", "website": "http://www.facebook.com/biggai", "wifi": "no"}}, {"type": "node", "id": 2510005841, "lat": 13.7895398, "lon": 100.5887429, "tags": {"amenity": "restaurant"}}, {"type": "node", "id": 2726968424, "lat": 13.778482, "lon": 100.5749978, "tags": {"addr:housenumber": "70", "addr:postcode": "10310", "addr:province": "\u0e01\u0e23\u0e38\u0e07\u0e40\u0e17\u0e1e\u0e21\u0e2b\u0e32\u0e19\u0e04\u0e23", "addr:street": "\u0e16\u0e19\u0e19\u0e1b\u0e23\u0e30\u0e0a\u0e32\u0e23\u0e32\u0e29\u0e0e\u0e23\u0e4c\u0e1a\u0e33\u0e40\u0e1e\u0e47\u0e0d", "name": "Yim Huai Khwang Hostel", "operator": "Yim Huai Khwang", "phone": "+66 2 1186038", "source": "@yimhostel", "tourism": "hostel", "website": "http://www.yimhuaikhwang.com", "wheelchair": "yes"}}, {"type": "node", "id": 2987127004, "lat": 13.7567507, "lon": 100.5635981, "tags": {"amenity": "marketplace"}}, {"type": "node", "id": 3184006780, "lat": 13.7775139, "lon": 100.5864389, "tags": {"amenity": "restaurant", "cuisine": "thai", "name": "\u0e44\u0e01\u0e48\u0e17\u0e2d\u0e14 8 \u0e01\u0e23\u0e30\u0e17\u0e30"}}, {"type": "node", "id": 3251640378, "lat": 13.7579272, "lon": 100.5657685, "tags": {"amenity": "cafe", "brand": "Starbucks", "brand:wikidata": "Q37158", "cuisine": "coffee_shop", "internet_access": "wlan", "name": "Starbucks", "name:en": "Starbucks Coffee", "name:th": "\u0e2a\u0e15\u0e32\u0e23\u0e4c\u0e1a\u0e31\u0e04\u0e2a\u0e4c", "official_name": "Starbucks Coffee", "opening_hours": "Mo-Su 07:00-21:00", "smoking": "no", "takeaway": "yes", "website": "https://www.starbucks.co.th/"}}, {"type": "node", "id": 3251640379, "lat": 13.7592715, "lon": 100.566203, "tags": {"amenity": "restaurant", "capacity": "200", "name": "\u0e1f\u0e39\u0e49\u0e14 \u0e23\u0e35\u0e1e\u0e31\u0e1a\u0e25\u0e34\u0e04", "name:en": "Food Republic", "opening_hours": "11:30 - 22:00", "smoking": "no"}}, {"type": "node", "id": 3251640382, "lat": 13.7590474, "lon": 100.5660152, "tags": {"amenity": "restaurant", "cuisine": "pasta,_pizza", "name": "\u0e2a\u0e1b\u0e32\u0e40\u0e01\u0e47\u0e15\u0e15\u0e35\u0e49 \u0e41\u0e1f\u0e04\u0e15\u0e2d\u0e23\u0e35\u0e48", "name:de": "Spaghetti Factory", "name:en": "Spaghetti Factory", "opening_hours": "Mo-Su 11:00-22:00", "smoking": "no", "website": "https://www.spaghetti-factory.com/"}}, {"type": "node", "id": 3332993001, "lat": 13.7841757, "lon": 100.5772414, "tags": {"amenity": "restaurant", "name": "\u0e23\u0e49\u0e32\u0e19\u0e2d\u0e35\u0e2a\u0e32\u0e19\u0e25\u0e21\u0e42\u0e0a\u0e22"}}, {"type": "node", "id": 3431296261, "lat": 13.7653329, "lon": 100.5982674, "tags": {"amenity": "cafe", "brand": "Starbucks", "brand:wikidata": "Q37158", "cuisine": "coffee_shop", "name": "Starbucks", "name:en": "Starbucks", "name:th": "\u0e2a\u0e15\u0e32\u0e23\u0e4c\u0e1a\u0e31\u0e04\u0e2a\u0e4c", "official_name": "Starbucks Coffee", "takeaway": "yes", "website": "www.starbuckscard.in.th"}}, {"type": "node", "id": 3488544760, "lat": 13.7527252, "lon": 100.5706305, "tags": {"amenity": "cafe", "brand": "Starbucks", "brand:wikidata": "Q37158", "cuisine": "coffee_shop", "name": "Starbucks", "name:en": "Starbucks", "official_name": "Starbucks Coffee", "takeaway": "yes", "website": "www.starbuckscard.in.th"}}, {"type": "node", "id": 3712855023, "lat": 13.7950579, "lon": 100.565816, "tags": {"amenity": "restaurant", "name": "Pier 39"}}, {"type": "node", "id": 3717249981, "lat": 13.7869569, "lon": 100.5752, "tags": {"amenity": "cafe", "brand": "Starbucks", "brand:wikidata": "Q37158", "brand:wikipedia": "en:Starbucks", "cuisine": "coffee_shop", "internet_access": "wlan", "internet_access:fee": "no", "name": "Starbucks", "name:en": "Starbucks Coffee", "name:th": "\u0e2a\u0e15\u0e32\u0e23\u0e4c\u0e1a\u0e31\u0e04\u0e2a\u0e4c", "official_name": "Starbucks Coffee", "shop": "coffee", "smoking": "no", "takeaway": "yes", "website": "https://www.starbucks.com/"}}, {"type": "node", "id": 3718445433, "lat": 13.7738816, "lon": 100.5707107, "tags": {"name": "Crystal Resort", "tourism": "hotel"}}, {"type": "node", "id": 3718445436, "lat": 13.7740989, "lon": 100.5698709, "tags": {"name": "Klangkrung Resort", "tourism": "hotel"}}, {"type": "node", "id": 3718445438, "lat": 13.7789938, "lon": 100.575886, "tags": {"email": "gso@my.co.th", "internet_access": "wlan", "name": "My Hotel Ratchada CMYK", "phone": "+6626928899", "tourism": "hotel", "website": "https://www.myhotelratchada.com/"}}, {"type": "node", "id": 3718445439, "lat": 13.7848788, "lon": 100.5691756, "tags": {"amenity": "restaurant", "cuisine": "japanese", "internet_access": "wlan", "internet_access:fee": "no", "name": "Tsuri", "opening_hours": "Mo-Su 10:00-21:00", "wheelchair": "limited"}}, {"type": "node", "id": 3718445440, "lat": 13.7738019, "lon": 100.570981, "tags": {"name": "Ocean Hotel Resort & Spa", "tourism": "hotel"}}, {"type": "node", "id": 3718445441, "lat": 13.7789757, "lon": 100.5763105, "tags": {"name": "Ratchada City Hotel", "tourism": "hotel"}}, {"type": "node", "id": 3718445444, "lat": 13.7731554, "lon": 100.572987, "tags": {"name": "Very Small Hip Suite", "tourism": "guest_house"}}, {"type": "node", "id": 3720176321, "lat": 13.7660269, "lon": 100.5695861, "tags": {"amenity": "cafe", "name": "Black Canyon"}}, {"type": "node", "id": 3720176322, "lat": 13.7664835, "lon": 100.5697196, "tags": {"amenity": "cafe", "name": "Cafe Kaldi"}}, {"type": "node", "id": 3720176323, "lat": 13.7661297, "lon": 100.5696257, "tags": {"amenity": "restaurant", "name": "Fuji"}}, {"type": "node", "id": 3720176325, "lat": 13.766808, "lon": 100.5697916, "tags": {"amenity": "restaurant", "brand": "MK Restaurants", "brand:wikidata": "Q62075359", "cuisine": "thai", "name": "MK Restaurants", "name:en": "MK Restaurants", "operator": "MK Restaurants", "phone": "1642", "website": "https://www.mkrestaurant.com/"}}, {"type": "node", "id": 3720176327, "lat": 13.7659509, "lon": 100.5695305, "tags": {"amenity": "restaurant", "name": "Santa Fe"}}, {"type": "node", "id": 3720176452, "lat": 13.7662515, "lon": 100.5696649, "tags": {"amenity": "cafe", "brand": "Starbucks", "brand:wikidata": "Q37158", "cuisine": "coffee_shop", "internet_access": "wlan", "internet_access:fee": "no", "name": "Starbucks", "name:en": "Starbucks Coffee", "name:th": "\u0e2a\u0e15\u0e32\u0e23\u0e4c\u0e1a\u0e31\u0e04\u0e2a\u0e4c", "official_name": "Starbucks Coffee", "smoking": "no", "takeaway": "yes", "website": "https://www.starbucks.co.th/"}}, {"type": "node", "id": 3723292236, "lat": 13.7869307, "lon": 100.5745893, "tags": {"amenity": "cafe", "name": "Bon Cafe"}}, {"type": "node", "id": 3724152154, "lat": 13.7826282, "lon": 100.5726136, "tags": {"name": "J.N. Dormitory", "tourism": "hostel"}}, {"type": "node", "id": 3724152155, "lat": 13.7792638, "lon": 100.5711482, "tags": {"amenity": "marketplace", "name": "\u0e15\u0e25\u0e32\u0e14\u0e2a\u0e14\u0e40\u0e01\u0e35\u0e22\u0e23\u0e15\u0e34\u0e17\u0e07\u0e0a\u0e31\u0e22", "name:en": "Kiat Thongchai Market", "name:th": "\u0e15\u0e25\u0e32\u0e14\u0e2a\u0e14\u0e40\u0e01\u0e35\u0e22\u0e23\u0e15\u0e34\u0e17\u0e07\u0e0a\u0e31\u0e22"}}, {"type": "node", "id": 3724152158, "lat": 13.7782766, "lon": 100.5722065, "tags": {"name": "The Palazzo", "tourism": "hotel"}}, {"type": "node", "id": 3731340549, "lat": 13.7862548, "lon": 100.5695975, "tags": {"amenity": "cafe", "name": "Policier Cafe"}}, {"type": "node", "id": 3733367230, "lat": 13.7868997, "lon": 100.5749934, "tags": {"amenity": "cafe", "name": "Foony Kam Jai"}}, {"type": "node", "id": 3733367231, "lat": 13.7864853, "lon": 100.5696348, "tags": {"amenity": "cafe", "cuisine": "coffee_shop", "name": "OKAY OKAY CAF\u00c9", "name:en": "OKAY OKAY CAF\u00c9", "name:th": "\u0e42\u0e2d\u0e40\u0e04 \u0e42\u0e2d\u0e40\u0e04 \u0e01\u0e32\u0e41\u0e1f", "opening_hours": "Tu-Fr 08:00-17:00; Sa-Su 09:00-18:00", "takeaway": "yes", "toilets:access": "customers", "wheelchair": "no"}}, {"type": "node", "id": 3733367233, "lat": 13.7857865, "lon": 100.5761408, "tags": {"amenity": "cafe", "name": "Smile Cafe"}}, {"type": "node", "id": 3733367235, "lat": 13.7869193, "lon": 100.5747256, "tags": {"amenity": "cafe", "name": "The White House"}}, {"type": "node", "id": 3736305141, "lat": 13.775941, "lon": 100.5724289, "tags": {"addr:city": "DinDeang, Bangkok", "addr:housenumber": "99/2", "addr:postcode": "10400", "addr:street": "\u0e0b\u0e2d\u0e22\u0e40\u0e19\u0e35\u0e22\u0e21\u0e2d\u0e38\u0e17\u0e34\u0e28", "amenity": "restaurant", "cuisine": "international;shabu_and_grill;beef", "diet:chicken": "yes", "diet:meat": "yes", "diet:pork": "yes", "internet_access": "yes", "internet_access:fee": "no", "name": "Nuea Jam", "phone": "0972439685"}}, {"type": "node", "id": 3753318363, "lat": 13.7862317, "lon": 100.5727444, "tags": {"amenity": "cafe", "internet_access": "wlan", "name": "La Bonne"}}, {"type": "node", "id": 3778950968, "lat": 13.7967591, "lon": 100.5672112, "tags": {"addr:street": "\u0e16\u0e19\u0e19\u0e27\u0e34\u0e20\u0e32\u0e27\u0e14\u0e35\u0e23\u0e31\u0e07\u0e2a\u0e34\u0e15 16", "amenity": "restaurant", "capacity": "50", "cuisine": "chinese", "delivery": "no", "name": "\u0e2d\u0e32\u0e40\u0e25\u0e47\u0e01 \u0e23\u0e32\u0e0a\u0e27\u0e07\u0e28\u0e4c", "takeaway": "yes"}}, {"type": "node", "id": 3778950969, "lat": 13.7971955, "lon": 100.5712007, "tags": {"addr:street": "\u0e16\u0e19\u0e19\u0e27\u0e34\u0e20\u0e32\u0e27\u0e14\u0e35\u0e23\u0e31\u0e07\u0e2a\u0e34\u0e15 16", "amenity": "restaurant", "cuisine": "vietnamese", "name": "\u0e21\u0e38\u0e01\u0e40\u0e27\u0e35\u0e22\u0e14\u0e19\u0e32\u0e21"}}, {"type": "node", "id": 3791825957, "lat": 13.7854449, "lon": 100.5698032, "tags": {"amenity": "cafe", "name": "Wow Cafe"}}, {"type": "node", "id": 3937888884, "lat": 13.7896813, "lon": 100.5656187, "tags": {"amenity": "restaurant", "cuisine": "pizza", "name": "Pizza Hut", "website": "https://www.pizzahutthailand.com/th/"}}, {"type": "node", "id": 3951297886, "lat": 13.785493, "lon": 100.5709112, "tags": {"addr:province": "\u0e01\u0e23\u0e38\u0e07\u0e40\u0e17\u0e1e\u0e21\u0e2b\u0e32\u0e19\u0e04\u0e23", "name": "Ratchada 17 Place", "tourism": "hotel"}}, {"type": "node", "id": 4102210692, "lat": 13.782851, "lon": 100.5745199, "tags": {"addr:street": "\u0e16\u0e19\u0e19\u0e23\u0e31\u0e0a\u0e14\u0e32\u0e20\u0e34\u0e40\u0e29\u0e01", "name": "Life Ratchadapisek", "tourism": "hostel"}}, {"type": "node", "id": 4107052789, "lat": 13.7622381, "lon": 100.5648773, "tags": {"addr:street": "Ratchadapsiek Soi 3", "name": "Blissotel Ratchada", "phone": "02 641 1694", "tourism": "hostel"}}, {"type": "node", "id": 4142153889, "lat": 13.7729867, "lon": 100.5717948, "tags": {"internet_access": "wlan", "name": "Kamin Bird Hostel", "tourism": "hostel"}}, {"type": "node", "id": 4142540091, "lat": 13.7778739, "lon": 100.5732026, "tags": {"addr:city": "\u0e41\u0e02\u0e27\u0e07\u0e2b\u0e49\u0e27\u0e22\u0e02\u0e27\u0e32\u0e07", "addr:housenumber": "167/9-12", "addr:postcode": "10320", "addr:street": "\u0e16\u0e19\u0e19\u0e23\u0e31\u0e0a\u0e14\u0e32\u0e20\u0e34\u0e40\u0e29\u0e01", "amenity": "restaurant", "branch": "Ratchada", "cuisine": "seafood", "name": "\u0e2a\u0e21\u0e1a\u0e39\u0e23\u0e13\u0e4c\u0e42\u0e20\u0e0a\u0e19\u0e32", "name:en": "Somboon Seafood", "name:th": "\u0e2a\u0e21\u0e1a\u0e39\u0e23\u0e13\u0e4c\u0e42\u0e20\u0e0a\u0e19\u0e32", "website": "https://www.somboonseafood.com/index.php/en/ourmenu/index"}}, {"type": "node", "id": 4143897089, "lat": 13.7701826, "lon": 100.5860868, "tags": {"addr:street": "Thanon Pracha Rat Bamphen", "amenity": "restaurant", "cuisine": "thai;seafood", "name": "Laem Charoen"}}, {"type": "node", "id": 4164238992, "lat": 13.773569, "lon": 100.5687828, "tags": {"name": "Baan Kaew Mansion", "tourism": "hotel"}}, {"type": "node", "id": 4164247289, "lat": 13.7708, "lon": 100.5661812, "tags": {"name": "Tia Thai Hostel", "tourism": "hostel"}}, {"type": "node", "id": 4170730489, "lat": 13.7858982, "lon": 100.5514436, "tags": {"addr:housenumber": "85/1", "addr:street": "Inthamara 4", "name": "\u0e28\u0e38\u0e20\u0e23\u0e32\u0e0a \u0e2d\u0e1e\u0e32\u0e17\u0e15\u0e4c\u0e40\u0e21\u0e19\u0e15\u0e4c", "phone": "026166601", "tourism": "guest_house"}}, {"type": "node", "id": 4212325089, "lat": 13.7779083, "lon": 100.5718898, "tags": {"amenity": "restaurant", "name": "Noi Seafood", "phone": "+6626927439"}}, {"type": "node", "id": 4216702489, "lat": 13.7925386, "lon": 100.5921843, "tags": {"tourism": "hostel"}}, {"type": "node", "id": 4242717391, "lat": 13.7729423, "lon": 100.5735708, "tags": {"addr:housenumber": "166/1-6", "addr:street": "\u0e16\u0e19\u0e19\u0e23\u0e31\u0e0a\u0e14\u0e32\u0e20\u0e34\u0e40\u0e29\u0e01", "amenity": "restaurant", "cuisine": "chinese;seafood", "internet_access": "wlan", "name": "Kuang Seafood", "name:ko": "\ucf85\uc528\ud478\ub4dc", "opening_hours": "Mo-Su 11:00-03:00", "phone": "+6626453939"}}, {"type": "node", "id": 4258084889, "lat": 13.7661825, "lon": 100.5693774, "tags": {"addr:street": "\u0e16\u0e19\u0e19\u0e23\u0e31\u0e0a\u0e14\u0e32\u0e20\u0e34\u0e40\u0e29\u0e01", "name": "Art in Paradise (Esplanade Mall)", "name:pl": "muzeum ze zdj\u0119ciami", "tourism": "museum"}}, {"type": "node", "id": 4269438331, "lat": 13.7790255, "lon": 100.5760955, "tags": {"internet_access": "wlan", "name": "My Hotel Ratchada CMYK", "phone": "+6626928899", "tourism": "hotel", "website": "https://www.myhotelratchada.com/"}}, {"type": "node", "id": 4332604191, "lat": 13.7855383, "lon": 100.565965, "tags": {"addr:housenumber": "11", "addr:street": "Inthamara 34", "name": "Arayan \u200bSweet\u200b Suie", "tourism": "hostel"}}, {"type": "node", "id": 4335284236, "lat": 13.761041, "lon": 100.5648785, "tags": {"addr:housenumber": "322/356", "addr:postcode": "10400", "addr:province": "\u0e01\u0e23\u0e38\u0e07\u0e40\u0e17\u0e1e\u0e21\u0e2b\u0e32\u0e19\u0e04\u0e23", "addr:street": "Soi Yu Charoen", "amenity": "restaurant", "capacity": "30", "cuisine": "thai", "name": "Kang Thai - \u0e41\u0e01\u0e07\u0e44\u0e17\u0e22", "name:en": "Kang Thai", "name:th": "\u0e41\u0e01\u0e07\u0e44\u0e17\u0e22", "opening_hours": "Mo-Su 09:30-20:30", "takeaway": "yes", "website": "https://www.facebook.com/kangthaisoi3/"}}, {"type": "node", "id": 4370542690, "lat": 13.7860561, "lon": 100.5694018, "tags": {"name": "bangkok 68", "tourism": "hotel"}}, {"type": "node", "id": 4370546489, "lat": 13.786048, "lon": 100.56944, "tags": {"name": "bangkok 68", "tourism": "hotel"}}, {"type": "node", "id": 4397808933, "lat": 13.7730482, "lon": 100.581903, "tags": {"building": "hotel", "name": "All Together Suite Hotel", "tourism": "hotel"}}, {"type": "node", "id": 4451464391, "lat": 13.7822721, "lon": 100.5665768, "tags": {"addr:street": "Inthamara 44", "internet_access": "wlan", "name:en": "KT Guest House", "phone": "022774035", "tourism": "guest_house", "website": "http://www.ktguesthouse.com"}}, {"type": "node", "id": 4469657689, "lat": 13.7784911, "lon": 100.5669957, "tags": {"amenity": "restaurant", "cuisine": "thai;seafood", "name:en": "Thai & Seafood"}}, {"type": "node", "id": 4484744691, "lat": 13.7972991, "lon": 100.5708028, "tags": {"addr:housenumber": "19", "addr:street": "65/2 Ratchada Soi 19 Road Din Daeng", "internet_access": "wlan", "name": "1989 Hostel & Caf\u00e9", "opening_hours": "24/7", "phone": "0818220411", "tourism": "hotel"}}, {"type": "node", "id": 4485775990, "lat": 13.768793, "lon": 100.574413, "tags": {"internet_access": "wlan", "name": "\u0e2b\u0e49\u0e27\u0e22\u0e02\u0e27\u0e32\u0e07\u0e2a\u0e21\u0e43\u0e08\u0e41\u0e21\u0e19\u0e0a\u0e31\u0e48\u0e19", "name:en": "Popcorn Ratchada Guest House", "tourism": "guest_house"}}, {"type": "node", "id": 4571639195, "lat": 13.7760785, "lon": 100.5817308, "tags": {"addr:housenumber": "73", "addr:postcode": "10310", "addr:street": "\u0e0b\u0e2d\u0e22\u0e1b\u0e23\u0e30\u0e0a\u0e32\u0e23\u0e32\u0e29\u0e0e\u0e23\u0e4c\u0e1a\u0e33\u0e40\u0e1e\u0e47\u0e0d 18", "name": "Wabisabi Huai Khwang", "name:ko": "\uc528\uc554\ub808\uc9c0\ub358\uc2a4", "tourism": "hostel"}}, {"type": "node", "id": 4572366089, "lat": 13.7964348, "lon": 100.5716767, "tags": {"name": "Tanatip Place", "name:th": "Tanatip Place", "tourism": "hotel"}}, {"type": "node", "id": 4577295812, "lat": 13.7883058, "lon": 100.5747725, "tags": {"contact:email": "doubleddhouse@gmail.com", "contact:phone": "+66 2 275 3258", "description": "elevator available; coffee free", "internet_access": "wlan", "internet_access:fee": "no", "name": "Double DD house", "operator": "Nook Parichaya", "smoking": "no", "stars": "3", "tourism": "hotel", "website": "https://www.doubleddhouse.com/"}}, {"type": "node", "id": 4577342177, "lat": 13.7875327, "lon": 100.5754149, "tags": {"breakfast": "yes", "contact:email": "sidarebnb@gmail.com", "contact:facebook": "Sidare BedandBreakfast", "contact:mobile": "+66 98 269 6151", "contact:phone": "+66 2 277 2876", "name": "SidaRe - Bed&Breakfast", "tourism": "guest_house"}}, {"type": "node", "id": 4578541240, "lat": 13.7791409, "lon": 100.5732972, "tags": {"breakfast": "no", "contact:email": "theparkresidence@hotmail.co.th", "contact:fax": "+66 2 692 5996", "contact:phone": "+66 2692 5999", "internet_access": "wlan", "internet_access:fee": "no", "name": "The Park Residence", "tourism": "hotel", "website": "http://www.theparkresidencebangkok.com/"}}, {"type": "node", "id": 4578761718, "lat": 13.7870401, "lon": 100.5767823, "tags": {"contact:email": "spbparadise@yahoo.co.th", "contact:fax": "+66 2 694 3263", "contact:phone": "+66 2 694 3262", "internet_access": "yes", "internet_access:fee": "no", "name": "SPB Paradise", "source": "survey", "source:date": "2016-12-28", "tourism": "hotel", "website": "https://spbparadise.com/home.html"}}, {"type": "node", "id": 4578761722, "lat": 13.7872661, "lon": 100.5767849, "tags": {"contact:email": "booking@diamond-ratchada.in.th", "contact:fax": "+662 693 0076", "contact:phone": "+662 693 0077", "internet_access": "wlan", "internet_access:fee": "no", "name": "Diamond Residence Ratchada", "tourism": "hotel", "website": "http://www.diamond-ratchada.in.th/index.html"}}, {"type": "node", "id": 4606349891, "lat": 13.7713268, "lon": 100.5602571, "tags": {"amenity": "restaurant", "name:en": "Mangkorn seafood", "name:zh": "\u9f8d\u6d77\u9bae"}}, {"type": "node", "id": 4606349892, "lat": 13.7694705, "lon": 100.5892654, "tags": {"amenity": "restaurant", "name:zh": "\u6cf0\u570b\u725b\u96dc\u934b"}}, {"type": "node", "id": 4611602728, "lat": 13.7871999, "lon": 100.5761094, "tags": {"name": "SidaRe - Bed&Breakfast - house 2", "tourism": "guest_house"}}, {"type": "node", "id": 4688630621, "lat": 13.78887, "lon": 100.5749255, "tags": {"amenity": "restaurant", "cuisine": "thai"}}, {"type": "node", "id": 4688643102, "lat": 13.7871325, "lon": 100.5736843, "tags": {"amenity": "cafe", "name": "Korean Dessert Cafe", "opening_hours": "Mo-Fr 08:00-01:00; Sa,Su 09:00-01:00", "source": "survey", "source:date": "2017-02-12"}}, {"type": "node", "id": 4688654582, "lat": 13.7863992, "lon": 100.5736206, "tags": {"amenity": "restaurant", "source": "survey", "source:de": "2017-02-16"}}, {"type": "node", "id": 4704576790, "lat": 13.7556792, "lon": 100.5734272, "tags": {"tourism": "hotel"}}, {"type": "node", "id": 4715288892, "lat": 13.7885588, "lon": 100.5908076, "tags": {"addr:street": "\u0e25\u0e32\u0e14\u0e1e\u0e23\u0e49\u0e32\u0e27 64 \u0e41\u0e22\u0e01 4", "name": "Grace Apartments", "name:en": "Grace Apartments", "tourism": "apartment"}}, {"type": "node", "id": 4760002021, "lat": 13.7849194, "lon": 100.5671356, "tags": {"name:en": "Buddy Place", "tourism": "hotel", "wheelchair": "yes"}}, {"type": "node", "id": 4773155321, "lat": 13.7780605, "lon": 100.5714244, "tags": {"name:vi": "market in bangkok", "tourism": "artwork"}}, {"type": "node", "id": 4775117734, "lat": 13.7854714, "lon": 100.5516512, "tags": {"name": "Jekky's Homestay", "tourism": "guest_house"}}, {"type": "node", "id": 4783958222, "lat": 13.7614194, "lon": 100.5553047, "tags": {"name:zh": "\u5c0f\u65c5\u9986", "tourism": "guest_house"}}, {"type": "node", "id": 4783959924, "lat": 13.7723717, "lon": 100.5866421, "tags": {"amenity": "restaurant", "name:en": "Maldives Pub and Restaurant", "name:zh": "289\ud83d\udc37\u6d77\u81ea\u52a9"}}, {"type": "node", "id": 4801754122, "lat": 13.7782677, "lon": 100.5731802, "tags": {"name:en": "Huai Kwang night market", "tourism": "attraction"}}, {"type": "node", "id": 4805059822, "lat": 13.7854102, "lon": 100.5773779, "tags": {"name:zh": "\u91d1\u4e1c\u5c3c\u4eba\u5996\u79c0", "tourism": "attraction"}}, {"type": "node", "id": 4831306823, "lat": 13.783225, "lon": 100.5727024, "tags": {"internet_access": "wlan", "name:en": "Paradise Mansion", "phone": "+66 86 392 9666", "tourism": "hotel"}}, {"type": "node", "id": 5004184622, "lat": 13.7823008, "lon": 100.5748948, "tags": {"name:en": "flower decoration shop (Firstlove)", "tourism": "artwork"}}, {"type": "node", "id": 5036922521, "lat": 13.799155, "lon": 100.551367, "tags": {"addr:street": "Soi 51", "amenity": "restaurant", "name:en": "Drum Stick Duck"}}, {"type": "node", "id": 5114659621, "lat": 13.799638, "lon": 100.5691143, "tags": {"addr:postcode": "10900", "amenity": "restaurant", "diet:vegan": "yes", "diet:vegetarian": "yes", "name": "The Vegetarian Cottage"}}, {"type": "node", "id": 5204227523, "lat": 13.756723, "lon": 100.5637718, "tags": {"amenity": "cafe", "cuisine": "asian;noodles;beef_bowl;fish_and_chips;thai", "name:en": "Granpa's TRANS AERO cafe", "name:ru": "\u0423 \u0414\u0435\u0434\u0430 \u0422\u0420\u0410\u041d\u0421\u0410\u042d\u0420\u041e"}}, {"type": "node", "id": 5215611021, "lat": 13.7888945, "lon": 100.5515004, "tags": {"amenity": "restaurant", "name": "Pinto Siam", "name:en": "Pinto Siam", "opening_hours": "Fr-We 11:00-23:00"}}, {"type": "node", "id": 5236076121, "lat": 13.7724992, "lon": 100.583541, "tags": {"addr:postcode": "10310", "name:en": "Lumpini", "tourism": "apartment"}}, {"type": "node", "id": 5236076122, "lat": 13.7724017, "lon": 100.583896, "tags": {"addr:postcode": "10310", "addr:street": "Prachauthit Road", "name:en": "Lumpini", "name:ko": "\ub8f8\ud53c\ub2c8", "tourism": "apartment"}}, {"type": "node", "id": 5262943721, "lat": 13.7957773, "lon": 100.57413, "tags": {"name:en": "Chaophaya Park Hotel", "tourism": "hotel"}}, {"type": "node", "id": 5272997522, "lat": 13.7522384, "lon": 100.5737806, "tags": {"name:en": "oasis outdoor arena", "tourism": "attraction"}}, {"type": "node", "id": 5304041925, "lat": 13.7816386, "lon": 100.5510854, "tags": {"amenity": "restaurant", "name": "Jamie's Burgers"}}, {"type": "node", "id": 5305799421, "lat": 13.7500584, "lon": 100.5787893, "tags": {"name": "Lucky place", "name:en": "Floor 3 12345 building b", "tourism": "apartment"}}, {"type": "node", "id": 5306769321, "lat": 13.7500469, "lon": 100.5766124, "tags": {"name": "Bkkmenu", "tourism": "apartment"}}, {"type": "node", "id": 5354297821, "lat": 13.7894999, "lon": 100.5824017, "tags": {"amenity": "cafe", "cuisine": "thai", "internet_access": "wlan", "name:en": "Base on cloud"}}, {"type": "node", "id": 5375320521, "lat": 13.7566434, "lon": 100.5654597, "tags": {"amenity": "restaurant", "name:en": "Salad Ville", "opening_hours": "Mo-Su 08:00-20:00"}}, {"type": "node", "id": 5375460323, "lat": 13.7581699, "lon": 100.5649999, "tags": {"amenity": "cafe", "name:en": "Almighty Healthy Juice", "wheelchair": "yes"}}, {"type": "node", "id": 5382340445, "lat": 13.7640393, "lon": 100.5723345, "tags": {"amenity": "cafe", "demolished": "yes", "name": "Rabika Coffee"}}, {"type": "node", "id": 5391546722, "lat": 13.7889385, "lon": 100.5747526, "tags": {"addr:housenumber": "32/1", "addr:street": "\u0e0b\u0e2d\u0e22\u0e2d\u0e38\u0e14\u0e21\u0e2a\u0e38\u0e02", "amenity": "cafe", "name:en": "Halo Koffee"}}, {"type": "node", "id": 5419946821, "lat": 13.7599423, "lon": 100.5701217, "tags": {"amenity": "restaurant", "name": "\u0e40\u0e2a\u0e27\u0e22", "name:en": "Savoey Thai Food", "name:th": "\u0e40\u0e2a\u0e27\u0e22"}}, {"type": "node", "id": 5466324421, "lat": 13.7906199, "lon": 100.5854922, "tags": {"addr:housenumber": "292/1", "addr:street": "\u0e16\u0e19\u0e19\u0e2a\u0e38\u0e17\u0e18\u0e34\u0e2a\u0e32\u0e23\u0e27\u0e34\u0e19\u0e34\u0e08\u0e09\u0e31\u0e22", "name": "\u0e1a\u0e49\u0e32\u0e19\u0e1a\u0e32\u0e2a \u0e01\u0e17\u0e21", "operator": "\u0e1a\u0e32\u0e2a", "tourism": "hostel"}}, {"type": "node", "id": 5499284015, "lat": 13.7838542, "lon": 100.5687285, "tags": {"name": "Glass on the road", "tourism": "artwork"}}, {"type": "node", "id": 5499284016, "lat": 13.7837448, "lon": 100.5686829, "tags": {"name": "Robot Steel", "tourism": "artwork"}}, {"type": "node", "id": 5499284017, "lat": 13.7838053, "lon": 100.5685417, "tags": {"amenity": "restaurant", "name": "Best Resident Restaurant"}}, {"type": "node", "id": 5585692022, "lat": 13.7992368, "lon": 100.5513923, "tags": {"amenity": "cafe", "name:en": "Liebe Cafe"}}, {"type": "node", "id": 5601948324, "lat": 13.7524998, "lon": 100.5762051, "tags": {"name:en": "Lumpini Park Rama 9 - Ratchada", "tourism": "apartment"}}, {"type": "node", "id": 5603128339, "lat": 13.754762, "lon": 100.576113, "tags": {"name:en": "Maxx Hotel", "tourism": "attraction"}}, {"type": "node", "id": 5621047224, "lat": 13.7884616, "lon": 100.5749133, "tags": {"amenity": "cafe", "name:en": "Green August"}}, {"type": "node", "id": 5634199521, "lat": 13.7845655, "lon": 100.5735515, "tags": {"amenity": "restaurant", "diet:vegan": "yes", "name:en": "I Food", "phone": "+66 2 691 5083", "website": "https://www.spa-foods.com"}}, {"type": "node", "id": 5636863621, "lat": 13.7997937, "lon": 100.5509062, "tags": {"amenity": "restaurant", "name:de": "Leckeres Essen"}}, {"type": "node", "id": 5725116021, "lat": 13.7733311, "lon": 100.5665455, "tags": {"name": "Om Lis Home", "tourism": "apartment"}}, {"type": "node", "id": 5725356422, "lat": 13.7722333, "lon": 100.5662139, "tags": {"name": "Om Lis home", "tourism": "apartment"}}, {"type": "node", "id": 5758212521, "lat": 13.798723, "lon": 100.5789823, "tags": {"name": "\u0e08\u0e34\u0e25\u0e34\u0e14\u0e14\u0e32\u0e40\u0e1e\u0e25\u0e2a", "tourism": "camp_site"}}, {"type": "node", "id": 5887280685, "lat": 13.757866, "lon": 100.5641988, "tags": {"name": "Centric", "tourism": "hotel"}}, {"type": "node", "id": 5963235887, "lat": 13.7770464, "lon": 100.5797673, "tags": {"amenity": "cafe", "cuisine": "coffee_shop;breakfast;tea", "internet_access": "wlan", "name:en": "Crown Caf\u00e8", "opening_hours": "Mo-Sa 09:00-18:00"}}, {"type": "node", "id": 6019165086, "lat": 13.7553131, "lon": 100.5717805, "tags": {"amenity": "restaurant", "name:en": "King Kong Yakiniku Buffet", "opening_hours": "Mo-Su 11:00-11:00"}}, {"type": "node", "id": 6019165087, "lat": 13.7552276, "lon": 100.5715252, "tags": {"amenity": "restaurant", "name:en": "Shibuya Shabu", "opening_hours": "Mo-Su 11:00-23:00"}}, {"type": "node", "id": 6071972285, "lat": 13.7978649, "lon": 100.5736896, "tags": {"amenity": "cafe", "name:en": "Banana English"}}, {"type": "node", "id": 6113512794, "lat": 13.7611726, "lon": 100.5590071, "tags": {"amenity": "restaurant", "name": "CHEMCHOM"}}, {"type": "node", "id": 6142506085, "lat": 13.7673846, "lon": 100.5716181, "tags": {"amenity": "cafe", "name": "Future Cafe and Restaurant", "opening_hours": "Mo-Su 07:00-03:00"}}, {"type": "node", "id": 6163744221, "lat": 13.7940877, "lon": 100.5972933, "tags": {"name:en": "Papaya Design", "tourism": "artwork"}}, {"type": "node", "id": 6280953777, "lat": 13.7596423, "lon": 100.5695099, "tags": {"amenity": "restaurant", "changing_table": "no", "cuisine": "italian", "internet_access": "no", "level": "0", "name": "Bliss", "opening_hours": "Mo-Su 11:30-14:00,17:30-22:00", "smoking": "no", "toilets": "yes", "toilets:access": "customers", "toilets:wheelchair": "no"}}, {"type": "node", "id": 6337609689, "lat": 13.7679677, "lon": 100.5684786, "tags": {"amenity": "restaurant", "cuisine": "asian", "name": "pad Thai place", "name:en": "Pad Thai place"}}, {"type": "node", "id": 6438560685, "lat": 13.780376, "lon": 100.5826949, "tags": {"name": "\u0e1e\u0e35\u0e40\u0e04", "tourism": "apartment"}}, {"type": "node", "id": 6565967786, "lat": 13.7897517, "lon": 100.572083, "tags": {"amenity": "cafe", "internet_access": "wlan"}}, {"type": "node", "id": 6805673110, "lat": 13.7508779, "lon": 100.5596902, "tags": {"addr:housenumber": "1579/50", "addr:street": "Petchaburi Road", "name": "Makkasan Happy Home", "phone": "+66 63 493 5391", "tourism": "hostel"}}, {"type": "node", "id": 6813989687, "lat": 13.7724003, "lon": 100.578471, "tags": {"amenity": "restaurant", "cuisine": "thai", "name": "\u0e04\u0e23\u0e31\u0e27\u0e2b\u0e25\u0e31\u0e07\u0e2a\u0e27\u0e19", "name:en": "Krua Lung San", "name:th": "\u0e04\u0e23\u0e31\u0e27\u0e2b\u0e25\u0e31\u0e07\u0e2a\u0e27\u0e19"}}, {"type": "node", "id": 7076748585, "lat": 13.7981817, "lon": 100.5500376, "tags": {"name:en": "Insect vendor", "tourism": "artwork"}}, {"type": "node", "id": 7085685185, "lat": 13.7537885, "lon": 100.5707931, "tags": {"amenity": "restaurant", "diet:vegetarian": "yes", "name:en": "anotai"}}, {"type": "node", "id": 7176662585, "lat": 13.7717122, "lon": 100.5822115, "tags": {"amenity": "cafe", "contact:whatsapp": "+66-83-234-5966", "cuisine": "Juice; Coffee; Desserts", "fixme": "Add Thai name in name tag", "internet_access": "no", "level": "0", "name": "Coconut Bar", "name:en": "Coconut Bar", "takeaway": "yes", "wheelchair": "limited"}}, {"type": "node", "id": 7178945790, "lat": 13.7739588, "lon": 100.5811856, "tags": {"name:en": "Siam Privi", "tourism": "hotel"}}, {"type": "node", "id": 7299066786, "lat": 13.7611252, "lon": 100.565283, "tags": {"name:en": "Food street", "tourism": "attraction"}}, {"type": "node", "id": 7307476187, "lat": 13.7579295, "lon": 100.5649294, "tags": {"amenity": "cafe", "brand": "Starbucks", "brand:wikidata": "Q37158", "cuisine": "coffee_shop", "name": "Starbucks", "name:en": "Starbucks", "official_name": "Starbucks Coffee", "takeaway": "yes", "wheelchair": "yes"}}, {"type": "node", "id": 7412967748, "lat": 13.7817512, "lon": 100.5833793, "tags": {"addr:city": "\u0e2b\u0e49\u0e27\u0e22\u0e02\u0e27\u0e32\u0e07", "addr:housenumber": "2118 \u0e0b\u0e2d\u0e22 20 \u0e21\u0e34\u0e16\u0e38\u0e19\u0e32 \u0e41\u0e22\u0e01 21", "addr:postcode": "10310", "addr:street": "Pracha Rat Bamphen 13", "amenity": "cafe", "internet_access": "wlan", "name": "Flow Coffee Roasters", "opening_hours": "Mo-Su 09:00-17:00"}}, {"type": "node", "id": 7476784890, "lat": 13.7808409, "lon": 100.5836829, "tags": {"amenity": "restaurant", "cuisine": "thai"}}, {"type": "node", "id": 7677211685, "lat": 13.7669172, "lon": 100.569326, "tags": {"name:ko": "\ub538\ub78f \ub86f\ud30c\uc7742 \ubdf0\ud3ec\uc778\ud2b8", "tourism": "viewpoint"}}, {"type": "node", "id": 7731089671, "lat": 13.7770021, "lon": 100.5760827, "tags": {"amenity": "restaurant", "cuisine": "chinese;hot_pot", "name": "Eight Bean Hot Pot"}}, {"type": "node", "id": 7836459885, "lat": 13.7895479, "lon": 100.561745, "tags": {"name": "\u0e08\u0e38\u0e14\u0e08\u0e2d\u0e14\u0e23\u0e16\u0e1e\u0e22\u0e32\u0e1a\u0e32\u0e25", "name:en": "Ambulance point", "tourism": "information"}}, {"type": "node", "id": 7836461985, "lat": 13.7860853, "lon": 100.5669134, "tags": {"name": "\u0e08\u0e38\u0e14\u0e08\u0e2d\u0e14\u0e23\u0e16\u0e1e\u0e22\u0e32\u0e1a\u0e32\u0e25", "name:en": "Ambulance point", "tourism": "information"}}, {"type": "node", "id": 9190059817, "lat": 13.7718428, "lon": 100.5815021, "tags": {"amenity": "cafe", "name": "\u0e1e\u0e35\u0e48\u0e1b\u0e49\u0e32\u0e07\u0e19\u0e49\u0e33\u0e1b\u0e31\u0e48\u0e19"}}, {"type": "node", "id": 9470176817, "lat": 13.7579485, "lon": 100.5663843, "tags": {"addr:street": "\u0e16\u0e19\u0e19\u0e23\u0e31\u0e0a\u0e14\u0e32\u0e20\u0e34\u0e40\u0e29\u0e01", "amenity": "restaurant", "brand": "Haidilao Hot Pot", "brand:en": "Haidilao Hot Pot", "brand:wikidata": "Q5638920", "brand:zh": "\u6d77\u5e95\u635e\u706b\u9505", "cuisine": "chinese;hot_pot", "name": "Haidilao Hot Pot", "name:en": "Haidilao Hot Pot", "name:zh": "\u6d77\u5e95\u635e\u706b\u9505", "opening_hours": "Mo-Fr 11:00-20:00; Sa-Su 10:00-20:00", "phone": "+66 2-029-1775"}}, {"type": "node", "id": 9576933778, "lat": 13.7756603, "lon": 100.5738874, "tags": {"air_conditioning": "yes", "amenity": "cafe", "cuisine": "coffee_shop", "internet_access": "no", "level": "0", "name": "Marsi;Mikka", "outdoor_seating": "yes", "shop": "beauty", "stroller": "yes", "takeaway": "yes", "wheelchair": "limited"}}, {"type": "node", "id": 9598681775, "lat": 13.7512023, "lon": 100.5572146, "tags": {"brand": "Mercure", "brand:wikidata": "Q1709809", "brand:wikipedia": "en:Mercure (hotel)", "name": "\u0e42\u0e23\u0e07\u0e41\u0e23\u0e21\u0e40\u0e21\u0e2d\u0e23\u0e4c\u0e40\u0e04\u0e35\u0e22\u0e27 \u0e01\u0e23\u0e38\u0e07\u0e40\u0e17\u0e1e \u0e21\u0e31\u0e01\u0e01\u0e30\u0e2a\u0e31\u0e19", "name:en": "Mercure Bangkok Makkasan", "name:th": "\u0e42\u0e23\u0e07\u0e41\u0e23\u0e21\u0e40\u0e21\u0e2d\u0e23\u0e4c\u0e40\u0e04\u0e35\u0e22\u0e27 \u0e01\u0e23\u0e38\u0e07\u0e40\u0e17\u0e1e \u0e21\u0e31\u0e01\u0e01\u0e30\u0e2a\u0e31\u0e19", "tourism": "hotel"}}, {"type": "node", "id": 9599005744, "lat": 13.7704317, "lon": 100.5724622, "tags": {"addr:housenumber": "139", "addr:postcode": "10400", "addr:street": "Ratchadapisek Road", "alt_name": "Starbucks THE STREET", "amenity": "cafe", "brand": "Starbucks", "brand:wikidata": "Q37158", "brand:wikipedia": "en:Starbucks", "check_date:opening_hours": "2022-11-21", "cuisine": "coffee_shop", "level": "1", "name": "Starbucks", "official_name": "Starbucks Coffee", "opening_hours:signed": "no", "takeaway": "yes"}}, {"type": "node", "id": 9627926743, "lat": 13.7563407, "lon": 100.5586822, "tags": {"name": "HI Residence", "tourism": "apartment"}}, {"type": "node", "id": 9667217217, "lat": 13.7850853, "lon": 100.5759154, "tags": {"name:en": "Rest Ratchada Hotel", "tourism": "hotel"}}, {"type": "node", "id": 9709409517, "lat": 13.758156, "lon": 100.5659424, "tags": {"amenity": "cafe", "name:en": "Jones Salad", "opening_hours": "Mo-Su 10:00-22:00"}}, {"type": "node", "id": 9721084217, "lat": 13.7984393, "lon": 100.5959685, "tags": {"name:en": "Indy market Chokchai4", "tourism": "attraction"}}, {"type": "node", "id": 9728534329, "lat": 13.7904371, "lon": 100.5770205, "tags": {"addr:city": "\u0e41\u0e02\u0e27\u0e07\u0e2a\u0e32\u0e21\u0e40\u0e2a\u0e19\u0e19\u0e2d\u0e01", "addr:housenumber": "15", "addr:street": "\u0e0b\u0e2d\u0e22\u0e2a\u0e1a\u0e32\u0e22\u0e43\u0e08", "amenity": "restaurant", "cuisine": "thai", "name": "\u0e40\u0e23\u0e37\u0e2d\u0e19\u0e08\u0e31\u0e19\u0e17\u0e23\u0e4c\u0e41\u0e2b\u0e25\u0e48\u0e21", "opening_hours": "Mo-Su 10:00-20:30", "phone": "+66917269653"}}, {"type": "node", "id": 9728534330, "lat": 13.7940649, "lon": 100.5794699, "tags": {"addr:city": "\u0e41\u0e02\u0e27\u0e07\u0e2a\u0e32\u0e21\u0e40\u0e2a\u0e19\u0e19\u0e2d\u0e01", "addr:housenumber": "330", "addr:postcode": "10310", "addr:street": "\u0e0b\u0e2d\u0e22\u0e2a\u0e1a\u0e32\u0e22\u0e43\u0e08 \u0e41\u0e22\u0e01 13", "amenity": "cafe", "delivery": "yes", "name": "MITTA X SABAIJAI", "opening_hours": "Mo-Su 09:00-17:00", "outdoor_seating": "yes", "phone": "+66988749922", "takeaway": "yes"}}, {"type": "node", "id": 9759642617, "lat": 13.791997, "lon": 100.5509899, "tags": {"addr:street": "\u0e2a\u0e38\u0e17\u0e18\u0e34\u0e2a\u0e32\u0e23 3", "amenity": "restaurant", "cuisine": "thai", "name": "\u0e2a\u0e21\u0e43\u0e08 \u0e02\u0e32\u0e2b\u0e21\u0e39", "name:en": "Somjai Braised Pork Leg", "opening_hours": "Mo-Su 07:00-15:00", "website": "https://www.wongnai.com/"}}, {"type": "node", "id": 9796821583, "lat": 13.7662703, "lon": 100.5695268, "tags": {"amenity": "restaurant", "cuisine": "sushi", "name": "Maguro"}}, {"type": "node", "id": 9796826982, "lat": 13.7911388, "lon": 100.5778564, "tags": {"addr:city": "\u0e41\u0e02\u0e27\u0e07\u0e2a\u0e32\u0e21\u0e40\u0e2a\u0e19\u0e19\u0e2d\u0e01", "addr:housenumber": "104", "addr:postcode": "10310", "addr:street": "\u0e0b\u0e2d\u0e22\u0e2a\u0e1a\u0e32\u0e22\u0e43\u0e08 \u0e41\u0e22\u0e01 3", "amenity": "cafe", "name": "\u0e15\u0e37\u0e48\u0e19 Tuen Home Cafe", "opening_hours": "Mo-Su 07:00-21:00", "outdoor_seating": "no"}}, {"type": "node", "id": 9801821495, "lat": 13.7594829, "lon": 100.5664448, "tags": {"amenity": "restaurant", "cuisine": "sushi", "name": "Sushiro"}}, {"type": "node", "id": 9939583421, "lat": 13.7897301, "lon": 100.5784245, "tags": {"name": "\u0e15\u0e49\u0e19\u0e2d\u0e49\u0e2d\u0e40\u0e1e\u0e25\u0e2a", "tourism": "hotel"}}, {"type": "node", "id": 9965314117, "lat": 13.7564976, "lon": 100.5655304, "tags": {"addr:postcode": "10310", "amenity": "cafe", "level": "0", "name": "Fruit Farm", "phone": "0847597272"}}, {"type": "node", "id": 10079584217, "lat": 13.7784936, "lon": 100.5806609, "tags": {"addr:street": "475/1 Soi 20 Mithuna, \u0e2b\u0e49\u0e27\u0e22\u0e02\u0e27\u0e32\u0e07 Huai Khwang, Bangkok 10310\u6cf0\u56fd", "name:zh": "\u534e\u5f69\u9152\u5e97Colors service apartment", "opening_hours": "24/7", "phone": "+66 84 911 1598", "tourism": "apartment"}}, {"type": "node", "id": 10221021517, "lat": 13.7685254, "lon": 100.5742636, "tags": {"name": "mango 10 house", "tourism": "hotel"}}, {"type": "node", "id": 10245741816, "lat": 13.7814848, "lon": 100.576703, "tags": {"addr:housenumber": "283", "addr:postcode": "10310", "addr:street": "Ratchadapisek Road", "internet_access": "wlan", "name:en": "HOOT Hostel & Ratchada", "tourism": "hotel"}}, {"type": "node", "id": 10269045648, "lat": 13.797619, "lon": 100.5722143, "tags": {"addr:city": "\u0e41\u0e02\u0e27\u0e07\u0e14\u0e34\u0e19\u0e41\u0e14\u0e07", "addr:housenumber": "81", "addr:postcode": "10400", "addr:street": "\u0e0b\u0e2d\u0e22\u0e27\u0e34\u0e20\u0e32\u0e27\u0e14\u0e35\u0e23\u0e31\u0e07\u0e2a\u0e34\u0e15 16/35 ( MRt \u0e23\u0e31\u0e0a\u0e14\u0e32 19)", "amenity": "restaurant", "cuisine": "burger;chicken", "delivery": "yes", "diet:chicken": "yes", "diet:local": "yes", "internet_access": "yes", "name": "\u0e01\u0e4b\u0e27\u0e22\u0e40\u0e15\u0e35\u0e4b\u0e4b\u0e22\u0e27\u0e25\u0e32\u0e1a\u0e40\u0e21\u0e37\u0e2d\u0e07 \u0e01\u0e23\u0e38\u0e07\u0e40\u0e17\u0e1e\u0e21\u0e2b\u0e32\u0e19\u0e04\u0e23 Kuaytiew LaapMueng", "name:en": "Kuaytiew LaapMueng Krungthep Mahanakorn", "name:th": "\u0e01\u0e4b\u0e27\u0e22\u0e40\u0e15\u0e35\u0e4b\u0e4b\u0e22\u0e27\u0e25\u0e32\u0e1a\u0e40\u0e21\u0e37\u0e2d\u0e07 \u0e2a\u0e32\u0e02\u0e32\u0e01\u0e23\u0e38\u0e07\u0e40\u0e17\u0e1e\u0e21\u0e2b\u0e32\u0e19\u0e04\u0e23", "opening_hours": "Mo-Su 09:30-20:00", "parking_space": "normal", "phone": "0861166990", "website": "https://www.facebook.com/profile.php?id=100088014952848&mibextid=LQQJ4d"}}, {"type": "node", "id": 10654123596, "lat": 13.7964679, "lon": 100.5642469, "tags": {"amenity": "cafe", "cuisine": "coffee_shop", "name": "UCC K2", "website": "https://www.ucck2.co.th"}}, {"type": "node", "id": 10687784780, "lat": 13.7897703, "lon": 100.5747594, "tags": {"addr:city": "\u0e41\u0e02\u0e27\u0e07\u0e2a\u0e32\u0e21\u0e40\u0e2a\u0e19\u0e19\u0e2d\u0e01", "addr:postcode": "10310", "addr:street": "\u0e16\u0e19\u0e19\u0e2a\u0e38\u0e17\u0e18\u0e34\u0e2a\u0e32\u0e23\u0e27\u0e34\u0e19\u0e34\u0e08\u0e09\u0e31\u0e22", "amenity": "restaurant", "cuisine": "sushi;japanese;izakaya", "name": "Hinata", "opening_hours": "Mo-Su 11:30-23:30", "phone": "065-059-9658"}}, {"type": "node", "id": 10696114205, "lat": 13.7894999, "lon": 100.5529677, "tags": {"addr:street": "\u0e0b\u0e2d\u0e22\u0e2d\u0e34\u0e19\u0e17\u0e32\u0e21\u0e23\u0e30 5", "name": "Pilow&bread", "name:en": "Pillow&bread", "tourism": "hotel"}}, {"type": "node", "id": 10711501400, "lat": 13.7979075, "lon": 100.5752053, "tags": {"addr:housenumber": "44-45", "addr:postcode": "10310", "addr:province": "\u0e01\u0e23\u0e38\u0e07\u0e40\u0e17\u0e1e\u0e21\u0e2b\u0e32\u0e19\u0e04\u0e23", "addr:street": "Ratchadapisek", "air_conditioning": "yes", "amenity": "cafe", "bar": "yes", "cuisine": "coffee_shop;international", "delivery": "yes", "internet_access": "wlan", "internet_access:fee": "yes", "name": "Lively Machine Ratchadapisek 24", "opening_hours": "Mo-Su 07:00-17:00", "phone": "+66 615962494", "takeaway": "yes", "website": "www.instagram.com/lively.machine"}}, {"type": "node", "id": 10727329026, "lat": 13.7896778, "lon": 100.5734214, "tags": {"amenity": "restaurant", "cuisine": "japanese", "name": "Tora"}}, {"type": "node", "id": 10738831114, "lat": 13.7799864, "lon": 100.5733212, "tags": {"amenity": "cafe", "brand": "Luckin Coffee", "brand:wikidata": "Q56811344", "cuisine": "coffee_shop", "name": "Luckin Coffee", "takeaway": "yes"}}, {"type": "node", "id": 10747639214, "lat": 13.7873686, "lon": 100.5754864, "tags": {"amenity": "cafe", "name": "Deed Coffee", "opening_hours": "Mo-Fr 06:30-17:00; Sa-Su 08:00-17:00", "outdoor_seating": "yes", "takeaway": "yes", "wheelchair": "no"}}, {"type": "node", "id": 10747643910, "lat": 13.7865083, "lon": 100.570927, "tags": {"amenity": "cafe", "cuisine": "coffee_shop", "internet_access": "wlan", "internet_access:fee": "no", "name": "Sunrise Home", "opening_hours": "Tu-Th 08:00-17:00; Sa-Su 09:00-18:00; Mo,Fr closed", "takeaway": "yes", "wheelchair": "no"}}, {"type": "node", "id": 10750002883, "lat": 13.7700421, "lon": 100.5726439, "tags": {"amenity": "marketplace", "name": "The Street Ratchada Night Market", "opening_hours": "Mo-Su 17:00-23:00", "wheelchair": "limited"}}, {"type": "node", "id": 10760932405, "lat": 13.7591017, "lon": 100.5662114, "tags": {"amenity": "cafe", "name:en": "Boost"}}, {"type": "node", "id": 10770036935, "lat": 13.7899793, "lon": 100.5751119, "tags": {"addr:housenumber": "6", "addr:street": "\u0e0b\u0e2d\u0e22\u0e23\u0e38\u0e48\u0e07\u0e40\u0e23\u0e37\u0e2d\u0e07", "amenity": "cafe", "cuisine": "coffee_shop", "name": "Caf\u00e9 Milieu", "opening_hours": "Mo-Fr 07:30-17:00; Sa-Su 10:00-17:00", "outdoor_seating": "yes", "takeaway": "yes", "wheelchair": "no"}}, {"type": "node", "id": 10781607604, "lat": 13.7863526, "lon": 100.5707632, "tags": {"addr:street": "\u0e23\u0e31\u0e0a\u0e14\u0e32\u0e20\u0e34\u0e40\u0e29\u0e01 17", "amenity": "restaurant", "cuisine": "thai", "name": "\u0e01\u0e4b\u0e27\u0e22\u0e40\u0e15\u0e35\u0e4b\u0e22\u0e27\u0e44\u0e01\u0e48\u0e15\u0e38\u0e4b\u0e19", "name:en": "Stewed Chicken Noodles", "opening_hours": "Mo-Su 10:00-24:00", "takeaway": "yes", "wheelchair": "limited"}}, {"type": "node", "id": 10783470734, "lat": 13.7865393, "lon": 100.5705051, "tags": {"addr:housenumber": "101", "addr:street": "\u0e23\u0e31\u0e0a\u0e14\u0e32\u0e20\u0e34\u0e40\u0e29\u0e01 17", "amenity": "restaurant", "cuisine": "sushi", "name": "Salmon Room", "takeaway": "yes", "wheelchair": "limited"}}, {"type": "node", "id": 10787122084, "lat": 13.7895592, "lon": 100.5747365, "tags": {"addr:housenumber": "10310", "addr:street": "\u0e16\u0e19\u0e19\u0e2a\u0e38\u0e17\u0e18\u0e34\u0e2a\u0e32\u0e23\u0e27\u0e34\u0e19\u0e34\u0e08\u0e09\u0e31\u0e22", "amenity": "restaurant", "cuisine": "thai", "name": "\u0e02\u0e32\u0e2b\u0e21\u0e39\u0e23\u0e31\u0e0a\u0e14\u0e32", "name:en": "Pork Knuckle Ratchada", "opening_hours": "Mo-Su 08:00-14:30,17:00-24:00", "takeaway": "yes", "wheelchair": "limited"}}, {"type": "node", "id": 10789487793, "lat": 13.7899924, "lon": 100.5744055, "tags": {"addr:housenumber": "302", "addr:street": "\u0e16\u0e19\u0e19\u0e23\u0e31\u0e0a\u0e14\u0e32\u0e20\u0e34\u0e40\u0e29\u0e01", "amenity": "cafe", "internet_access": "wlan", "internet_access:fee": "no", "name": "Cabbages & Condoms", "outdoor_seating": "yes", "takeaway": "yes", "toilets:access": "customers", "toilets:wheelchair": "no", "wheelchair": "no"}}, {"type": "node", "id": 10795103102, "lat": 13.7844232, "lon": 100.5672271, "tags": {"addr:street": "\u0e0b\u0e2d\u0e22\u0e2d\u0e34\u0e19\u0e17\u0e32\u0e21\u0e23\u0e30 49", "amenity": "restaurant", "cuisine": "thai", "name": "\u0e40\u0e15\u0e35\u0e4b\u0e22\u0e27\u0e40\u0e23\u0e37\u0e2d\u0e22\u0e38\u0e14\u0e22\u0e32", "name:en": "Boat Noodles", "outdoor_seating": "yes", "takeaway": "yes", "wheelchair": "no"}}, {"type": "node", "id": 10807391649, "lat": 13.7701954, "lon": 100.5719359, "tags": {"addr:housenumber": "139", "addr:street": "\u0e16\u0e19\u0e19\u0e23\u0e31\u0e0a\u0e14\u0e32\u0e20\u0e34\u0e40\u0e29\u0e01", "amenity": "restaurant", "cuisine": "ramen", "delivery": "yes", "level": "-1", "name": "\u0e23\u0e32\u0e40\u0e21\u0e07\u0e02\u0e49\u0e2d\u0e2a\u0e2d\u0e1a", "name:en": "A Ramen", "opening_hours": "24/7", "takeaway": "yes", "wheelchair": "limited"}}, {"type": "node", "id": 10820817735, "lat": 13.7784966, "lon": 100.5707555, "tags": {"amenity": "restaurant", "cuisine": "thai", "name": "\u0e1c\u0e31\u0e14\u0e44\u0e17\u0e22\u0e42\u0e1a\u0e23\u0e32\u0e13\u0e1b\u0e23\u0e30\u0e15\u0e39\u0e2a\u0e27\u0e23\u0e23\u0e04\u0e4c", "name:en": "Pad Thai Boran Pratu Sawan", "opening_hours": "Mo-Su 18:30-04:00", "takeaway": "yes", "wheelchair": "limited"}}, {"type": "node", "id": 10821174190, "lat": 13.7860504, "lon": 100.5706198, "tags": {"addr:housenumber": "368", "addr:street": "\u0e23\u0e31\u0e0a\u0e14\u0e32\u0e20\u0e34\u0e40\u0e29\u0e01 17", "amenity": "restaurant", "cuisine": "thai", "name": "Kao Soi Thengthrong", "takeaway": "yes"}}, {"type": "node", "id": 10826342057, "lat": 13.7973101, "lon": 100.5715875, "tags": {"addr:housenumber": "174", "addr:street": "\u0e0b\u0e2d\u0e22\u0e27\u0e34\u0e20\u0e32\u0e27\u0e14\u0e35\u0e23\u0e31\u0e07\u0e2a\u0e34\u0e15 16", "amenity": "cafe", "name": "mama caf\u00e9", "opening_hours": "Mo-Fr 07:30-18:30; Sa-Su 09:00-18:30", "takeaway": "yes"}}, {"type": "node", "id": 10844216120, "lat": 13.7738143, "lon": 100.5601538, "tags": {"amenity": "restaurant"}}, {"type": "node", "id": 10845293418, "lat": 13.7854082, "lon": 100.5701099, "tags": {"addr:housenumber": "108", "addr:street": "\u0e0b\u0e2d\u0e22\u0e2d\u0e34\u0e19\u0e17\u0e32\u0e21\u0e23\u0e30 47", "amenity": "restaurant", "cuisine": "thai", "name": "\u0e1a\u0e49\u0e32\u0e19\u0e43\u0e2b\u0e0d\u0e48\u0e1c\u0e31\u0e14\u0e44\u0e17\u0e40\u0e15\u0e32\u0e16\u0e48\u0e32\u0e19", "name:en": "Baan Yai Pad Thai", "opening_hours": "Mo-Sa 10:30-17:00", "takeaway": "yes"}}, {"type": "node", "id": 11285381669, "lat": 13.7986544, "lon": 100.5954744, "tags": {"amenity": "cafe", "cuisine": "coffee_shop;thai", "name:en": "Wake Up", "opening_hours": "Mo-Fr 09:00-20:00; Sa-Su 09:00-21:00"}}, {"type": "node", "id": 11323014773, "lat": 13.7749385, "lon": 100.5747213, "tags": {"internet_access": "wlan", "name": "Praso @ Ratchada12", "stars": "4", "tourism": "hotel"}}, {"type": "node", "id": 11359506069, "lat": 13.7547772, "lon": 100.5660518, "tags": {"addr:street": "Soi Lert keaw 2", "name": "x9 Hostel", "name:en": "x9 Hostel", "tourism": "hostel"}}, {"type": "node", "id": 11379070246, "lat": 13.7600143, "lon": 100.5699495, "tags": {"addr:postcode": "10310", "addr:province": "\u0e01\u0e23\u0e38\u0e07\u0e40\u0e17\u0e1e\u0e21\u0e2b\u0e32\u0e19\u0e04\u0e23", "addr:street": "Belle, Rama IX Rd, Khwaeng Huai Khwang, Khet Huai Khwang", "amenity": "restaurant", "cuisine": "chinese", "diet:meat": "yes", "diet:seafood": "yes", "name": "\u0e2a\u0e38\u0e02\u0e35 \u0e2b\u0e21\u0e32\u0e25\u0e48\u0e32", "name:en": "Sukee Mala Hotpot", "name:th": "\u0e2a\u0e38\u0e02\u0e35 \u0e2b\u0e21\u0e32\u0e25\u0e48\u0e32", "opening_hours": "Mo-Su 17:00-22:00", "phone": "062 419 7575", "website": "https://www.facebook.com"}}, {"type": "node", "id": 11558272317, "lat": 13.7981423, "lon": 100.5651746, "tags": {"internet_access": "yes", "name": "Siamplaengna Residence", "rooms": "77", "stars": "3", "tourism": "hotel", "wheelchair": "yes"}}, {"type": "node", "id": 11601827459, "lat": 13.7696172, "lon": 100.5827712, "tags": {"addr:postcode": "10310", "addr:street": "\u0e1b\u0e23\u0e30\u0e0a\u0e32\u0e2d\u0e38\u0e17\u0e34\u0e28 24", "air_conditioning": "yes", "alt_name": "Bann Moek", "alt_name:en": "Bann Moek", "fixme": "Add Thai name in the name tag", "internet_access": "wlan", "internet_access:fee": "customers", "name": "Mok Mek 72", "name:en": "Mok Mek 72", "tourism": "hotel"}}, {"type": "node", "id": 11602514518, "lat": 13.7725863, "lon": 100.5781347, "tags": {"amenity": "restaurant", "level": "0;1", "name": "Hometown", "wheelchair": "no"}}, {"type": "node", "id": 11607152639, "lat": 13.7785647, "lon": 100.5750058, "tags": {"amenity": "cafe", "check_date": "2024-02-12", "cuisine": "Coffee", "name": "Oasis Coffee", "opening_hours": "24/7", "wheelchair": "yes"}}, {"type": "node", "id": 11607932135, "lat": 13.7780797, "lon": 100.5777788, "tags": {"amenity": "cafe", "brand": "Mixue", "brand:en": "MIXUEBINGCHENG", "brand:wikidata": "Q107406476", "brand:wikipedia": "zh:\u871c\u96ea\u51b0\u57ce", "brand:zh": "\u871c\u96ea\u51b0\u57ce", "cuisine": "ice_cream;bubble_tea", "level": "0", "name": "Mixue", "name:en": "Mixue", "name:zh": "\u871c\u96ea\u51b0\u57ce", "takeaway": "yes", "wheelchair": "no"}}, {"type": "node", "id": 11612978619, "lat": 13.7719892, "lon": 100.5799554, "tags": {"amenity": "cafe", "brand": "Starbucks", "cuisine": "coffee_shop", "name": "Starbucks", "name:en": "Starbucks", "official_name": "Starbucks Coffee", "takeaway": "yes"}}, {"type": "node", "id": 11613350142, "lat": 13.7662233, "lon": 100.5684606, "tags": {"amenity": "restaurant", "cuisine": "indian", "level": "0", "name": "Indian Food", "wheelchair": "yes"}}, {"type": "node", "id": 11664370493, "lat": 13.7916884, "lon": 100.5527336, "tags": {"name": "The Iconic Hotel Ari - Jatujak", "name:zh": "\u963f\u91cc\u5f62\u8c61- \u7532\u90fd\u60f9\u9152\u5e97", "phone": "+66 20022942", "tourism": "hotel"}}, {"type": "node", "id": 11765093469, "lat": 13.7823392, "lon": 100.5664077, "tags": {"name:en": "KT guest house new building", "tourism": "guest_house"}}, {"type": "node", "id": 11801445668, "lat": 13.7975831, "lon": 100.5727029, "tags": {"addr:city": "\u0e41\u0e02\u0e27\u0e07\u0e23\u0e31\u0e0a\u0e14\u0e32\u0e20\u0e34\u0e40\u0e29\u0e01", "addr:housenumber": "188", "addr:postcode": "10400", "addr:street": "\u0e0b\u0e2d\u0e22\u0e27\u0e34\u0e20\u0e32\u0e27\u0e14\u0e35\u0e23\u0e31\u0e07\u0e2a\u0e34\u0e15 16/28", "amenity": "cafe", "check_date": "2025-03-02", "check_date:currency:XBT": "2025-03-19", "contact:instagram": "do.drip", "cuisine": "coffee_shop", "currency:XBT": "yes", "internet_access": "no", "name": "do drip coffee", "opening_hours": "We-Su 07:30-17:00", "outdoor_seating": "yes", "payment:lightning": "yes", "payment:lightning_contactless": "no", "payment:onchain": "no", "phone": "0891257299"}}, {"type": "node", "id": 11902730648, "lat": 13.7623456, "lon": 100.5656593, "tags": {"amenity": "restaurant", "description": "Vietnam food (Pho, bun...) and coffee (delicious salty coffee)", "name": "Viet Cafe and restaurant"}}, {"type": "node", "id": 12210708407, "lat": 13.7899076, "lon": 100.5622975, "tags": {"addr:district": "\u0e14\u0e34\u0e19\u0e41\u0e14\u0e07", "addr:postcode": "10400", "addr:province": "\u0e01\u0e23\u0e38\u0e07\u0e40\u0e17\u0e1e\u0e21\u0e2b\u0e32\u0e19\u0e04\u0e23", "addr:street": "\u0e0b\u0e2d\u0e22\u0e27\u0e34\u0e20\u0e32\u0e27\u0e14\u0e35\u0e23\u0e31\u0e07\u0e2a\u0e34\u0e15 10", "addr:subdistrict": "\u0e23\u0e31\u0e0a\u0e14\u0e32\u0e20\u0e34\u0e40\u0e29\u0e01", "amenity": "marketplace", "building": "detached", "currency:THB": "yes", "email": "boltring99@gmail.com", "name": "BoltRing - BoltKey", "name:en": "BoltRing - BoltKey", "payment:lightning": "yes", "payment:onchain": "yes", "survey:date": "2024-09-30", "website": "https://geyser.fund/project/boltring"}}, {"type": "node", "id": 12211872342, "lat": 13.7556813, "lon": 100.5645361, "tags": {"amenity": "cafe", "branch": "Ashton Asoke-Rama9", "brand": "Starbucks", "brand:wikidata": "Q37158", "cuisine": "coffee_shop", "name": "Starbucks", "official_name": "Starbucks Coffee", "takeaway": "yes"}}, {"type": "node", "id": 12214064093, "lat": 13.7699363, "lon": 100.5555965, "tags": {"artwork_type": "statue", "name": "\u0e1e\u0e23\u0e30\u0e2d\u0e34\u0e19\u0e17\u0e23\u0e4c\u0e17\u0e23\u0e07\u0e0a\u0e49\u0e32\u0e07\u0e40\u0e2d\u0e23\u0e32\u0e27\u0e31\u0e13", "name:th": "\u0e1e\u0e23\u0e30\u0e2d\u0e34\u0e19\u0e17\u0e23\u0e4c\u0e17\u0e23\u0e07\u0e0a\u0e49\u0e32\u0e07\u0e40\u0e2d\u0e23\u0e32\u0e27\u0e31\u0e13", "tourism": "artwork"}}, {"type": "node", "id": 12234551433, "lat": 13.7632998, "lon": 100.5505291, "tags": {"artwork_type": "statue", "tourism": "artwork"}}, {"type": "node", "id": 12234551434, "lat": 13.7633678, "lon": 100.5504621, "tags": {"artwork_type": "statue", "tourism": "artwork"}}, {"type": "node", "id": 12234551435, "lat": 13.7632673, "lon": 100.5506295, "tags": {"artwork_type": "statue", "tourism": "artwork"}}, {"type": "node", "id": 12252372044, "lat": 13.7758471, "lon": 100.5701153, "tags": {"historic": "wayside_shrine"}}, {"type": "node", "id": 12272836748, "lat": 13.7621103, "lon": 100.5562055, "tags": {"amenity": "restaurant", "cuisine": "barbecue", "name": "\u0e2b\u0e21\u0e39\u0e1b\u0e34\u0e49\u0e07\u0e19\u0e32\u0e22\u0e40\u0e1b\u0e49"}}, {"type": "node", "id": 12272995563, "lat": 13.7629054, "lon": 100.5561349, "tags": {"historic": "wayside_shrine"}}, {"type": "node", "id": 12285478098, "lat": 13.7665012, "lon": 100.5539221, "tags": {"historic": "wayside_shrine"}}, {"type": "node", "id": 12285486774, "lat": 13.7629496, "lon": 100.5583137, "tags": {"historic": "wayside_shrine"}}, {"type": "node", "id": 12285546421, "lat": 13.7628923, "lon": 100.558007, "tags": {"amenity": "cafe"}}, {"type": "node", "id": 12300888001, "lat": 13.7826297, "lon": 100.56467, "tags": {"amenity": "restaurant", "name": "Ha yen naam soa", "outdoor_seating": "no"}}, {"type": "node", "id": 12311435969, "lat": 13.7614063, "lon": 100.5580418, "tags": {"amenity": "cafe", "cuisine": "bubble_tea", "name": "owl"}}, {"type": "node", "id": 12311435971, "lat": 13.7614005, "lon": 100.5580717, "tags": {"amenity": "cafe", "cuisine": "bubble_tea", "name": "\u0e0a\u0e2d\u0e1a\u0e0a\u0e32"}}, {"type": "node", "id": 12311435972, "lat": 13.761399, "lon": 100.5581025, "tags": {"amenity": "restaurant", "name": "\u0e02\u0e49\u0e32\u0e27\u0e02\u0e32\u0e2b\u0e21\u0e39\u0e2a\u0e38\u0e17\u0e18\u0e34\u0e1e\u0e23", "name:th": "\u0e02\u0e49\u0e32\u0e27\u0e02\u0e32\u0e2b\u0e21\u0e39\u0e2a\u0e38\u0e17\u0e18\u0e34\u0e1e\u0e23"}}, {"type": "node", "id": 12311435973, "lat": 13.7613833, "lon": 100.5581202, "tags": {"amenity": "restaurant", "cuisine": "sushi", "name": "\u0e0b\u0e39\u0e0a\u0e34\u0e1a\u0e32\u0e07\u0e01\u0e2d\u0e01"}}, {"type": "node", "id": 12311479735, "lat": 13.7606367, "lon": 100.5582697, "tags": {"historic": "wayside_shrine"}}, {"type": "node", "id": 12311479744, "lat": 13.7601187, "lon": 100.5581354, "tags": {"historic": "wayside_shrine"}}, {"type": "node", "id": 12311479816, "lat": 13.7593574, "lon": 100.5579187, "tags": {"historic": "wayside_shrine"}}, {"type": "node", "id": 12311479817, "lat": 13.7593206, "lon": 100.5578949, "tags": {"historic": "wayside_shrine"}}, {"type": "node", "id": 12311479876, "lat": 13.7587301, "lon": 100.5577259, "tags": {"historic": "wayside_shrine"}}, {"type": "node", "id": 12311813929, "lat": 13.7612833, "lon": 100.558788, "tags": {"amenity": "cafe", "brand": "\u0e04\u0e32\u0e40\u0e1f\u0e48 \u0e2d\u0e40\u0e21\u0e0b\u0e2d\u0e19", "brand:en": "Caf\u00e9 Amazon", "brand:th": "\u0e04\u0e32\u0e40\u0e1f\u0e48 \u0e2d\u0e40\u0e21\u0e0b\u0e2d\u0e19", "brand:wikidata": "Q43247503", "cuisine": "coffee_shop", "name": "\u0e04\u0e32\u0e40\u0e1f\u0e48 \u0e2d\u0e40\u0e21\u0e0b\u0e2d\u0e19", "name:en": "Caf\u00e9 Amazon", "name:th": "\u0e04\u0e32\u0e40\u0e1f\u0e48 \u0e2d\u0e40\u0e21\u0e0b\u0e2d\u0e19", "takeaway": "yes"}}, {"type": "node", "id": 12311813930, "lat": 13.7613373, "lon": 100.5585369, "tags": {"historic": "wayside_shrine", "religion": "hindu"}}, {"type": "node", "id": 12311846763, "lat": 13.7592457, "lon": 100.5591121, "tags": {"historic": "wayside_shrine"}}, {"type": "node", "id": 12312081410, "lat": 13.7573134, "lon": 100.5536529, "tags": {"historic": "wayside_shrine"}}, {"type": "node", "id": 12312081434, "lat": 13.7579142, "lon": 100.5538757, "tags": {"historic": "wayside_shrine"}}, {"type": "node", "id": 12312081453, "lat": 13.7584798, "lon": 100.5541458, "tags": {"historic": "wayside_shrine"}}, {"type": "node", "id": 12323312633, "lat": 13.7582104, "lon": 100.5576567, "tags": {"historic": "wayside_shrine"}}, {"type": "node", "id": 12323467453, "lat": 13.7668664, "lon": 100.5744972, "tags": {"artwork_type": "sculpture", "tourism": "artwork"}}, {"type": "node", "id": 12323560850, "lat": 13.7679612, "lon": 100.5730899, "tags": {"artwork_type": "sculpture", "tourism": "artwork"}}, {"type": "node", "id": 12323560851, "lat": 13.7679955, "lon": 100.5730437, "tags": {"artwork_type": "sculpture", "tourism": "artwork"}}, {"type": "node", "id": 12323560852, "lat": 13.7680241, "lon": 100.5730824, "tags": {"artwork_type": "sculpture", "tourism": "artwork"}}, {"type": "node", "id": 12328270574, "lat": 13.7606056, "lon": 100.5575087, "tags": {"historic": "wayside_shrine", "religion": "hindu"}}, {"type": "node", "id": 12328270575, "lat": 13.7605838, "lon": 100.5575024, "tags": {"historic": "wayside_shrine"}}, {"type": "node", "id": 12343316413, "lat": 13.7555859, "lon": 100.5835592, "tags": {"addr:district": "\u0e2b\u0e49\u0e27\u0e22\u0e02\u0e27\u0e32\u0e07", "addr:housenumber": "395/1063", "addr:postcode": "10310", "addr:province": "\u0e01\u0e23\u0e38\u0e07\u0e40\u0e17\u0e1e\u0e21\u0e2b\u0e32\u0e19\u0e04\u0e23", "addr:street": "\u0e16\u0e19\u0e19\u0e1e\u0e23\u0e30\u0e23\u0e32\u0e21 9", "addr:subdistrict": "\u0e1a\u0e32\u0e07\u0e01\u0e30\u0e1b\u0e34", "bar": "yes", "brand": "Banyan Group", "contact:facebook": "https://www.facebook.com/cassiarama9bangkok", "email": "reservations-rama9@cassiarama9bangkok.com", "internet_access": "wlan", "internet_access:fee": "no", "name": "Cassia Rama 9 Bangkok Hotel", "name:th": "\u0e41\u0e04\u0e2a\u0e40\u0e0b\u0e35\u0e22 \u0e1e\u0e23\u0e30\u0e23\u0e32\u0e21 9 \u0e01\u0e23\u0e38\u0e07\u0e40\u0e17\u0e1e\u0e2f", "opening_hours": "24/7", "payment:cash": "yes", "payment:credit_cards": "yes", "payment:mastercard": "yes", "payment:visa": "yes", "phone": "+662-716-5999", "reservation": "yes", "rooms": "248", "tourism": "hotel", "website": "https://www.cassia.com/thailand/cassia-rama-9-bangkok"}}, {"type": "node", "id": 12344265773, "lat": 13.7587265, "lon": 100.5696996, "tags": {"historic": "wayside_shrine"}}, {"type": "node", "id": 12394023813, "lat": 13.7572392, "lon": 100.5692493, "tags": {"historic": "wayside_shrine"}}, {"type": "node", "id": 12394023863, "lat": 13.7571425, "lon": 100.5696854, "tags": {"historic": "wayside_shrine"}}, {"type": "node", "id": 12394048753, "lat": 13.7575507, "lon": 100.5696, "tags": {"historic": "wayside_shrine"}}, {"type": "node", "id": 12394048783, "lat": 13.7567809, "lon": 100.5701306, "tags": {"amenity": "restaurant", "cuisine": "chinese", "name": "\u0e2d\u0e32\u0e01\u0e32\u0e40\u0e27\u0e48", "name:th": "\u0e2d\u0e32\u0e01\u0e32\u0e40\u0e27\u0e48"}}, {"type": "node", "id": 12394055707, "lat": 13.7565014, "lon": 100.5700674, "tags": {"addr:district": "\u0e2b\u0e49\u0e27\u0e22\u0e02\u0e27\u0e32\u0e07", "addr:housenumber": "61/120", "addr:postcode": "10320", "addr:province": "\u0e01\u0e23\u0e38\u0e07\u0e40\u0e17\u0e1e\u0e21\u0e2b\u0e32\u0e19\u0e04\u0e23", "addr:street": "\u0e0b\u0e2d\u0e22\u0e17\u0e27\u0e35\u0e21\u0e34\u0e15\u0e23 1", "addr:subdistrict": "\u0e2b\u0e49\u0e27\u0e22\u0e02\u0e27\u0e32\u0e07", "amenity": "cafe", "name": "Pressed Cafe", "name:th": "Pressed Cafe"}}, {"type": "node", "id": 12394163128, "lat": 13.7586189, "lon": 100.5676419, "tags": {"amenity": "cafe", "brand": "Starbucks", "brand:wikidata": "Q37158", "cuisine": "coffee_shop", "name": "Starbucks", "official_name": "Starbucks Coffee", "takeaway": "yes"}}, {"type": "node", "id": 12394163160, "lat": 13.7586082, "lon": 100.5673859, "tags": {"historic": "wayside_shrine"}}, {"type": "node", "id": 12416098102, "lat": 13.7712028, "lon": 100.5603363, "tags": {"internet_access": "wlan", "name:en": "The Key Point Hotel", "tourism": "hotel"}}, {"type": "node", "id": 12435292201, "lat": 13.7974274, "lon": 100.5635186, "tags": {"historic": "wayside_shrine"}}, {"type": "node", "id": 12435321401, "lat": 13.7966379, "lon": 100.5654743, "tags": {"amenity": "cafe", "name": "\u0e04\u0e32\u0e40\u0e1f\u0e48 \u0e2d\u0e40\u0e21\u0e0b\u0e2d\u0e19", "name:en": "Cafe Amazon", "name:he": "\u05e7\u05e4\u05d4 \u05d0\u05de\u05d6\u05d5\u05df", "opening_hours": "Mo-Su 07:00-17:00"}}, {"type": "node", "id": 12435321601, "lat": 13.7966079, "lon": 100.5659267, "tags": {"amenity": "cafe", "name:en": "Vidro cake & coffee"}}, {"type": "node", "id": 12435321801, "lat": 13.7966713, "lon": 100.5671494, "tags": {"amenity": "cafe", "name": "See you latte", "opening_hours": "Tu-Su 11:00-18:00"}}, {"type": "node", "id": 12435616501, "lat": 13.7969948, "lon": 100.5696952, "tags": {"amenity": "restaurant", "name:en": "Fire Chilli"}}, {"type": "node", "id": 12435616502, "lat": 13.7971861, "lon": 100.5705423, "tags": {"amenity": "cafe", "name": "Punthai Coffee", "opening_hours": "Mo-Su 07:00-19:00"}}, {"type": "node", "id": 12435616801, "lat": 13.7970544, "lon": 100.5701491, "tags": {"historic": "wayside_shrine"}}, {"type": "node", "id": 12444384119, "lat": 13.7885891, "lon": 100.5911488, "tags": {"addr:district": "\u0e27\u0e31\u0e07\u0e17\u0e2d\u0e07\u0e2b\u0e25\u0e32\u0e07", "addr:housenumber": "221", "addr:postcode": "10310", "addr:province": "\u0e01\u0e23\u0e38\u0e07\u0e40\u0e17\u0e1e\u0e21\u0e2b\u0e32\u0e19\u0e04\u0e23", "addr:street": "\u0e0b\u0e2d\u0e22\u0e25\u0e32\u0e14\u0e1e\u0e23\u0e49\u0e32\u0e27 64 \u0e41\u0e22\u0e01 4", "addr:subdistrict": "\u0e27\u0e31\u0e07\u0e17\u0e2d\u0e07\u0e2b\u0e25\u0e32\u0e07", "name": "\u0e1a\u0e49\u0e32\u0e19\u0e2a\u0e27\u0e19\u0e23\u0e31\u0e0a\u0e14\u0e32 \u0e40\u0e23\u0e2a\u0e0b\u0e34\u0e40\u0e14\u0e19\u0e17\u0e4c", "name:en": "Baansuanratchada Resident", "name:th": "\u0e1a\u0e49\u0e32\u0e19\u0e2a\u0e27\u0e19\u0e23\u0e31\u0e0a\u0e14\u0e32 \u0e40\u0e23\u0e2a\u0e0b\u0e34\u0e40\u0e14\u0e19\u0e17\u0e4c", "rooms": "55", "tourism": "apartment"}}, {"type": "node", "id": 12444385888, "lat": 13.7888169, "lon": 100.5911136, "tags": {"addr:district": "\u0e27\u0e31\u0e07\u0e17\u0e2d\u0e07\u0e2b\u0e25\u0e32\u0e07", "addr:housenumber": "215", "addr:postcode": "10310", "addr:province": "\u0e01\u0e23\u0e38\u0e07\u0e40\u0e17\u0e1e\u0e21\u0e2b\u0e32\u0e19\u0e04\u0e23", "addr:street": "\u0e0b\u0e2d\u0e22\u0e25\u0e32\u0e14\u0e1e\u0e23\u0e49\u0e32\u0e27 64 \u0e41\u0e22\u0e01 4", "addr:subdistrict": "\u0e27\u0e31\u0e07\u0e17\u0e2d\u0e07\u0e2b\u0e25\u0e32\u0e07", "amenity": "cafe", "bar": "no", "cuisine": "cafe;teahouse;japanese", "internet_access": "yes", "internet_access:fee": "no", "name": "SHINJI Matcha & Dojo", "opening_hours": "8.00-17.00"}}, {"type": "node", "id": 12468511002, "lat": 13.7971831, "lon": 100.5741478, "tags": {"addr:housenumber": "255/19", "addr:postcode": "10320", "addr:street": "\u0e16\u0e19\u0e19\u0e23\u0e31\u0e0a\u0e14\u0e32\u0e20\u0e34\u0e40\u0e29\u0e01", "air_conditioning": "yes", "contact:facebook": "100092204273967", "internet_access": "wlan", "internet_access:fee": "customers", "name": "The Travellers Hotel", "opening_hours": "24/7", "phone": "+66 2 693 9040;+66 88 167 2888", "self_service": "no", "smoking": "no", "tourism": "hotel"}}, {"type": "node", "id": 12468581501, "lat": 13.7977331, "lon": 100.5739276, "tags": {"amenity": "restaurant", "cuisine": "noodles;thai", "name": "\u0e01\u0e4b\u0e27\u0e22\u0e40\u0e15\u0e35\u0e4b\u0e22\u0e27\u0e40\u0e23\u0e37\u0e2d\u0e40\u0e21\u0e37\u0e2d\u0e07\u0e2a\u0e22\u0e32\u0e21", "opening_hours": "Mo-Su 10:30-22:30"}}, {"type": "node", "id": 12470642701, "lat": 13.797259, "lon": 100.5741351, "tags": {"amenity": "cafe", "cuisine": "coffee_shop;tea", "internet_access": "wlan", "name": "Lin's Coffee", "opening_hours": "Mo-Su 07:00-22:00"}}, {"type": "node", "id": 12479806701, "lat": 13.7899521, "lon": 100.571908, "tags": {"amenity": "cafe", "cuisine": "thai", "internet_access": "wlan", "name:en": "Smile Coffee"}}, {"type": "node", "id": 12500816401, "lat": 13.7709023, "lon": 100.5695702, "tags": {"name:en": "Hoenhao Boutique Hotel Ratchada", "tourism": "hotel"}}, {"type": "node", "id": 12522368802, "lat": 13.797956, "lon": 100.5716967, "tags": {"name": "Baan Tanwa", "opening_hours": "24/7", "tourism": "hotel"}}, {"type": "node", "id": 12592657102, "lat": 13.7889726, "lon": 100.5529433, "tags": {"amenity": "restaurant", "cuisine": "chinese", "name": "\u0e04\u0e19\u0e0a\u0e07 \u0e04\u0e19\u0e1b\u0e23\u0e38\u0e07", "name:en": "Konchong  Kongprung", "name:th": "\u0e04\u0e19\u0e0a\u0e07 \u0e04\u0e19\u0e1b\u0e23\u0e38\u0e07"}}, {"type": "node", "id": 12593251102, "lat": 13.7779548, "lon": 100.5804265, "tags": {"amenity": "restaurant", "cuisine": "thai", "name": "\u0e23\u0e49\u0e32\u0e19\u0e01\u0e4b\u0e27\u0e22\u0e40\u0e15\u0e35\u0e4b\u0e22\u0e27\u0e40\u0e23\u0e37\u0e2d\u0e17\u0e2d\u0e07\u0e23\u0e27\u0e22"}}, {"type": "node", "id": 12593251103, "lat": 13.7778413, "lon": 100.5838556, "tags": {"addr:housenumber": "633", "addr:postcode": "10310", "addr:street": "\u0e16\u0e19\u0e19\u0e1b\u0e23\u0e30\u0e0a\u0e32\u0e23\u0e32\u0e29\u0e0e\u0e23\u0e4c\u0e1a\u0e33\u0e40\u0e1e\u0e47\u0e0d", "amenity": "restaurant", "cuisine": "thai", "name": "\u0e40\u0e1b\u0e25\u0e27 \u0e01\u0e4b\u0e27\u0e22\u0e40\u0e15\u0e35\u0e4b\u0e22\u0e27\u0e15\u0e49\u0e21\u0e22\u0e33\u0e42\u0e1a\u0e23\u0e32\u0e13\u0e19\u0e04\u0e23\u0e1b\u0e10\u0e21", "name:en": "Plaew Nakhon Pathom (Tomyum Noodles)"}}, {"type": "node", "id": 12593274101, "lat": 13.7692256, "lon": 100.5891498, "tags": {"addr:housenumber": "800-804", "addr:postcode": "10310", "addr:street": "\u0e16\u0e19\u0e19\u0e1b\u0e23\u0e30\u0e0a\u0e32\u0e2d\u0e38\u0e17\u0e34\u0e28", "amenity": "restaurant", "cuisine": "thai", "name": "\u0e02\u0e32\u0e2b\u0e21\u0e39 \u0e40\u0e2b\u0e21\u0e48\u0e07\u0e08\u0e4b\u0e32\u0e22", "name:en": "Meng Jai Pork Knuckle"}}, {"type": "node", "id": 12593285601, "lat": 13.7710372, "lon": 100.5849455, "tags": {"amenity": "restaurant", "name": "\u0e19\u0e32\u0e17\u0e2d\u0e07 \u0e40\u0e17\u0e2d\u0e40\u0e23\u0e2a \u0e1a\u0e32\u0e23\u0e4c \u0e41\u0e2d\u0e19\u0e14\u0e4c \u0e40\u0e23\u0e2a\u0e40\u0e15\u0e2d\u0e23\u0e2d\u0e07\u0e04\u0e4c", "name:en": "Nathong Terrace Bar and Restaurant"}}, {"type": "node", "id": 12593290701, "lat": 13.7774983, "lon": 100.5821097, "tags": {"amenity": "restaurant", "cuisine": "thai", "name": "\u0e41\u0e0b\u0e48\u0e1a\u0e27\u0e31\u0e19", "name:en": "Zabb one Prchyaratbamphen", "name:th": "\u0e41\u0e0b\u0e48\u0e1a\u0e27\u0e31\u0e19"}}, {"type": "node", "id": 12608778101, "lat": 13.7586243, "lon": 100.5643964, "tags": {"name": "\u0e1e\u0e32\u0e42\u0e0b\u0e48 \u0e40\u0e23\u0e2a\u0e0b\u0e34\u0e40\u0e14\u0e49\u0e19\u0e0b\u0e4c", "name:en": "Praso Residence Ratchada", "tourism": "hotel"}}, {"type": "node", "id": 12615298230, "lat": 13.7767176, "lon": 100.5558029, "tags": {"artwork_type": "statue", "name": "\u0e2d\u0e19\u0e38\u0e40\u0e2a\u0e32\u0e27\u0e23\u0e35\u0e22\u0e4c\u0e17\u0e48\u0e32\u0e19\u0e40\u0e08\u0e49\u0e32\u0e1e\u0e23\u0e30\u0e22\u0e32\u0e2f", "name:th": "\u0e2d\u0e19\u0e38\u0e40\u0e2a\u0e32\u0e27\u0e23\u0e35\u0e22\u0e4c\u0e17\u0e48\u0e32\u0e19\u0e40\u0e08\u0e49\u0e32\u0e1e\u0e23\u0e30\u0e22\u0e32\u0e2f", "tourism": "artwork"}}, {"type": "node", "id": 12615350236, "lat": 13.7776743, "lon": 100.5565194, "tags": {"artwork_type": "statue", "tourism": "artwork"}}, {"type": "node", "id": 12617717966, "lat": 13.7786368, "lon": 100.5567811, "tags": {"amenity": "cafe", "cuisine": "bubble_tea"}}, {"type": "node", "id": 12617717995, "lat": 13.7747873, "lon": 100.5567859, "tags": {"historic": "wayside_shrine"}}, {"type": "node", "id": 12617730208, "lat": 13.7748434, "lon": 100.5566075, "tags": {"amenity": "restaurant", "name": "Born To Dine"}}, {"type": "node", "id": 12617730226, "lat": 13.7742923, "lon": 100.556552, "tags": {"historic": "wayside_shrine"}}, {"type": "node", "id": 12617730236, "lat": 13.7740505, "lon": 100.5564243, "tags": {"historic": "wayside_shrine"}}, {"type": "node", "id": 12617730278, "lat": 13.7734445, "lon": 100.5561506, "tags": {"historic": "wayside_shrine"}}, {"type": "node", "id": 12617730279, "lat": 13.7734291, "lon": 100.556144, "tags": {"historic": "wayside_shrine"}}, {"type": "node", "id": 12617730284, "lat": 13.7733171, "lon": 100.5560968, "tags": {"historic": "wayside_shrine"}}, {"type": "node", "id": 12617730302, "lat": 13.7731929, "lon": 100.5560382, "tags": {"historic": "wayside_shrine"}}, {"type": "node", "id": 12617730352, "lat": 13.7741854, "lon": 100.5565861, "tags": {"historic": "wayside_shrine"}}, {"type": "node", "id": 12617730365, "lat": 13.773843, "lon": 100.5564332, "tags": {"historic": "wayside_shrine"}}, {"type": "node", "id": 12617730470, "lat": 13.773761, "lon": 100.5568918, "tags": {"historic": "wayside_shrine"}}, {"type": "node", "id": 12617730541, "lat": 13.7744412, "lon": 100.5571641, "tags": {"historic": "wayside_shrine"}}, {"type": "node", "id": 12617730570, "lat": 13.7742832, "lon": 100.557204, "tags": {"historic": "wayside_shrine"}}, {"type": "node", "id": 12617730579, "lat": 13.7742547, "lon": 100.5571906, "tags": {"historic": "wayside_shrine"}}, {"type": "node", "id": 12618513019, "lat": 13.7744791, "lon": 100.5581963, "tags": {"historic": "wayside_shrine"}}, {"type": "node", "id": 12618514408, "lat": 13.7752677, "lon": 100.5588413, "tags": {"historic": "wayside_shrine"}}, {"type": "node", "id": 12618563644, "lat": 13.7755339, "lon": 100.5595047, "tags": {"historic": "wayside_shrine"}}, {"type": "node", "id": 12620555193, "lat": 13.7757071, "lon": 100.5584175, "tags": {"historic": "wayside_shrine"}}, {"type": "node", "id": 12620560613, "lat": 13.7763645, "lon": 100.5586237, "tags": {"historic": "wayside_shrine"}}, {"type": "node", "id": 12620560614, "lat": 13.7763525, "lon": 100.5586323, "tags": {"historic": "wayside_shrine"}}, {"type": "node", "id": 12620560624, "lat": 13.7764316, "lon": 100.5584372, "tags": {"historic": "wayside_shrine"}}, {"type": "node", "id": 12623288950, "lat": 13.7771065, "lon": 100.5590335, "tags": {"amenity": "cafe", "name": "Nitta"}}, {"type": "node", "id": 12623293121, "lat": 13.7769715, "lon": 100.55937, "tags": {"historic": "wayside_shrine"}}, {"type": "node", "id": 12623896661, "lat": 13.7750322, "lon": 100.559546, "tags": {"historic": "wayside_shrine"}}, {"type": "node", "id": 12623896662, "lat": 13.7750459, "lon": 100.559546, "tags": {"historic": "wayside_shrine"}}, {"type": "node", "id": 12623896694, "lat": 13.7739442, "lon": 100.5595007, "tags": {"historic": "wayside_shrine", "religion": "hindu"}}, {"type": "node", "id": 12623926404, "lat": 13.7737357, "lon": 100.559189, "tags": {"historic": "wayside_shrine"}}, {"type": "node", "id": 12623926461, "lat": 13.7741352, "lon": 100.5590033, "tags": {"historic": "wayside_shrine"}}, {"type": "node", "id": 12623926576, "lat": 13.7740958, "lon": 100.5581605, "tags": {"historic": "wayside_shrine"}}, {"type": "node", "id": 12623926645, "lat": 13.7750267, "lon": 100.5578495, "tags": {"historic": "wayside_shrine"}}, {"type": "node", "id": 12623926685, "lat": 13.7753501, "lon": 100.5576497, "tags": {"historic": "wayside_shrine"}}, {"type": "node", "id": 12623949387, "lat": 13.7766848, "lon": 100.5591309, "tags": {"amenity": "restaurant", "name": "\u0e40\u0e08\u0e4a\u0e1f\u0e32\u0e07"}}, {"type": "node", "id": 12623985931, "lat": 13.7771079, "lon": 100.5603971, "tags": {"historic": "wayside_shrine"}}, {"type": "node", "id": 12623985963, "lat": 13.77765, "lon": 100.5603894, "tags": {"amenity": "restaurant"}}, {"type": "node", "id": 12624045023, "lat": 13.7759916, "lon": 100.55993, "tags": {"historic": "wayside_shrine"}}, {"type": "node", "id": 12624045040, "lat": 13.7759708, "lon": 100.5600754, "tags": {"historic": "wayside_shrine"}}, {"type": "node", "id": 12624045087, "lat": 13.7764295, "lon": 100.5609631, "tags": {"historic": "wayside_shrine"}}, {"type": "node", "id": 12624045322, "lat": 13.7778125, "lon": 100.5601094, "tags": {"amenity": "cafe", "cuisine": "bubble_tea", "name": "Formosa"}}, {"type": "node", "id": 12624045333, "lat": 13.7778071, "lon": 100.5602746, "tags": {"amenity": "cafe", "cuisine": "bubble_tea", "name": "\u0e2d\u0e32\u0e23\u0e4c\u0e0a\u0e32"}}, {"type": "node", "id": 12624045342, "lat": 13.777357, "lon": 100.5602967, "tags": {"historic": "wayside_shrine"}}, {"type": "node", "id": 12628643441, "lat": 13.7787954, "lon": 100.5605477, "tags": {"amenity": "cafe", "brand": "\u0e04\u0e32\u0e40\u0e1f\u0e48 \u0e2d\u0e40\u0e21\u0e0b\u0e2d\u0e19", "brand:en": "Caf\u00e9 Amazon", "brand:th": "\u0e04\u0e32\u0e40\u0e1f\u0e48 \u0e2d\u0e40\u0e21\u0e0b\u0e2d\u0e19", "brand:wikidata": "Q43247503", "cuisine": "coffee_shop", "name": "\u0e04\u0e32\u0e40\u0e1f\u0e48 \u0e2d\u0e40\u0e21\u0e0b\u0e2d\u0e19", "name:en": "Caf\u00e9 Amazon", "name:th": "\u0e04\u0e32\u0e40\u0e1f\u0e48 \u0e2d\u0e40\u0e21\u0e0b\u0e2d\u0e19", "takeaway": "yes"}}, {"type": "node", "id": 12628714675, "lat": 13.7789071, "lon": 100.5581244, "tags": {"amenity": "cafe", "brand": "\u0e04\u0e32\u0e40\u0e1f\u0e48 \u0e2d\u0e40\u0e21\u0e0b\u0e2d\u0e19", "brand:en": "Caf\u00e9 Amazon", "brand:th": "\u0e04\u0e32\u0e40\u0e1f\u0e48 \u0e2d\u0e40\u0e21\u0e0b\u0e2d\u0e19", "brand:wikidata": "Q43247503", "cuisine": "coffee_shop", "name": "\u0e04\u0e32\u0e40\u0e1f\u0e48 \u0e2d\u0e40\u0e21\u0e0b\u0e2d\u0e19", "name:en": "Caf\u00e9 Amazon", "name:th": "\u0e04\u0e32\u0e40\u0e1f\u0e48 \u0e2d\u0e40\u0e21\u0e0b\u0e2d\u0e19", "takeaway": "yes"}}, {"type": "node", "id": 12630031575, "lat": 13.7781683, "lon": 100.5576723, "tags": {"historic": "boundary_stone"}}, {"type": "node", "id": 12630612486, "lat": 13.7778076, "lon": 100.5608987, "tags": {"amenity": "restaurant", "cuisine": "italian", "name": "Spaghettini"}}, {"type": "node", "id": 12630628912, "lat": 13.7649898, "lon": 100.5501555, "tags": {"historic": "wayside_shrine"}}, {"type": "node", "id": 12630629061, "lat": 13.7609203, "lon": 100.5543978, "tags": {"historic": "wayside_shrine"}}, {"type": "node", "id": 12630714745, "lat": 13.7783071, "lon": 100.5578297, "tags": {"historic": "wayside_shrine"}}, {"type": "node", "id": 12630714857, "lat": 13.7783152, "lon": 100.5603292, "tags": {"amenity": "restaurant", "cuisine": "barbecue", "name": "\u0e22\u0e48\u0e32\u0e07\u0e41\u0e21\u0e48\u0e07", "name:th": "\u0e22\u0e48\u0e32\u0e07\u0e41\u0e21\u0e48\u0e07"}}, {"type": "node", "id": 12630754783, "lat": 13.77648, "lon": 100.5614379, "tags": {"historic": "wayside_shrine"}}, {"type": "node", "id": 12631430964, "lat": 13.7780203, "lon": 100.5617319, "tags": {"historic": "wayside_shrine"}}, {"type": "node", "id": 12631431009, "lat": 13.7775237, "lon": 100.5620843, "tags": {"historic": "wayside_shrine"}}, {"type": "node", "id": 12631431015, "lat": 13.777346, "lon": 100.5620932, "tags": {"historic": "wayside_shrine"}}, {"type": "node", "id": 12631431051, "lat": 13.7784231, "lon": 100.5620335, "tags": {"historic": "wayside_shrine"}}, {"type": "node", "id": 12631431083, "lat": 13.778501, "lon": 100.5627678, "tags": {"historic": "wayside_shrine"}}, {"type": "node", "id": 12631431121, "lat": 13.7777956, "lon": 100.5625177, "tags": {"historic": "wayside_shrine"}}, {"type": "node", "id": 12635393278, "lat": 13.7898498, "lon": 100.5518895, "tags": {"contact:email": "nicepalacehotel@gmail.com", "contact:phone": "+66 2 2700514", "name": "Nice Palace Hotel", "tourism": "hotel", "website": "https://www.nicepalace.com/"}}, {"type": "node", "id": 12645518698, "lat": 13.7764119, "lon": 100.5615173, "tags": {"historic": "wayside_shrine"}}, {"type": "node", "id": 12645531728, "lat": 13.7768867, "lon": 100.5614153, "tags": {"historic": "wayside_shrine"}}, {"type": "node", "id": 12645531775, "lat": 13.7766891, "lon": 100.5613559, "tags": {"historic": "wayside_shrine"}}, {"type": "node", "id": 12649622581, "lat": 13.7624683, "lon": 100.5656314, "tags": {"amenity": "restaurant", "name": "\u0e1a\u0e49\u0e32\u0e19\u0e2b\u0e31\u0e27\u0e21\u0e38\u0e21"}}, {"type": "node", "id": 12649622582, "lat": 13.7624287, "lon": 100.5656637, "tags": {"amenity": "cafe", "brand": "\u0e04\u0e32\u0e40\u0e1f\u0e48 \u0e2d\u0e40\u0e21\u0e0b\u0e2d\u0e19", "brand:en": "Caf\u00e9 Amazon", "brand:th": "\u0e04\u0e32\u0e40\u0e1f\u0e48 \u0e2d\u0e40\u0e21\u0e0b\u0e2d\u0e19", "brand:wikidata": "Q43247503", "cuisine": "coffee_shop", "name": "\u0e04\u0e32\u0e40\u0e1f\u0e48 \u0e2d\u0e40\u0e21\u0e0b\u0e2d\u0e19", "name:en": "Caf\u00e9 Amazon", "name:th": "\u0e04\u0e32\u0e40\u0e1f\u0e48 \u0e2d\u0e40\u0e21\u0e0b\u0e2d\u0e19", "takeaway": "yes"}}, {"type": "node", "id": 12649643614, "lat": 13.7627389, "lon": 100.5655296, "tags": {"historic": "wayside_shrine", "religion": "hindu"}}, {"type": "node", "id": 12654501014, "lat": 13.7789297, "lon": 100.5542053, "tags": {"artwork_type": "statue", "tourism": "artwork"}}, {"type": "node", "id": 12654708979, "lat": 13.7645736, "lon": 100.5681917, "tags": {"amenity": "cafe", "brand": "Starbucks", "brand:wikidata": "Q37158", "cuisine": "coffee_shop", "name": "Starbucks", "official_name": "Starbucks Coffee", "takeaway": "yes"}}, {"type": "node", "id": 12658451753, "lat": 13.7663891, "lon": 100.5672513, "tags": {"historic": "wayside_shrine"}}, {"type": "node", "id": 12658451775, "lat": 13.7663657, "lon": 100.5670307, "tags": {"historic": "wayside_shrine"}}, {"type": "node", "id": 12658451792, "lat": 13.766548, "lon": 100.5664064, "tags": {"historic": "wayside_shrine"}}, {"type": "node", "id": 12658451793, "lat": 13.7664647, "lon": 100.5667021, "tags": {"historic": "wayside_shrine"}}, {"type": "node", "id": 12658451798, "lat": 13.7663058, "lon": 100.5663233, "tags": {"historic": "wayside_shrine"}}, {"type": "node", "id": 12658494073, "lat": 13.7660661, "lon": 100.5669301, "tags": {"historic": "wayside_shrine"}}, {"type": "node", "id": 12658537715, "lat": 13.7657176, "lon": 100.5686286, "tags": {"historic": "wayside_shrine"}}, {"type": "node", "id": 12658537716, "lat": 13.7660634, "lon": 100.5687835, "tags": {"historic": "wayside_shrine"}}, {"type": "node", "id": 12658537722, "lat": 13.7655756, "lon": 100.5688351, "tags": {"historic": "wayside_shrine"}}, {"type": "node", "id": 12658537764, "lat": 13.7656531, "lon": 100.568518, "tags": {"historic": "wayside_shrine"}}, {"type": "node", "id": 12662088285, "lat": 13.7558322, "lon": 100.5645017, "tags": {"artwork_type": "sculpture", "tourism": "artwork"}}, {"type": "node", "id": 12666226778, "lat": 13.7775017, "lon": 100.562478, "tags": {"historic": "wayside_shrine"}}, {"type": "node", "id": 12666226779, "lat": 13.7775997, "lon": 100.5624747, "tags": {"historic": "wayside_shrine"}}, {"type": "node", "id": 12666226790, "lat": 13.7776128, "lon": 100.562423, "tags": {"historic": "wayside_shrine"}}, {"type": "node", "id": 12666235511, "lat": 13.7780063, "lon": 100.5621145, "tags": {"historic": "wayside_shrine"}}, {"type": "node", "id": 12666235533, "lat": 13.7773027, "lon": 100.5621646, "tags": {"historic": "wayside_shrine"}}, {"type": "node", "id": 12666235542, "lat": 13.7777786, "lon": 100.5621368, "tags": {"historic": "wayside_shrine"}}, {"type": "node", "id": 12668639302, "lat": 13.7730332, "lon": 100.5559726, "tags": {"historic": "wayside_shrine"}}, {"type": "node", "id": 12668639331, "lat": 13.7727189, "lon": 100.5563214, "tags": {"historic": "wayside_shrine"}}, {"type": "node", "id": 12668675362, "lat": 13.772746, "lon": 100.557502, "tags": {"historic": "wayside_shrine"}}, {"type": "node", "id": 12668675641, "lat": 13.7728668, "lon": 100.5574683, "tags": {"historic": "wayside_shrine", "religion": "hindu"}}, {"type": "node", "id": 12669465759, "lat": 13.7735178, "lon": 100.5568728, "tags": {"amenity": "cafe"}}, {"type": "node", "id": 12669465794, "lat": 13.7734782, "lon": 100.5568641, "tags": {"historic": "wayside_shrine"}}, {"type": "node", "id": 12669465795, "lat": 13.7733852, "lon": 100.5568104, "tags": {"amenity": "restaurant", "name": "\u0e15\u0e32\u0e21\u0e2a\u0e31\u0e48\u0e07\u0e40\u0e08\u0e4a\u0e14\u0e27\u0e07", "name:th": "\u0e15\u0e32\u0e21\u0e2a\u0e31\u0e48\u0e07\u0e40\u0e08\u0e4a\u0e14\u0e27\u0e07"}}, {"type": "node", "id": 12672583249, "lat": 13.7721754, "lon": 100.5584831, "tags": {"historic": "wayside_shrine"}}, {"type": "node", "id": 12681502180, "lat": 13.7799598, "lon": 100.5558599, "tags": {"amenity": "cafe", "brand": "S&P", "brand:wikidata": "Q125872113", "cuisine": "coffee_shop", "name": "S&P", "takeaway": "yes"}}, {"type": "node", "id": 12681502204, "lat": 13.7795053, "lon": 100.5553, "tags": {"amenity": "cafe", "brand": "Black Canyon", "brand:wikidata": "Q125870828", "cuisine": "coffee_shop", "name": "Black Canyon", "takeaway": "yes"}}, {"type": "node", "id": 12681502205, "lat": 13.7794676, "lon": 100.5552494, "tags": {"amenity": "restaurant", "cuisine": "noodle"}}, {"type": "node", "id": 12684158062, "lat": 13.7646504, "lon": 100.5639826, "tags": {"historic": "wayside_shrine"}}, {"type": "node", "id": 12684158108, "lat": 13.7634403, "lon": 100.5635877, "tags": {"historic": "wayside_shrine"}}, {"type": "node", "id": 12687215701, "lat": 13.7671448, "lon": 100.5646386, "tags": {"historic": "wayside_shrine"}}, {"type": "node", "id": 12687215879, "lat": 13.7679471, "lon": 100.5650299, "tags": {"historic": "wayside_shrine"}}, {"type": "node", "id": 12687215880, "lat": 13.7679775, "lon": 100.5655098, "tags": {"historic": "wayside_shrine"}}, {"type": "node", "id": 12687215945, "lat": 13.7675824, "lon": 100.5653931, "tags": {"historic": "wayside_shrine"}}, {"type": "node", "id": 12687215965, "lat": 13.7683773, "lon": 100.565506, "tags": {"historic": "wayside_shrine"}}, {"type": "node", "id": 12687215982, "lat": 13.7666775, "lon": 100.5650588, "tags": {"historic": "wayside_shrine"}}, {"type": "node", "id": 12687216081, "lat": 13.765613, "lon": 100.5648488, "tags": {"historic": "wayside_shrine"}}, {"type": "node", "id": 12687216082, "lat": 13.7657801, "lon": 100.5649004, "tags": {"historic": "wayside_shrine"}}, {"type": "node", "id": 12687216083, "lat": 13.7657966, "lon": 100.5649381, "tags": {"historic": "wayside_shrine"}}, {"type": "node", "id": 12687216088, "lat": 13.7664692, "lon": 100.5655655, "tags": {"historic": "wayside_shrine"}}, {"type": "node", "id": 12687216129, "lat": 13.766368, "lon": 100.5658686, "tags": {"historic": "wayside_shrine"}}, {"type": "node", "id": 12692915582, "lat": 13.7825479, "lon": 100.5502237, "tags": {"artwork_type": "statue", "name": "\u0e1e\u0e23\u0e30\u0e1a\u0e23\u0e21\u0e23\u0e32\u0e0a\u0e32\u0e19\u0e38\u0e2a\u0e32\u0e27\u0e23\u0e35\u0e22\u0e4c\u0e1e\u0e23\u0e30\u0e1a\u0e32\u0e17\u0e2a\u0e21\u0e40\u0e14\u0e47\u0e08\u0e1e\u0e23\u0e30\u0e08\u0e38\u0e25\u0e08\u0e2d\u0e21\u0e40\u0e01\u0e25\u0e49\u0e32\u0e40\u0e08\u0e49\u0e32\u0e2d\u0e22\u0e39\u0e48\u0e2b\u0e31\u0e27", "name:th": "\u0e1e\u0e23\u0e30\u0e1a\u0e23\u0e21\u0e23\u0e32\u0e0a\u0e32\u0e19\u0e38\u0e2a\u0e32\u0e27\u0e23\u0e35\u0e22\u0e4c\u0e1e\u0e23\u0e30\u0e1a\u0e32\u0e17\u0e2a\u0e21\u0e40\u0e14\u0e47\u0e08\u0e1e\u0e23\u0e30\u0e08\u0e38\u0e25\u0e08\u0e2d\u0e21\u0e40\u0e01\u0e25\u0e49\u0e32\u0e40\u0e08\u0e49\u0e32\u0e2d\u0e22\u0e39\u0e48\u0e2b\u0e31\u0e27", "tourism": "artwork"}}, {"type": "node", "id": 12696069647, "lat": 13.7797043, "lon": 100.5510845, "tags": {"historic": "wayside_shrine"}}, {"type": "node", "id": 12696069697, "lat": 13.7804095, "lon": 100.5507863, "tags": {"historic": "wayside_shrine"}}, {"type": "node", "id": 12696069698, "lat": 13.780483, "lon": 100.5508634, "tags": {"historic": "wayside_shrine"}}, {"type": "node", "id": 12696069745, "lat": 13.7808992, "lon": 100.5512261, "tags": {"historic": "wayside_shrine"}}, {"type": "node", "id": 12696069843, "lat": 13.7814444, "lon": 100.5519735, "tags": {"historic": "wayside_shrine"}}, {"type": "node", "id": 12696069844, "lat": 13.7813621, "lon": 100.5519243, "tags": {"historic": "wayside_shrine"}}, {"type": "node", "id": 12696980894, "lat": 13.7810779, "lon": 100.5509643, "tags": {"historic": "wayside_shrine"}}, {"type": "node", "id": 12765789189, "lat": 13.7673645, "lon": 100.5673176, "tags": {"historic": "wayside_shrine"}}, {"type": "node", "id": 12765790947, "lat": 13.7675173, "lon": 100.5674353, "tags": {"historic": "wayside_shrine"}}, {"type": "node", "id": 12765791029, "lat": 13.7676807, "lon": 100.5674429, "tags": {"historic": "wayside_shrine"}}, {"type": "node", "id": 12765791040, "lat": 13.7678137, "lon": 100.5675031, "tags": {"historic": "wayside_shrine"}}, {"type": "node", "id": 12765791076, "lat": 13.7680121, "lon": 100.5676121, "tags": {"historic": "wayside_shrine"}}, {"type": "node", "id": 12765791141, "lat": 13.7685757, "lon": 100.5676047, "tags": {"historic": "wayside_shrine"}}, {"type": "node", "id": 12765791173, "lat": 13.7691404, "lon": 100.5677837, "tags": {"historic": "wayside_shrine"}}, {"type": "node", "id": 12765791182, "lat": 13.7692262, "lon": 100.567832, "tags": {"historic": "wayside_shrine"}}, {"type": "node", "id": 12765791212, "lat": 13.7696093, "lon": 100.5679785, "tags": {"historic": "wayside_shrine"}}, {"type": "node", "id": 12765812672, "lat": 13.7711391, "lon": 100.5691542, "tags": {"historic": "wayside_shrine"}}, {"type": "node", "id": 12765812685, "lat": 13.7714763, "lon": 100.569305, "tags": {"historic": "wayside_shrine"}}, {"type": "node", "id": 12768240005, "lat": 13.7687918, "lon": 100.5638966, "tags": {"historic": "wayside_shrine"}}, {"type": "node", "id": 12768240057, "lat": 13.7679333, "lon": 100.5635603, "tags": {"historic": "wayside_shrine"}}, {"type": "node", "id": 12768240095, "lat": 13.7673277, "lon": 100.5634434, "tags": {"historic": "wayside_shrine"}}, {"type": "node", "id": 12768240114, "lat": 13.7672594, "lon": 100.5636768, "tags": {"historic": "wayside_shrine"}}, {"type": "node", "id": 12768240133, "lat": 13.767148, "lon": 100.5640326, "tags": {"historic": "wayside_shrine"}}, {"type": "node", "id": 12768240134, "lat": 13.7671863, "lon": 100.5638788, "tags": {"historic": "wayside_shrine"}}, {"type": "node", "id": 12768240136, "lat": 13.7671675, "lon": 100.564206, "tags": {"historic": "wayside_shrine"}}, {"type": "node", "id": 12770332236, "lat": 13.7684241, "lon": 100.5638258, "tags": {"historic": "wayside_shrine"}}, {"type": "node", "id": 12770332269, "lat": 13.7676389, "lon": 100.5638845, "tags": {"historic": "wayside_shrine"}}, {"type": "node", "id": 12770332290, "lat": 13.7680733, "lon": 100.5640461, "tags": {"historic": "wayside_shrine"}}, {"type": "node", "id": 12770332299, "lat": 13.7684732, "lon": 100.5642025, "tags": {"historic": "wayside_shrine"}}, {"type": "node", "id": 12770332300, "lat": 13.7685437, "lon": 100.5642448, "tags": {"historic": "wayside_shrine"}}, {"type": "node", "id": 12770332310, "lat": 13.7686171, "lon": 100.5642375, "tags": {"historic": "wayside_shrine"}}, {"type": "node", "id": 12771638085, "lat": 13.783507, "lon": 100.560955, "tags": {"historic": "wayside_shrine"}}, {"type": "node", "id": 12771638086, "lat": 13.7834291, "lon": 100.5610677, "tags": {"historic": "wayside_shrine"}}, {"type": "node", "id": 12771638087, "lat": 13.7835775, "lon": 100.5610568, "tags": {"historic": "wayside_shrine"}}, {"type": "node", "id": 12771638190, "lat": 13.7837466, "lon": 100.5600249, "tags": {"historic": "wayside_shrine"}}, {"type": "node", "id": 12771638191, "lat": 13.7837931, "lon": 100.560411, "tags": {"amenity": "cafe", "name": "Andaman Coffee"}}, {"type": "node", "id": 12771638192, "lat": 13.7837575, "lon": 100.5602471, "tags": {"historic": "wayside_shrine"}}, {"type": "node", "id": 12771638201, "lat": 13.7836948, "lon": 100.55983, "tags": {"historic": "wayside_shrine"}}, {"type": "node", "id": 12772547502, "lat": 13.7929699, "lon": 100.5591938, "tags": {"name": "The Ville - Sutthisan", "tourism": "hotel"}}, {"type": "node", "id": 12777991668, "lat": 13.7677507, "lon": 100.5640093, "tags": {"historic": "wayside_shrine"}}, {"type": "node", "id": 12785779900, "lat": 13.7843696, "lon": 100.5606059, "tags": {"historic": "wayside_shrine"}}, {"type": "node", "id": 12785786501, "lat": 13.7843524, "lon": 100.5605652, "tags": {"historic": "wayside_shrine"}}, {"type": "node", "id": 12785786583, "lat": 13.7844288, "lon": 100.5610605, "tags": {"historic": "wayside_shrine"}}, {"type": "node", "id": 12785786641, "lat": 13.7849443, "lon": 100.5616811, "tags": {"historic": "wayside_shrine"}}, {"type": "node", "id": 12851589071, "lat": 13.7635153, "lon": 100.562428, "tags": {"historic": "wayside_shrine"}}, {"type": "node", "id": 12851610267, "lat": 13.7637726, "lon": 100.561626, "tags": {"historic": "wayside_shrine"}}, {"type": "node", "id": 12851610268, "lat": 13.7638798, "lon": 100.5613062, "tags": {"historic": "wayside_shrine"}}, {"type": "node", "id": 12851610299, "lat": 13.7637605, "lon": 100.5614018, "tags": {"historic": "wayside_shrine"}}, {"type": "node", "id": 12851613123, "lat": 13.7637134, "lon": 100.5616305, "tags": {"historic": "wayside_shrine"}}, {"type": "node", "id": 12851613124, "lat": 13.7634057, "lon": 100.5615889, "tags": {"historic": "wayside_shrine"}}, {"type": "node", "id": 12851613148, "lat": 13.7631241, "lon": 100.5615106, "tags": {"historic": "wayside_shrine"}}, {"type": "node", "id": 12851613230, "lat": 13.7628882, "lon": 100.5615407, "tags": {"historic": "wayside_shrine"}}, {"type": "node", "id": 12851613250, "lat": 13.7630584, "lon": 100.5615965, "tags": {"historic": "wayside_shrine"}}, {"type": "node", "id": 12851613275, "lat": 13.7633643, "lon": 100.5616643, "tags": {"historic": "wayside_shrine"}}, {"type": "node", "id": 12852421260, "lat": 13.7648157, "lon": 100.5620617, "tags": {"historic": "wayside_shrine"}}, {"type": "node", "id": 12852421263, "lat": 13.7646337, "lon": 100.5620102, "tags": {"historic": "wayside_shrine"}}, {"type": "node", "id": 12852421285, "lat": 13.7657783, "lon": 100.5623837, "tags": {"historic": "wayside_shrine"}}, {"type": "node", "id": 12852421294, "lat": 13.7660524, "lon": 100.5624703, "tags": {"historic": "wayside_shrine"}}, {"type": "node", "id": 12852421327, "lat": 13.7664568, "lon": 100.5626167, "tags": {"historic": "wayside_shrine"}}, {"type": "node", "id": 12852421336, "lat": 13.7667218, "lon": 100.5627014, "tags": {"historic": "wayside_shrine"}}, {"type": "node", "id": 12852421388, "lat": 13.7656579, "lon": 100.562256, "tags": {"historic": "wayside_shrine"}}, {"type": "node", "id": 12852421389, "lat": 13.7656618, "lon": 100.5622332, "tags": {"historic": "wayside_shrine"}}, {"type": "node", "id": 12852421463, "lat": 13.7651089, "lon": 100.5620627, "tags": {"historic": "wayside_shrine"}}, {"type": "node", "id": 12855122380, "lat": 13.7642163, "lon": 100.5626779, "tags": {"historic": "wayside_shrine"}}, {"type": "node", "id": 12855122439, "lat": 13.7633446, "lon": 100.5634515, "tags": {"historic": "wayside_shrine"}}, {"type": "node", "id": 12857508270, "lat": 13.765157, "lon": 100.5647107, "tags": {"historic": "wayside_shrine"}}, {"type": "node", "id": 12857564454, "lat": 13.7635797, "lon": 100.5631038, "tags": {"historic": "wayside_shrine"}}, {"type": "node", "id": 12857598567, "lat": 13.7640034, "lon": 100.5631418, "tags": {"historic": "wayside_shrine"}}, {"type": "node", "id": 12860113561, "lat": 13.7675279, "lon": 100.564235, "tags": {"historic": "wayside_shrine"}}, {"type": "node", "id": 12860113562, "lat": 13.7674737, "lon": 100.5642397, "tags": {"historic": "wayside_shrine"}}, {"type": "node", "id": 12860169528, "lat": 13.7686662, "lon": 100.5643331, "tags": {"historic": "wayside_shrine"}}, {"type": "node", "id": 12860169535, "lat": 13.768526, "lon": 100.5642918, "tags": {"historic": "wayside_shrine"}}, {"type": "node", "id": 12860200453, "lat": 13.7688152, "lon": 100.5648419, "tags": {"historic": "wayside_shrine"}}, {"type": "node", "id": 12860200457, "lat": 13.7688363, "lon": 100.5647792, "tags": {"amenity": "restaurant", "cuisine": "noodle"}}, {"type": "node", "id": 12876606932, "lat": 13.766766, "lon": 100.5632806, "tags": {"historic": "wayside_shrine"}}, {"type": "node", "id": 12876606959, "lat": 13.76666, "lon": 100.5632896, "tags": {"historic": "wayside_shrine"}}, {"type": "node", "id": 12876779695, "lat": 13.7654338, "lon": 100.5644995, "tags": {"historic": "wayside_shrine"}}, {"type": "node", "id": 12876784604, "lat": 13.7649146, "lon": 100.5642621, "tags": {"historic": "wayside_shrine"}}, {"type": "node", "id": 12878621579, "lat": 13.7650555, "lon": 100.5639899, "tags": {"historic": "wayside_shrine"}}, {"type": "node", "id": 12878621580, "lat": 13.7651493, "lon": 100.5640096, "tags": {"historic": "wayside_shrine"}}, {"type": "node", "id": 12878640961, "lat": 13.7660513, "lon": 100.564141, "tags": {"historic": "wayside_shrine"}}, {"type": "node", "id": 12878640985, "lat": 13.7664455, "lon": 100.5629408, "tags": {"historic": "wayside_shrine"}}, {"type": "node", "id": 12878641163, "lat": 13.7664816, "lon": 100.5638426, "tags": {"historic": "wayside_shrine"}}, {"type": "node", "id": 12878641170, "lat": 13.7665219, "lon": 100.5637191, "tags": {"amenity": "cafe", "name": "Lonely Batista"}}, {"type": "node", "id": 12883442669, "lat": 13.7664808, "lon": 100.565771, "tags": {"historic": "wayside_shrine"}}, {"type": "node", "id": 12949151317, "lat": 13.7629713, "lon": 100.5633753, "tags": {"historic": "wayside_shrine"}}, {"type": "node", "id": 12949187356, "lat": 13.7624776, "lon": 100.5628024, "tags": {"historic": "wayside_shrine"}}, {"type": "node", "id": 12949187365, "lat": 13.7626584, "lon": 100.562878, "tags": {"historic": "wayside_shrine"}}, {"type": "node", "id": 12949187370, "lat": 13.7628439, "lon": 100.5629183, "tags": {"historic": "wayside_shrine"}}, {"type": "node", "id": 12949187381, "lat": 13.7630713, "lon": 100.5628976, "tags": {"historic": "wayside_shrine"}},