{"version": 0.6, "generator": "Overpass API 0.7.62.8 e802775f", "osm3s": {"timestamp_osm_base": "2025-11-20T03:22:29Z", "copyright": "The data included in this document is from www.openstreetmap.org. The data is made available under ODbL."}, "elements": [{"type": "node", "id": 1597525724, "lat": 13.848724, "lon": 100.5146099, "tags": {"addr:postcode": "11000", "addr:street": "\u0e15\u0e34\u0e27\u0e32\u0e19\u0e19\u0e17\u0e4c", "amenity": "restaurant", "name": "\u0e23\u0e49\u0e32\u0e19\u0e2d\u0e21\u0e15\u0e23\u0e2a"}}, {"type": "node", "id": 1801775559, "lat": 13.84055, "lon": 100.5450615, "tags": {"amenity": "marketplace", "name": "\u0e15\u0e25\u0e32\u0e14\u0e1b\u0e23\u0e30\u0e0a\u0e32\u0e19\u0e34\u0e40\u0e27\u0e28\u0e19\u0e4c 1", "name:en": "Pracha Niwet 1 Market", "name:th": "\u0e15\u0e25\u0e32\u0e14\u0e1b\u0e23\u0e30\u0e0a\u0e32\u0e19\u0e34\u0e40\u0e27\u0e28\u0e19\u0e4c 1", "name:zh": "\u5468\u672b\u5e02\u573a"}}, {"type": "node", "id": 3036536065, "lat": 13.8024992, "lon": 100.511898, "tags": {"addr:postcode": "10700", "amenity": "restaurant", "capacity": "20", "diet:halal": "yes", "name": "Ikfeef Shabu", "smoking": "outside"}}, {"type": "node", "id": 3538176902, "lat": 13.8420891, "lon": 100.5415812, "tags": {"amenity": "restaurant", "cuisine": "thai;seafood", "name": "\u0e40\u0e08\u0e4a\u0e44\u0e02\u0e48 \u0e0b\u0e35\u0e1f\u0e39\u0e14\u0e2a\u0e4c", "name:th": "\u0e40\u0e08\u0e4a\u0e44\u0e02\u0e48 \u0e0b\u0e35\u0e1f\u0e39\u0e14\u0e2a\u0e4c"}}, {"type": "node", "id": 3705623080, "lat": 13.8058524, "lon": 100.5112712, "tags": {"name": "P-Park Residence", "tourism": "hotel", "website": "http://www.p-parkresidence.com/"}}, {"type": "node", "id": 3742274015, "lat": 13.8222209, "lon": 100.5323531, "tags": {"amenity": "marketplace", "designation": "Night market", "name": "Siam Gypsy Market"}}, {"type": "node", "id": 3945975614, "lat": 13.812142, "lon": 100.5488463, "tags": {"amenity": "cafe", "brand": "\u0e04\u0e32\u0e40\u0e1f\u0e48 \u0e2d\u0e40\u0e21\u0e0b\u0e2d\u0e19", "brand:en": "Caf\u00e9 Amazon", "brand:th": "\u0e04\u0e32\u0e40\u0e1f\u0e48 \u0e2d\u0e40\u0e21\u0e0b\u0e2d\u0e19", "brand:wikidata": "Q43247503", "cuisine": "coffee_shop", "name": "\u0e04\u0e32\u0e40\u0e1f\u0e48 \u0e2d\u0e40\u0e21\u0e0b\u0e2d\u0e19", "name:en": "Caf\u00e9 Amazon", "name:th": "\u0e04\u0e32\u0e40\u0e1f\u0e48 \u0e2d\u0e40\u0e21\u0e0b\u0e2d\u0e19", "operator": "PTT", "shop": "coffee", "smoking": "no", "takeaway": "yes"}}, {"type": "node", "id": 4000909201, "lat": 13.8340134, "lon": 100.5432202, "tags": {"amenity": "restaurant", "cuisine": "thai", "delivery": "no", "name": "\u0e01\u0e4b\u0e27\u0e22\u0e40\u0e15\u0e35\u0e4b\u0e22\u0e27\u0e2b\u0e21\u0e39\u0e17\u0e30\u0e40\u0e25 \u0e22\u0e32\u0e22\u0e44\u0e02", "opening_hours": "10:00-14:00", "smoking": "no", "takeaway": "yes"}}, {"type": "node", "id": 4248029210, "lat": 13.8447748, "lon": 100.5430637, "tags": {"amenity": "restaurant", "cuisine": "thai", "name": "Panya Seafood ", "opening_hours": "Mo-Su 10:00-22:00"}}, {"type": "node", "id": 4397808929, "lat": 13.8101463, "lon": 100.5096182, "tags": {"addr:hamlet": "2", "addr:housenumber": "9/45", "addr:postcode": "11130", "addr:subdistrict": "Bangkruai", "construction": "hotel", "email": "rsvn@bellabhotel.com", "fax": "+662 409 5784", "name": "\u0e42\u0e23\u0e07\u0e41\u0e23\u0e21\u0e40\u0e1a\u0e25\u0e25\u0e48\u0e32 \u0e1a\u0e35", "name:en": "Bella B Hotel", "name:th": "\u0e42\u0e23\u0e07\u0e41\u0e23\u0e21\u0e40\u0e1a\u0e25\u0e25\u0e48\u0e32 \u0e1a\u0e35", "note": "From Note 490362", "phone": "+662 409 5785-9, +66(9) 4307 7067", "tourism": "hotel", "website": "http://bellabhotel.com/"}}, {"type": "node", "id": 4557505790, "lat": 13.8264394, "lon": 100.5046647, "tags": {"name": "\u0e1a\u0e49\u0e32\u0e19\u0e1e\u0e35\u0e48\u0e40\u0e2d\u0e4b", "name:th": "\u0e1a\u0e49\u0e32\u0e19\u0e1e\u0e35\u0e48\u0e40\u0e2d\u0e4b", "tourism": "camp_site"}}, {"type": "node", "id": 4819936623, "lat": 13.8025884, "lon": 100.539002, "tags": {"addr:housenumber": "91", "addr:street": "Ket Dam Ri Rd.", "amenity": "restaurant", "name": "Bella Casa", "name:th": "Bella Cada"}}, {"type": "node", "id": 4853021121, "lat": 13.8026215, "lon": 100.5213394, "tags": {"addr:housenumber": "103-105", "addr:postcode": "10800", "addr:street": "\u0e16\u0e19\u0e19\u0e1b\u0e23\u0e30\u0e0a\u0e32\u0e23\u0e32\u0e29\u0e0e\u0e23\u0e4c\u0e2a\u0e32\u0e22 1", "amenity": "restaurant", "cuisine": "chicken;noodles;chinese", "name": "\u0e23\u0e49\u0e32\u0e19\u0e2d\u0e32\u0e2b\u0e32\u0e23\u0e2a\u0e27\u0e19\u0e2a\u0e19-\u0e42\u0e01\u0e2d\u0e48\u0e32\u0e07", "name:en": "Suan Son", "opening_hours": "Mo-Su 08:00-12:00, 13:00-16:00", "phone": "+6625875344"}}, {"type": "node", "id": 4893555523, "lat": 13.8051676, "lon": 100.5110459, "tags": {"amenity": "restaurant", "name:en": "Charm chicken"}}, {"type": "node", "id": 5060157922, "lat": 13.8054967, "lon": 100.5213198, "tags": {"amenity": "restaurant", "name": "\u0e27\u0e34\u0e40\u0e28\u0e29\u0e44\u0e01\u0e48\u0e22\u0e48\u0e32\u0e07", "name:th": "\u0e27\u0e34\u0e40\u0e28\u0e29\u0e44\u0e01\u0e48\u0e22\u0e48\u0e32\u0e07"}}, {"type": "node", "id": 5191763917, "lat": 13.8029547, "lon": 100.5498757, "tags": {"amenity": "restaurant", "cuisine": "noodle", "name": "\u0e01\u0e4b\u0e27\u0e22\u0e40\u0e15\u0e35\u0e4b\u0e22\u0e27\u0e40\u0e23\u0e37\u0e2d \u0e23\u0e31\u0e15\u0e19\u0e42\u0e01\u0e2a\u0e34\u0e19\u0e17\u0e23\u0e4c", "name:en": "Rattanakosin Boat Noodles", "name:es": "Fideos de barco - Rattanakos\u00edn", "name:km": "\u1782\u17bb\u1799\u1791\u17b6\u179c\u1791\u17bc\u1780 \u179a\u178f\u1793\u1780\u17c4\u179f\u17b7\u1793\u17d2\u1791\u17d2\u179a"}}, {"type": "node", "id": 5260292232, "lat": 13.8014439, "lon": 100.5354258, "tags": {"addr:city": "\u0e1a\u0e32\u0e07\u0e0b\u0e37\u0e48\u0e2d", "addr:postcode": "10800", "addr:street": "\u0e16\u0e19\u0e19\u0e40\u0e15\u0e0a\u0e30\u0e27\u0e13\u0e34\u0e0a", "leisure": "park", "name": "Techawanich Park"}}, {"type": "node", "id": 5269113710, "lat": 13.8443152, "lon": 100.5429483, "tags": {"amenity": "restaurant", "cuisine": "coffee_shop;ice_cream;asian", "name": "La Unique"}}, {"type": "node", "id": 5362898295, "lat": 13.8279394, "lon": 100.5048139, "tags": {"amenity": "restaurant", "name": "\u0e23\u0e49\u0e32\u0e19\u0e2d\u0e32\u0e2b\u0e32\u0e23"}}, {"type": "node", "id": 5362952395, "lat": 13.8278144, "lon": 100.5041273, "tags": {"amenity": "restaurant", "name": "\u0e23\u0e49\u0e32\u0e19\u0e2d\u0e32\u0e2b\u0e32\u0e23"}}, {"type": "node", "id": 5365931577, "lat": 13.8235793, "lon": 100.5200911, "tags": {"historic": "wayside_shrine"}}, {"type": "node", "id": 5382326737, "lat": 13.8301574, "lon": 100.5383366, "tags": {"description": "Prachanukun Health Garden \u0e2a\u0e27\u0e19\u0e2a\u0e38\u0e02\u0e20\u0e32\u0e1e \u0e1b\u0e23\u0e30\u0e0a\u0e32\u0e19\u0e38\u0e01\u0e39\u0e25", "leisure": "park", "name": "Prachanukun Health Garden \u0e2a\u0e27\u0e19\u0e2a\u0e38\u0e02\u0e20\u0e32\u0e1e \u0e1b\u0e23\u0e30\u0e0a\u0e32\u0e19\u0e38\u0e01\u0e39\u0e25"}}, {"type": "node", "id": 5469512660, "lat": 13.8001926, "lon": 100.5472365, "tags": {"amenity": "restaurant", "name": "Ristorante"}}, {"type": "node", "id": 5901138585, "lat": 13.8020456, "lon": 100.5485115, "tags": {"name:en": "Luggage storage", "tourism": "attraction"}}, {"type": "node", "id": 6032488085, "lat": 13.8100051, "lon": 100.5341284, "tags": {"addr:city": "\u0e1a\u0e32\u0e07\u0e0b\u0e37\u0e48\u0e2d \u0e01\u0e23\u0e38\u0e07\u0e40\u0e17\u0e1e\u0e2f", "addr:street": "\u0e16\u0e19\u0e19\u0e1b\u0e23\u0e30\u0e0a\u0e32\u0e0a\u0e37\u0e48\u0e19", "amenity": "restaurant", "cuisine": "thai", "name": "\u0e23\u0e49\u0e32\u0e19\u0e2d\u0e32\u0e2b\u0e32\u0e23\u0e04\u0e23\u0e31\u0e27\u0e15\u0e32\u0e21\u0e31\u0e49\u0e22", "name:en": "Ta Mai Restaurant", "name:th": "\u0e23\u0e49\u0e32\u0e19\u0e2d\u0e32\u0e2b\u0e32\u0e23\u0e04\u0e23\u0e31\u0e27\u0e15\u0e32\u0e21\u0e31\u0e49\u0e22", "takeaway": "yes"}}, {"type": "node", "id": 6050900385, "lat": 13.8491706, "lon": 100.5315249, "tags": {"tourism": "hostel"}}, {"type": "node", "id": 6059984275, "lat": 13.8309895, "lon": 100.5360295, "tags": {"amenity": "restaurant", "name": "Buzza"}}, {"type": "node", "id": 6506411571, "lat": 13.8469885, "lon": 100.5153468, "tags": {"addr:city": "\u0e15\u0e33\u0e1a\u0e25\u0e15\u0e25\u0e32\u0e14\u0e02\u0e27\u0e31\u0e0d", "addr:postcode": "11000", "addr:street": "\u0e16\u0e19\u0e19\u0e15\u0e34\u0e27\u0e32\u0e19\u0e19\u0e17\u0e4c", "amenity": "cafe", "cuisine": "drinks;bubbletea;snacks", "name": "Sweet :D \u0e2b\u0e27\u0e32\u0e19\u0e14\u0e35\u0e0a\u0e32\u0e44\u0e02\u0e48\u0e21\u0e38\u0e01", "name:en": "Sweet-D Bubble Tea", "name:th": "Sweet :D \u0e2b\u0e27\u0e32\u0e19\u0e14\u0e35\u0e0a\u0e32\u0e44\u0e02\u0e48\u0e21\u0e38\u0e01", "outdoor_seating": "yes", "website": "https://www.facebook.com/sweetdonline"}}, {"type": "node", "id": 6514596796, "lat": 13.8328761, "lon": 100.5004795, "tags": {"amenity": "restaurant", "name": "Big Garden Steakhouse"}}, {"type": "node", "id": 6762896963, "lat": 13.848453, "lon": 100.5144493, "tags": {"addr:hamlet": "11", "addr:housenumber": "57/13", "addr:street": "\u0e16\u0e19\u0e19\u0e15\u0e34\u0e27\u0e32\u0e19\u0e19\u0e17\u0e4c", "amenity": "restaurant", "cuisine": "chinese;thai", "name": "\u0e17\u0e48\u0e07\u0e2e\u0e31\u0e48\u0e27\u0e40\u0e2e\u0e07 (\u0e40\u0e08\u0e49\u0e32\u0e40\u0e01\u0e48\u0e32\u0e1e\u0e25\u0e31\u0e1a\u0e1e\u0e25\u0e32\u0e44\u0e0a\u0e22) \u0e2b\u0e21\u0e39\u0e2a\u0e30\u0e40\u0e15\u0e4a\u0e30 \u0e2d\u0e32\u0e2b\u0e32\u0e23\u0e08\u0e35\u0e19\u0e1c\u0e31\u0e14", "name:en": "Tong Heng Huad Shop Chinese food, Pork Satay", "name:th": "\u0e17\u0e48\u0e07\u0e2e\u0e31\u0e48\u0e27\u0e40\u0e2e\u0e07 (\u0e40\u0e08\u0e49\u0e32\u0e40\u0e01\u0e48\u0e32\u0e1e\u0e25\u0e31\u0e1a\u0e1e\u0e25\u0e32\u0e44\u0e0a\u0e22) \u0e2b\u0e21\u0e39\u0e2a\u0e30\u0e40\u0e15\u0e4a\u0e30 \u0e2d\u0e32\u0e2b\u0e32\u0e23\u0e08\u0e35\u0e19\u0e1c\u0e31\u0e14", "opening_hours": "Mo-Su 09:00-19:30", "phone": "025251271, 025273857"}}, {"type": "node", "id": 6836264668, "lat": 13.8485087, "lon": 100.5144971, "tags": {"amenity": "restaurant", "cuisine": "chinese", "name": "\u0e21\u0e07\u0e04\u0e25\u0e0a\u0e31\u0e22 1", "name:en": "Mongkol Chai 1", "name:th": "\u0e21\u0e07\u0e04\u0e25\u0e0a\u0e31\u0e22 1"}}, {"type": "node", "id": 6980108185, "lat": 13.8159041, "lon": 100.5447123, "tags": {"name:en": "Train cemetery", "tourism": "attraction"}}, {"type": "node", "id": 7189275385, "lat": 13.8039064, "lon": 100.51197, "tags": {"amenity": "restaurant", "name": "Delicious Thai Food"}}, {"type": "node", "id": 7417168286, "lat": 13.8169651, "lon": 100.537112, "tags": {"amenity": "restaurant", "cuisine": "thai", "name": "\u0e01\u0e32\u0e25\u0e34\u0e04", "name:en": "Garlic", "phone": "5851932"}}, {"type": "node", "id": 7972689685, "lat": 13.8190191, "lon": 100.5357462, "tags": {"addr:housenumber": "649", "addr:postcode": "10800", "addr:street": "\u0e16\u0e19\u0e19\u0e1b\u0e23\u0e30\u0e0a\u0e32\u0e0a\u0e37\u0e48\u0e19", "name": "\u0e22\u0e39\u0e14\u0e35\u0e44\u0e25\u0e17\u0e4c 2 \u0e41\u0e2d\u0e17 \u0e1a\u0e32\u0e07\u0e0b\u0e37\u0e48\u0e2d \u0e2a\u0e40\u0e15\u0e0a\u0e31\u0e48\u0e19", "name:en": "U Delight 2 @ Bangsue Station", "opening_hours": "Mo-Sa 08:00-18:00", "phone": "02 148 0600", "tourism": "apartment"}}, {"type": "node", "id": 8173515603, "lat": 13.8193049, "lon": 100.5115193, "tags": {"addr:city": "\u0e41\u0e02\u0e27\u0e07\u0e27\u0e07\u0e28\u0e4c\u0e2a\u0e27\u0e48\u0e32\u0e07", "addr:postcode": "10800", "addr:street": "\u0e16\u0e19\u0e19\u0e1e\u0e34\u0e1a\u0e39\u0e25\u0e2a\u0e07\u0e04\u0e23\u0e32\u0e21", "amenity": "restaurant", "name": "\u0e15\u0e23\u0e2d\u0e0125"}}, {"type": "node", "id": 8177032560, "lat": 13.8035872, "lon": 100.5117923, "tags": {"addr:city": "\u0e41\u0e02\u0e27\u0e07\u0e1a\u0e32\u0e07\u0e2d\u0e49\u0e2d", "addr:housenumber": "537", "addr:postcode": "10700", "addr:street": "Charan Sanit Wong 95/1", "amenity": "restaurant", "contact:facebook": "https://www.facebook.com/cuisinetamjai", "cuisine": "thai;fried_food;bubble_tea;noodle;seafood", "delivery": "yes", "diet:meat": "yes", "diet:vegetarian": "yes", "drive_through": "no", "name": "\u0e23\u0e49\u0e32\u0e19\u0e04\u0e23\u0e31\u0e27\u0e15\u0e32\u0e21\u0e43\u0e08", "opening_hours": "Mo-Su 09:00-21:00", "phone": "+66 654484929", "takeaway": "yes"}}, {"type": "node", "id": 9116353204, "lat": 13.8189296, "lon": 100.5141619, "tags": {"amenity": "cafe"}}, {"type": "node", "id": 9116797066, "lat": 13.8214106, "lon": 100.5146372, "tags": {"amenity": "cafe"}}, {"type": "node", "id": 9790197641, "lat": 13.8438591, "lon": 100.5111976, "tags": {"amenity": "cafe", "name": "Inthanin Coffee", "name:en": "Inthanin Coffee", "name:th": "\u0e2d\u0e34\u0e19\u0e17\u0e19\u0e34\u0e25 \u0e04\u0e2d\u0e1f\u0e1f\u0e35\u0e48"}}, {"type": "node", "id": 9790197642, "lat": 13.843799, "lon": 100.5108029, "tags": {"amenity": "restaurant", "name": "\u0e2a\u0e38\u0e01\u0e35\u0e49\u0e15\u0e35\u0e4b\u0e19\u0e49\u0e2d\u0e22", "name:en": "Suki Teenoi", "name:th": "\u0e2a\u0e38\u0e01\u0e35\u0e49\u0e15\u0e35\u0e4b\u0e19\u0e49\u0e2d\u0e22"}}, {"type": "node", "id": 9943102427, "lat": 13.8228874, "lon": 100.5157597, "tags": {"name": "\u0e2b\u0e2d\u0e1e\u0e31\u0e01\u0e2a\u0e15\u0e23\u0e35 \u0e1a\u0e49\u0e32\u0e19\u0e2a\u0e23\u0e32\u0e0d\u0e2a\u0e38\u0e02", "tourism": "apartment"}}, {"type": "node", "id": 9967823017, "lat": 13.8099554, "lon": 100.5218612, "tags": {"amenity": "restaurant", "cuisine": "thai", "internet_access": "wlan", "name": "\u0e02\u0e49\u0e32\u0e27\u0e15\u0e49\u0e21\u0e23\u0e38\u0e48\u0e07\u0e42\u0e23\u0e08\u0e19\u0e4c", "opening_hours": "Mo-Su 17:00-01:00", "phone": "+66 2 585 5987"}}, {"type": "node", "id": 9998687239, "lat": 13.8465716, "lon": 100.5162553, "tags": {"artwork_type": "statue", "tourism": "artwork"}}, {"type": "node", "id": 9998707946, "lat": 13.8467655, "lon": 100.5157311, "tags": {"amenity": "restaurant", "cuisine": "thai"}}, {"type": "node", "id": 10026339118, "lat": 13.8120271, "lon": 100.5384077, "tags": {"tourism": "attraction"}}, {"type": "node", "id": 10177402961, "lat": 13.8410917, "lon": 100.5337223, "tags": {"amenity": "cafe", "brand": "Starbucks", "brand:wikidata": "Q37158", "cuisine": "coffee_shop", "name": "Starbucks", "official_name": "Starbucks Coffee", "shop": "coffee", "takeaway": "yes"}}, {"type": "node", "id": 10177432652, "lat": 13.841242, "lon": 100.5335067, "tags": {"amenity": "restaurant", "name": "S&P"}}, {"type": "node", "id": 10548654109, "lat": 13.8063038, "lon": 100.5313304, "tags": {"addr:housenumber": "545", "addr:postcode": "10800", "addr:street": "\u0e16\u0e19\u0e19\u0e1b\u0e23\u0e30\u0e0a\u0e32\u0e23\u0e32\u0e29\u0e0e\u0e23\u0e4c \u0e2a\u0e32\u0e22 2", "amenity": "cafe", "cuisine": "japanese", "name": "\u30b4\u30b8\u30ed\u30e9\u30fc\u30e1\u30f3", "name:en": "GOJIRO RAMEN", "opening_hours": "Mo-Su 11:00-20:30", "phone": "+66945544951", "website": "https://web.facebook.com/gojiroramen"}}, {"type": "node", "id": 10722895524, "lat": 13.8054941, "lon": 100.5429098, "tags": {"information": "office", "level": "0", "name": "\u0e1a\u0e23\u0e34\u0e01\u0e32\u0e23\u0e02\u0e49\u0e2d\u0e21\u0e39\u0e25\u0e23\u0e16\u0e44\u0e1f", "name:en": "Railway information", "name:th": "\u0e1a\u0e23\u0e34\u0e01\u0e32\u0e23\u0e02\u0e49\u0e2d\u0e21\u0e39\u0e25\u0e23\u0e16\u0e44\u0e1f", "operator": "\u0e01\u0e32\u0e23\u0e23\u0e16\u0e44\u0e1f\u0e41\u0e2b\u0e48\u0e07\u0e1b\u0e23\u0e30\u0e40\u0e17\u0e28\u0e44\u0e17\u0e22", "source": "survey", "source:date": "2023-03-08", "tourism": "information"}}, {"type": "node", "id": 10836313202, "lat": 13.803258, "lon": 100.5391261, "tags": {"amenity": "restaurant", "name": "\u0e2b\u0e31\u0e27\u0e42\u0e04\u0e49\u0e07 \u0e04\u0e32\u0e40\u0e1f\u0e48"}}, {"type": "node", "id": 10897793106, "lat": 13.8269185, "lon": 100.5392725, "tags": {"name:en": "ATC Residence", "tourism": "apartment"}}, {"type": "node", "id": 11094174706, "lat": 13.8244933, "lon": 100.5375062, "tags": {"amenity": "cafe", "brand": "\u0e04\u0e32\u0e40\u0e1f\u0e48 \u0e2d\u0e40\u0e21\u0e0b\u0e2d\u0e19", "brand:en": "Caf\u00e9 Amazon", "brand:th": "\u0e04\u0e32\u0e40\u0e1f\u0e48 \u0e2d\u0e40\u0e21\u0e0b\u0e2d\u0e19", "brand:wikidata": "Q43247503", "cuisine": "coffee_shop", "name": "\u0e04\u0e32\u0e40\u0e1f\u0e48 \u0e2d\u0e40\u0e21\u0e0b\u0e2d\u0e19", "name:en": "Caf\u00e9 Amazon", "name:th": "\u0e04\u0e32\u0e40\u0e1f\u0e48 \u0e2d\u0e40\u0e21\u0e0b\u0e2d\u0e19", "takeaway": "yes"}}, {"type": "node", "id": 11195992066, "lat": 13.8228914, "lon": 100.5157087, "tags": {"amenity": "cafe", "cuisine": "game;boardgame", "name": "Boardy Boardgame", "outdoor_seating": "no", "phone": "0927952945"}}, {"type": "node", "id": 11738013448, "lat": 13.806177, "lon": 100.5239639, "tags": {"amenity": "cafe", "brand": "Starbucks", "brand:wikidata": "Q37158", "check_date": "2024-03-17", "cuisine": "coffee_shop", "level": "0", "name": "Starbucks", "name:en": "Starbucks", "official_name": "Starbucks Coffee", "opening_hours": "07:00-21:00", "outdoor_seating": "yes", "payment:cash": "yes", "payment:mastercard": "yes", "payment:visa": "yes", "takeaway": "yes"}}, {"type": "node", "id": 12178068058, "lat": 13.8038409, "lon": 100.5409155, "tags": {"information": "office", "source": "survey", "source:date": "2024-09-15", "tourism": "information"}}, {"type": "node", "id": 12179474932, "lat": 13.8056956, "lon": 100.5420237, "tags": {"amenity": "cafe", "level": "0", "name": "Mahasan Cafe", "outdoor_seating": "no", "source": "survey", "source:date": "2024-09-15", "takeaway": "only"}}, {"type": "node", "id": 12179474933, "lat": 13.805663, "lon": 100.5421148, "tags": {"amenity": "cafe", "level": "0", "name": "Yap Cafe", "outdoor_seating": "no", "source": "survey", "source:date": "2024-09-15", "takeaway": "only"}}, {"type": "node", "id": 12179503432, "lat": 13.8053726, "lon": 100.5426164, "tags": {"information": "office", "level": "0", "source": "survey", "source:date": "2024-09-15", "tourism": "information"}}, {"type": "node", "id": 12179537371, "lat": 13.8033591, "lon": 100.5422302, "tags": {"information": "office", "level": "0", "source": "survey", "source:date": "2024-09-15", "tourism": "information"}}, {"type": "node", "id": 12179766838, "lat": 13.8021935, "lon": 100.5409072, "tags": {"information": "office", "level": "0", "source": "survey", "source:date": "2024-09-15", "tourism": "information"}}, {"type": "node", "id": 12325563998, "lat": 13.8002421, "lon": 100.5499975, "tags": {"amenity": "cafe", "check_date": "2024-11-09", "name": "Kaarom Speciality Coffee"}}, {"type": "node", "id": 12325563999, "lat": 13.8003491, "lon": 100.5498932, "tags": {"amenity": "restaurant", "check_date": "2024-11-09", "cuisine": "sushi", "name": "Sushi Taru"}}, {"type": "node", "id": 12378316601, "lat": 13.8116626, "lon": 100.5320795, "tags": {"addr:postcode": "10800", "name:en": "The privacy taopoon interchange", "opening_hours": "24/7", "tourism": "apartment"}}, {"type": "node", "id": 12428810731, "lat": 13.8028148, "lon": 100.5492874, "tags": {"amenity": "marketplace", "name": "Living animals"}}, {"type": "node", "id": 12428810745, "lat": 13.8061077, "lon": 100.5488935, "tags": {"historic": "monument"}}, {"type": "node", "id": 12428813636, "lat": 13.8017606, "lon": 100.5486356, "tags": {"amenity": "cafe", "name": "Cafe Amazon"}}, {"type": "node", "id": 12428813640, "lat": 13.8038242, "lon": 100.5479474, "tags": {"amenity": "cafe", "name": "Cafe Amazon"}}, {"type": "node", "id": 12428813641, "lat": 13.8054012, "lon": 100.5481399, "tags": {"historic": "wayside_cross"}}, {"type": "node", "id": 12428813818, "lat": 13.8069058, "lon": 100.5491877, "tags": {"tourism": "information"}}, {"type": "node", "id": 12428813819, "lat": 13.8072177, "lon": 100.5494823, "tags": {"name": "Nature information pathway", "tourism": "attraction"}}, {"type": "node", "id": 12495963238, "lat": 13.8004412, "lon": 100.5324168, "tags": {"historic": "wayside_shrine"}}, {"type": "node", "id": 12495963239, "lat": 13.800431, "lon": 100.5324461, "tags": {"historic": "wayside_shrine"}}, {"type": "node", "id": 12495963254, "lat": 13.8000161, "lon": 100.5327055, "tags": {"historic": "wayside_shrine"}}, {"type": "node", "id": 12496035563, "lat": 13.8019199, "lon": 100.5344639, "tags": {"information": "board", "name": "\u0e04\u0e25\u0e2d\u0e07\u0e40\u0e1b\u0e23\u0e21\u0e1b\u0e23\u0e30\u0e0a\u0e32\u0e01\u0e23", "tourism": "information"}}, {"type": "node", "id": 12496035629, "lat": 13.8027975, "lon": 100.5330549, "tags": {"historic": "wayside_shrine"}}, {"type": "node", "id": 12496083788, "lat": 13.8034323, "lon": 100.533819, "tags": {"historic": "wayside_shrine"}}, {"type": "node", "id": 12496089650, "lat": 13.8034133, "lon": 100.5347477, "tags": {"historic": "wayside_shrine"}}, {"type": "node", "id": 12496089664, "lat": 13.8033975, "lon": 100.5350243, "tags": {"historic": "wayside_shrine"}}, {"type": "node", "id": 12609751514, "lat": 13.818263, "lon": 100.5354511, "tags": {"amenity": "cafe", "branch": "Supalai Veranda", "brand": "\u0e04\u0e32\u0e40\u0e1f\u0e48 \u0e2d\u0e40\u0e21\u0e0b\u0e2d\u0e19", "brand:en": "Caf\u00e9 Amazon", "brand:th": "\u0e04\u0e32\u0e40\u0e1f\u0e48 \u0e2d\u0e40\u0e21\u0e0b\u0e2d\u0e19", "brand:wikidata": "Q43247503", "cuisine": "coffee_shop", "internet_access": "yes", "internet_access:fee": "customers", "name": "\u0e04\u0e32\u0e40\u0e1f\u0e48 \u0e2d\u0e40\u0e21\u0e0b\u0e2d\u0e19", "name:en": "Caf\u00e9 Amazon", "name:th": "\u0e04\u0e32\u0e40\u0e1f\u0e48 \u0e2d\u0e40\u0e21\u0e0b\u0e2d\u0e19", "outdoor_seating": "no", "takeaway": "yes"}}, {"type": "node", "id": 12792330388, "lat": 13.8227935, "lon": 100.5037814, "tags": {"historic": "monument", "name": "\u0e2d\u0e19\u0e38\u0e2a\u0e32\u0e27\u0e23\u0e35\u0e22\u0e4c\u0e08\u0e2d\u0e21\u0e1e\u0e25 \u0e1b. \u0e1e\u0e34\u0e1a\u0e39\u0e25\u0e2a\u0e07\u0e04\u0e23\u0e32\u0e21"}}, {"type": "node", "id": 12792330389, "lat": 13.8226393, "lon": 100.5036062, "tags": {"historic": "monument", "name": "\u0e2d\u0e19\u0e38\u0e2a\u0e32\u0e27\u0e23\u0e35\u0e22\u0e4c\u0e2d\u0e32\u0e08\u0e32\u0e23\u0e22\u0e4c\u0e2a\u0e07\u0e48\u0e32 \u0e14\u0e35\u0e21\u0e32\u0e01"}}, {"type": "node", "id": 12877254016, "lat": 13.8308872, "lon": 100.5435752, "tags": {"amenity": "cafe", "branch": "\u0e04\u0e32\u0e25\u0e40\u0e17\u0e47\u0e01\u0e0b\u0e4c \u0e1b\u0e23\u0e30\u0e0a\u0e32\u0e19\u0e38\u0e01\u0e39\u0e25", "brand": "Chao Doi", "brand:wikidata": "Q118608511", "cuisine": "coffee_shop", "name": "Chao Doi", "takeaway": "yes"}}, {"type": "node", "id": 12877254018, "lat": 13.8308369, "lon": 100.5437318, "tags": {"amenity": "restaurant", "branch": "\u0e04\u0e32\u0e25\u0e40\u0e17\u0e47\u0e01\u0e0b\u0e4c \u0e1b\u0e23\u0e30\u0e0a\u0e32\u0e19\u0e38\u0e01\u0e39\u0e25", "brand": "Bonchon Chicken", "brand:wikidata": "Q4941248", "cuisine": "chicken;korean;sushi", "name": "Bonchon Chicken"}}, {"type": "node", "id": 12889024161, "lat": 13.8074568, "lon": 100.530747, "tags": {"addr:district": "\u0e1a\u0e32\u0e07\u0e0b\u0e37\u0e48\u0e2d", "addr:housenumber": "185", "addr:postcode": "10800", "addr:province": "\u0e01\u0e23\u0e38\u0e07\u0e40\u0e17\u0e1e\u0e21\u0e2b\u0e32\u0e19\u0e04\u0e23", "addr:street": "\u0e16\u0e19\u0e19\u0e01\u0e23\u0e38\u0e07\u0e40\u0e17\u0e1e-\u0e19\u0e19\u0e17\u0e1a\u0e38\u0e23\u0e35", "addr:subdistrict": "\u0e1a\u0e32\u0e07\u0e0b\u0e37\u0e48\u0e2d", "amenity": "restaurant", "branch": "\u0e2a\u0e32\u0e02\u0e32\u0e40\u0e15\u0e32\u0e1b\u0e39\u0e19", "brand": "Pizza Hut", "brand:wikidata": "Q191615", "cuisine": "pizza", "name": "Pizza Hut", "opening_hours": "10:00-22:00", "website": "https://www.pizzahut.co.th/"}}, {"type": "node", "id": 12973804413, "lat": 13.8174412, "lon": 100.5168441, "tags": {"historic": "wayside_shrine", "religion": "hindu"}}, {"type": "node", "id": 13049950797, "lat": 13.8148528, "lon": 100.5154434, "tags": {"air_conditioning": "yes", "amenity": "restaurant", "contact:line": "oyuariver", "cuisine": "thai", "name": "\u0e42\u0e2d\u0e22\u0e31\u0e4a\u0e27\u0e30 \u0e23\u0e34\u0e40\u0e27\u0e2d\u0e23\u0e4c\u0e40\u0e17\u0e2d\u0e40\u0e23\u0e2a", "phone": "+66 2 556 0784; +66 2 556 0785; +66 83 942 9888"}}, {"type": "node", "id": 13057788894, "lat": 13.8132964, "lon": 100.519275, "tags": {"amenity": "restaurant", "name": "\u0e42\u0e23\u0e07\u0e2d\u0e32\u0e2b\u0e32\u0e23\u0e42\u0e23\u0e07\u0e40\u0e23\u0e35\u0e22\u0e19\u0e42\u0e22\u0e18\u0e34\u0e19\u0e1a\u0e39\u0e23\u0e13\u0e30"}}, {"type": "node", "id": 13175508523, "lat": 13.8201457, "lon": 100.5110817, "tags": {"historic": "wayside_shrine"}}, {"type": "node", "id": 13175508586, "lat": 13.819451, "lon": 100.5122357, "tags": {"historic": "wayside_shrine"}}, {"type": "node", "id": 13186208373, "lat": 13.8384806, "lon": 100.5468297, "tags": {"historic": "wayside_shrine"}}, {"type": "way", "id": 23487332, "nodes": [254350025, 10983768203, 254350026, 972475410, 972475408, 972475405, 254350028, 11978240080, 254350029, 981019718, 981099107, 981099194, 254350030, 254350031, 254350032, 254350033, 254350035, 254350036, 254351626, 254351625, 254351624, 254351623, 254350041, 981174132, 981174207, 981174204, 254350025], "tags": {"addr:street": "\u0e16\u0e19\u0e19\u0e01\u0e33\u0e41\u0e1e\u0e07\u0e40\u0e1e\u0e0a\u0e23 2", "leisure": "park", "name": "\u0e2a\u0e27\u0e19\u0e2a\u0e21\u0e40\u0e14\u0e47\u0e08\u0e1e\u0e23\u0e30\u0e19\u0e32\u0e07\u0e40\u0e08\u0e49\u0e32\u0e2a\u0e34\u0e23\u0e34\u0e01\u0e34\u0e15\u0e34\u0e4c\u0e2f", "name:en": "Queen Sirikit Park", "name:etymology:wikidata": "Q164518", "name:th": "\u0e2a\u0e27\u0e19\u0e2a\u0e21\u0e40\u0e14\u0e47\u0e08\u0e1e\u0e23\u0e30\u0e19\u0e32\u0e07\u0e40\u0e08\u0e49\u0e32\u0e2a\u0e34\u0e23\u0e34\u0e01\u0e34\u0e15\u0e34\u0e4c\u0e2f", "opening_hours": "05:00-19:00", "short_name": "\u0e2a\u0e27\u0e19\u0e2a\u0e34\u0e23\u0e34\u0e01\u0e34\u0e15\u0e34\u0e4c", "source": "Yahoo Aerial", "website": "http://203.155.220.217/office/ppdd/publicpark/thai/2011/park06.asp", "wikidata": "Q2915575", "wikimedia_commons": "Category:Queen Sirikit Park, Bangkok", "wikipedia": "th:\u0e2a\u0e27\u0e19\u0e2a\u0e21\u0e40\u0e14\u0e47\u0e08\u0e1e\u0e23\u0e30\u0e19\u0e32\u0e07\u0e40\u0e08\u0e49\u0e32\u0e2a\u0e34\u0e23\u0e34\u0e01\u0e34\u0e15\u0e34\u0e4c\u0e2f"}}, {"type": "way", "id": 37911198, "nodes": [444983283, 4634847658, 4634847657, 4634847656, 4634847655, 4634847654, 4634847653, 4634847652, 11360462973, 1357763501, 444983299, 1357763622, 11360462972, 4616441921, 11360463089, 4634847651, 4634847650, 4634847649, 11360463086, 4371519090, 11360463084, 4634847648, 4634847647, 1357763648, 11360463083, 4616441920, 12785464776, 12785464777, 11360463041, 4634847646, 4634847645, 4634847644, 444983307, 1357763653, 1357763616, 11360463035, 4634847643, 11360463047, 444983311, 11360463046, 11360463045, 4634847641, 4634847642, 11360463048, 4634847639, 4634847640, 444983314, 4634847638, 11360463058, 4634847637, 4634847636, 4634847635, 4634847634, 11360463056, 11360463053, 4616441922, 11360463069, 5737849064, 5737849061, 4634847667, 5737849065, 444983318, 4634847666, 4634847665, 4634847664, 4634847663, 4634847662, 4634847661, 4634847660, 4634847659, 444983283], "tags": {"alt_name": "\u0e08\u0e15\u0e38\u0e08\u0e31\u0e01\u0e23", "alt_name:en": "JJ Market;Chatuchak Weekend Market", "alt_name:th": "\u0e08\u0e15\u0e38\u0e08\u0e31\u0e01\u0e23", "amenity": "marketplace", "landuse": "retail", "name": "\u0e15\u0e25\u0e32\u0e14\u0e19\u0e31\u0e14\u0e08\u0e15\u0e38\u0e08\u0e31\u0e01\u0e23", "name:en": "Chatuchak Market", "name:es": "Mercado Chatuchak", "name:fr": "Chatuchak Market", "name:ja": "\u30c1\u30e3\u30c8\u30c1\u30e3\u30c3\u30af \u30a6\u30a3\u30fc\u30af\u30a8\u30f3\u30c9\u30de\u30fc\u30b1\u30c3\u30c8", "name:km": "\u1795\u17d2\u179f\u17b6\u179a\u1785\u178f\u17bb\u1785\u1780\u17d2\u179a", "name:ko": "\uc9dc\ub69c\uc9dd \uc2dc\uc7a5", "name:pt": "Chatuchak", "name:th": "\u0e15\u0e25\u0e32\u0e14\u0e19\u0e31\u0e14\u0e08\u0e15\u0e38\u0e08\u0e31\u0e01\u0e23", "name:zh": "\u6070\u5716\u6070\u5047\u65e5\u5e02\u96c6", "opening_hours": "Sa-Su 09:00-18:00; We-Th 07:00-18:00; Fr 18:00-00:00", "tourism": "attraction", "website": "https://www.chatuchakmarket.org", "wikidata": "Q1068311", "wikimedia_commons": "Category:Jatujak Market", "wikipedia": "th:\u0e15\u0e25\u0e32\u0e14\u0e19\u0e31\u0e14\u0e08\u0e15\u0e38\u0e08\u0e31\u0e01\u0e23"}}, {"type": "way", "id": 121239921, "nodes": [1357777493, 1357777515, 1357777504, 1357777524, 1357777530, 1357777493], "tags": {"landuse": "retail", "name": "\u0e08\u0e15\u0e38\u0e08\u0e31\u0e01\u0e23\u0e1e\u0e25\u0e32\u0e0b\u0e48\u0e32", "name:en": "JatuJak Plaza", "name:es": "Plaza Chatuchak", "name:km": "\u1785\u178f\u17bb\u1785\u1780\u17d2\u179a\u1795\u17d2\u179b\u17b6\u17a0\u17d2\u179f\u17b6", "tourism": "attraction"}}, {"type": "way", "id": 158916747, "nodes": [1710382757, 6346684834, 6346514820, 6346684835, 6346514812, 6346514813, 6346514807, 6346514811, 6346514810, 6346514809, 6346514808, 6346514806, 6346514805, 6346514819, 3945953755, 6346514804, 6346514803, 6346514802, 3945953749, 1710382669, 1710382672, 1710382690, 6346514793, 6346514794, 6346514796, 6346514797, 6346514798, 6346514818, 6346514799, 6346514800, 6346514795, 6346514801, 1710382757], "tags": {"amenity": "marketplace", "building": "yes", "source": "Bing"}}, {"type": "way", "id": 169000944, "nodes": [1801770671, 1801770685, 1801770670, 1801770671], "tags": {"leisure": "park", "name": "\u0e2a\u0e27\u0e19\u0e1b\u0e48\u0e32\u0e1b\u0e23\u0e30\u0e0a\u0e32\u0e0a\u0e37\u0e48\u0e19", "name:en": "Prachachuen Forest Park", "name:th": "\u0e2a\u0e27\u0e19\u0e1b\u0e48\u0e32\u0e1b\u0e23\u0e30\u0e0a\u0e32\u0e0a\u0e37\u0e48\u0e19"}}, {"type": "way", "id": 169000950, "nodes": [1801770667, 1801770678, 1801770676, 1801770677, 1801770679, 1801770680, 1801770673, 1801770672, 1801770683, 1801770682, 1801770674, 1801770684, 1801770669, 1801770675, 1801770667], "tags": {"leisure": "park", "name": "\u0e2a\u0e27\u0e19\u0e1b\u0e48\u0e32\u0e1b\u0e23\u0e30\u0e0a\u0e32\u0e19\u0e34\u0e40\u0e27\u0e28\u0e19\u0e4c", "name:en": "Pracha Niwet Nutures Garden", "name:th": "\u0e2a\u0e27\u0e19\u0e1b\u0e48\u0e32\u0e1b\u0e23\u0e30\u0e0a\u0e32\u0e19\u0e34\u0e40\u0e27\u0e28\u0e19\u0e4c"}}, {"type": "way", "id": 196824069, "nodes": [2071183954, 13184555850, 13184429897, 13184429898, 8015216274, 13184429899, 13184429900, 13184429901, 1710467179, 1710467351, 13184429902, 2071183955, 13184430010, 1710467193, 2071183953, 8015216265, 1710467405, 13184430011, 8015216263, 10855617063, 13184430014, 13184555849, 2071183954], "tags": {"amenity": "marketplace", "name": "Bonmarche Market"}}, {"type": "way", "id": 199806287, "nodes": [2098041851, 2098041826, 2098041817, 2098041809, 2098041804, 2098041799, 2098041785, 2098041777, 2098041771, 2098041766, 2098041764, 6380746843, 6380746842, 2098041765, 2098041769, 2098041772, 2098041776, 2098041778, 2098041781, 2098041788, 2098041793, 2098041796, 2098041812, 2098041821, 2098041843, 2098041840, 2098041855, 2098041851], "tags": {"leisure": "park"}}, {"type": "way", "id": 352097810, "nodes": [3578653103, 3578653104, 3578653105, 3578653106, 3578653107, 2615199416, 1712330543, 2615199415, 1712330687, 3578653108, 3578653103], "tags": {"amenity": "place_of_worship", "denomination": "thai_mahanikaya", "name": "\u0e27\u0e31\u0e14\u0e25\u0e32\u0e19\u0e19\u0e32\u0e1a\u0e38\u0e0d", "name:en": "Wat Lannaboon", "name:th": "\u0e27\u0e31\u0e14\u0e25\u0e32\u0e19\u0e19\u0e32\u0e1a\u0e38\u0e0d", "religion": "buddhist", "wikidata": "Q99829991"}}, {"type": "way", "id": 376311197, "nodes": [3797531534, 3797531536, 249793376, 249793375, 249793374, 9256169086, 3797531524, 9256169082, 9256169083, 4708870699, 6215211209, 6215211208, 9256169084, 9256169087, 9256169085, 3797531534], "tags": {"amenity": "place_of_worship", "denomination": "thai_mahanikaya", "name": "\u0e27\u0e31\u0e14\u0e27\u0e34\u0e21\u0e38\u0e15\u0e22\u0e32\u0e23\u0e32\u0e21", "name:en": "Wat Wimuttayaram", "name:th": "\u0e27\u0e31\u0e14\u0e27\u0e34\u0e21\u0e38\u0e15\u0e22\u0e32\u0e23\u0e32\u0e21", "religion": "buddhist", "wikidata": "Q98108765", "wikipedia": "th:\u0e27\u0e31\u0e14\u0e27\u0e34\u0e21\u0e38\u0e15\u0e22\u0e32\u0e23\u0e32\u0e21"}}, {"type": "way", "id": 376311200, "nodes": [3797531475, 3802422782, 9256169076, 9256169077, 3797531473, 9256169078, 9256169079, 9256169080, 9256169081, 3797531467, 3797531470, 3802422775, 3802422777, 3802422781, 3797531475], "tags": {"alt_name": "\u0e27\u0e31\u0e14\u0e1a\u0e32\u0e07\u0e2d\u0e49\u0e2d", "alt_name:en": "Wat Bang O", "alt_name:th": "\u0e27\u0e31\u0e14\u0e1a\u0e32\u0e07\u0e2d\u0e49\u0e2d", "amenity": "place_of_worship", "denomination": "thai_mahanikaya", "name": "\u0e27\u0e31\u0e14\u0e09\u0e31\u0e15\u0e23\u0e41\u0e01\u0e49\u0e27\u0e08\u0e07\u0e01\u0e25\u0e13\u0e35", "name:en": "Wat Chat Kaeo Chongkonlani", "name:th": "\u0e27\u0e31\u0e14\u0e09\u0e31\u0e15\u0e23\u0e41\u0e01\u0e49\u0e27\u0e08\u0e07\u0e01\u0e25\u0e13\u0e35", "religion": "buddhist", "wikidata": "Q99324854", "wikimedia_commons": "Category:Wat Chat Kaeo Chongkonni", "wikipedia": "th:\u0e27\u0e31\u0e14\u0e09\u0e31\u0e15\u0e23\u0e41\u0e01\u0e49\u0e27\u0e08\u0e07\u0e01\u0e25\u0e13\u0e35"}}, {"type": "way", "id": 376311202, "nodes": [3797531557, 3797531558, 3797531556, 3797531555, 3797531552, 3797531557], "tags": {"amenity": "place_of_worship", "name": "\u0e27\u0e31\u0e14\u0e25\u0e38\u0e48\u0e21\u0e04\u0e07\u0e04\u0e32\u0e23\u0e32\u0e21", "name:en": "Wat Lum Khong Kharam", "name:th": "\u0e27\u0e31\u0e14\u0e25\u0e38\u0e48\u0e21\u0e04\u0e07\u0e04\u0e32\u0e23\u0e32\u0e21", "religion": "buddhist", "wikidata": "Q99641732"}}, {"type": "way", "id": 376466916, "nodes": [3798784492, 3798784489, 3798784486, 3798784487, 3798784491, 3798784492], "tags": {"amenity": "place_of_worship", "denomination": "thai_mahanikaya", "name": "\u0e27\u0e31\u0e14\u0e01\u0e33\u0e41\u0e1e\u0e07", "name:en": "Wat Kamphaeng", "name:th": "\u0e27\u0e31\u0e14\u0e01\u0e33\u0e41\u0e1e\u0e07", "religion": "buddhist", "wikidata": "Q99628489", "wikimedia_commons": "Category:Wat Kamphaeng, Nonthaburi province"}}, {"type": "way", "id": 376679542, "nodes": [249796366, 249796367, 3800771053, 249796369, 249796370, 249796371, 249796372, 249796373, 249796374, 3800771051, 3800771054, 3800771055, 3800771257, 3800771056, 249796366], "tags": {"amenity": "place_of_worship", "denomination": "thai_thammayut", "name": "\u0e27\u0e31\u0e14\u0e40\u0e02\u0e21\u0e32\u0e20\u0e34\u0e23\u0e15\u0e32\u0e23\u0e32\u0e21\u0e23\u0e32\u0e0a\u0e27\u0e23\u0e27\u0e34\u0e2b\u0e32\u0e23", "name:en": "Wat Khema Phirataram Ratchaworawihan", "name:th": "\u0e27\u0e31\u0e14\u0e40\u0e02\u0e21\u0e32\u0e20\u0e34\u0e23\u0e15\u0e32\u0e23\u0e32\u0e21\u0e23\u0e32\u0e0a\u0e27\u0e23\u0e27\u0e34\u0e2b\u0e32\u0e23", "religion": "buddhist", "wikidata": "Q1675709", "wikimedia_commons": "Category:Wat Khema Phirataram, Nonthaburi", "wikipedia": "th:\u0e27\u0e31\u0e14\u0e40\u0e02\u0e21\u0e32\u0e20\u0e34\u0e23\u0e15\u0e32\u0e23\u0e32\u0e21\u0e23\u0e32\u0e0a\u0e27\u0e23\u0e27\u0e34\u0e2b\u0e32\u0e23"}}, {"type": "way", "id": 376679544, "nodes": [3800771000, 3800770998, 3800770999, 3800771002, 3800771001, 3800771000], "tags": {"alt_name": "\u0e27\u0e31\u0e14\u0e0d\u0e27\u0e19\u0e1a\u0e32\u0e07\u0e42\u0e1e", "alt_name:en": "Wat Yuan Bang Pho", "alt_name:th": "\u0e27\u0e31\u0e14\u0e0d\u0e27\u0e19\u0e1a\u0e32\u0e07\u0e42\u0e1e", "amenity": "place_of_worship", "denomination": "mahayana", "name": "\u0e27\u0e31\u0e14\u0e2d\u0e19\u0e31\u0e21\u0e19\u0e34\u0e01\u0e32\u0e22\u0e32\u0e23\u0e32\u0e21", "name:en": "Wat Anam Nikayaram", "name:th": "\u0e27\u0e31\u0e14\u0e2d\u0e19\u0e31\u0e21\u0e19\u0e34\u0e01\u0e32\u0e22\u0e32\u0e23\u0e32\u0e21", "religion": "buddhist"}}, {"type": "way", "id": 376679545, "nodes": [3800771049, 3800771048, 3802203815, 3800771043, 3800771042, 3800771044, 3800771045, 3800771049], "tags": {"amenity": "place_of_worship", "denomination": "thai_mahanikaya", "name": "\u0e27\u0e31\u0e14\u0e1e\u0e25\u0e31\u0e1a\u0e1e\u0e25\u0e32", "name:en": "Wat Phlap Phla", "name:th": "\u0e27\u0e31\u0e14\u0e1e\u0e25\u0e31\u0e1a\u0e1e\u0e25\u0e32", "religion": "buddhist", "wikidata": "Q99628278"}}, {"type": "way", "id": 376679546, "nodes": [3800770996, 3800770995, 3800770997, 3800770991, 3802169713, 3800770992, 3800770993, 3800770994, 3800770996], "tags": {"amenity": "place_of_worship", "name": "\u0e27\u0e31\u0e14\u0e40\u0e0a\u0e34\u0e07\u0e01\u0e23\u0e30\u0e1a\u0e37\u0e2d", "name:en": "Wat Choeng Krabue", "religion": "buddhist", "wikidata": "Q99641730"}}, {"type": "way", "id": 376679547, "nodes": [249796478, 249796475, 249796474, 5629708570, 3800771013, 3800771017, 5629708571, 3800771025, 5629708572, 3800771004, 5629708568, 3800771003, 5629708569, 249796478], "tags": {"amenity": "place_of_worship", "denomination": "thai_mahanikaya", "name": "\u0e27\u0e31\u0e14\u0e2a\u0e23\u0e49\u0e2d\u0e22\u0e17\u0e2d\u0e07", "name:en": "Wat Soi Thong", "name:th": "\u0e27\u0e31\u0e14\u0e2a\u0e23\u0e49\u0e2d\u0e22\u0e17\u0e2d\u0e07", "religion": "buddhist", "wikidata": "Q16004381", "wikimedia_commons": "Category:Wat Soi Thong", "wikipedia": "en:Wat Soi Thong"}}, {"type": "way", "id": 376679549, "nodes": [3800771040, 3800771041, 3800771052, 3802203820, 3802203821, 3800771050, 3800771047, 3800771046, 3800771040], "tags": {"amenity": "place_of_worship", "denomination": "thai_mahanikaya", "name": "\u0e27\u0e31\u0e14\u0e1b\u0e32\u0e01\u0e19\u0e49\u0e33\u0e19\u0e19\u0e17\u0e1a\u0e38\u0e23\u0e35", "name:en": "Wat Paknam Nonthaburi", "name:th": "\u0e27\u0e31\u0e14\u0e1b\u0e32\u0e01\u0e19\u0e49\u0e33\u0e19\u0e19\u0e17\u0e1a\u0e38\u0e23\u0e35", "religion": "buddhist", "wikidata": "Q99459281", "wikimedia_commons": "Category:Wat Pak Nam, Nonthaburi"}}, {"type": "way", "id": 376679550, "nodes": [3800771038, 3800771035, 3800771034, 12973804490, 12973804440, 12973804457, 3800771032, 12973804441, 12973804442, 12973804562, 12973804563, 12973804443, 3800771033, 3800771036, 3800771037, 3800771039, 5889558742, 3593967398, 12973804517, 3593967394, 3800771038], "tags": {"amenity": "place_of_worship", "denomination": "thai_mahanikaya", "loc_name": "\u0e27\u0e31\u0e14\u0e40\u0e2a\u0e32\u0e2b\u0e34\u0e19", "name": "\u0e27\u0e31\u0e14\u0e1b\u0e23\u0e30\u0e0a\u0e32\u0e28\u0e23\u0e31\u0e17\u0e18\u0e32\u0e18\u0e23\u0e23\u0e21", "name:en": "Wat Pracha Sattha Tham", "name:th": "\u0e27\u0e31\u0e14\u0e1b\u0e23\u0e30\u0e0a\u0e32\u0e28\u0e23\u0e31\u0e17\u0e18\u0e32\u0e18\u0e23\u0e23\u0e21", "religion": "buddhist", "wikidata": "Q100698766", "wikimedia_commons": "Category:Wat Pracha Sattha Tham, Bangkok", "wikipedia": "th:\u0e27\u0e31\u0e14\u0e1b\u0e23\u0e30\u0e0a\u0e32\u0e28\u0e23\u0e31\u0e17\u0e18\u0e32\u0e18\u0e23\u0e23\u0e21 (\u0e01\u0e23\u0e38\u0e07\u0e40\u0e17\u0e1e\u0e21\u0e2b\u0e32\u0e19\u0e04\u0e23)"}}, {"type": "way", "id": 481502010, "nodes": [4744307417, 4744307418, 4744307419, 4744307420, 4744328421, 4744328422, 4744328423, 4744328424, 4744307417], "tags": {"leisure": "park"}}, {"type": "way", "id": 481502011, "nodes": [4744328425, 4744328426, 4744328427, 4744328428, 4744328429, 4744328430, 4744328431, 4744328432, 4744328433, 4744328434, 4744328435, 4744328436, 4744328425], "tags": {"leisure": "park"}}, {"type": "way", "id": 544273703, "nodes": [5261452891, 5261452892, 5261452893, 5261452894, 5261452891], "tags": {"addr:city": "\u0e15\u0e33\u0e1a\u0e25\u0e1a\u0e32\u0e07\u0e40\u0e02\u0e19", "addr:postcode": "11000", "addr:street": "\u0e0b\u0e2d\u0e22\u0e14\u0e27\u0e07\u0e21\u0e13\u0e35", "amenity": "place_of_worship", "building": "yes", "name": "\u0e2d\u0e38\u0e42\u0e1a\u0e2a\u0e16\u0e27\u0e31\u0e14\u0e1e\u0e38\u0e17\u0e18\u0e1b\u0e31\u0e0d\u0e0d\u0e32", "name:en": "Wat Phuttha Panya", "name:th": "\u0e2d\u0e38\u0e42\u0e1a\u0e2a\u0e16\u0e27\u0e31\u0e14\u0e1e\u0e38\u0e17\u0e18\u0e1b\u0e31\u0e0d\u0e0d\u0e32", "religion": "buddhist", "wikidata": "Q99628497"}}, {"type": "way", "id": 544275352, "nodes": [5261472552, 5261472553, 5261472554, 313272316, 5261472555, 5261472556, 5261472557, 5394915650, 5261472558, 5261472559, 5261472552], "tags": {"landuse": "recreation_ground", "leisure": "park", "name": "\u0e2a\u0e27\u0e19\u0e01\u0e35\u0e2c\u0e32 \u0e01\u0e23\u0e30\u0e17\u0e23\u0e27\u0e07\u0e2a\u0e32\u0e18\u0e32\u0e23\u0e13\u0e2a\u0e38\u0e02", "name:th": "\u0e2a\u0e27\u0e19\u0e01\u0e35\u0e2c\u0e32 \u0e01\u0e23\u0e30\u0e17\u0e23\u0e27\u0e07\u0e2a\u0e32\u0e18\u0e32\u0e23\u0e13\u0e2a\u0e38\u0e02"}}, {"type": "way", "id": 544275357, "nodes": [5261472564, 5261472565, 5261472566, 5261472567, 5261472568, 5261472569, 5406423152, 5406423153, 5261472571, 5261472564], "tags": {"landuse": "recreation_ground", "leisure": "park", "name": "\u0e2a\u0e27\u0e19\u0e2a\u0e21\u0e38\u0e19\u0e44\u0e1e\u0e23\u0e44\u0e17\u0e22 \u0e2b\u0e25\u0e31\u0e07\u0e01\u0e23\u0e21\u0e01\u0e32\u0e23\u0e41\u0e1e\u0e17\u0e22\u0e4c"}}, {"type": "way", "id": 545151742, "nodes": [5269119794, 5269119795, 5269119796, 5269119797, 5269119798, 5269119799, 5269119800, 5269119801, 5269119802, 5269119803, 5269119804, 5269119805, 5269119794], "tags": {"leisure": "park", "name": "\u0e2a\u0e27\u0e19\u0e19\u0e49\u0e33\u0e1e\u0e23\u0e30\u0e17\u0e31\u0e22", "name:en": "EGAT Eco Park", "name:th": "\u0e2a\u0e27\u0e19\u0e19\u0e49\u0e33\u0e1e\u0e23\u0e30\u0e17\u0e31\u0e22"}}, {"type": "way", "id": 555886241, "nodes": [5362709653, 5362715598, 5362715599, 5362715600, 5362715601, 5362715602, 13184429827, 5362715603, 5362709653], "tags": {"leisure": "park", "name": "\u0e2a\u0e27\u0e19\u0e2a\u0e32\u0e18\u0e32\u0e23\u0e13\u0e30\u0e2b\u0e21\u0e39\u0e48\u0e1a\u0e49\u0e32\u0e19\u0e0b\u0e34\u0e40\u0e21\u0e19\u0e15\u0e4c\u0e44\u0e17\u0e22", "name:th": "\u0e2a\u0e27\u0e19\u0e2a\u0e32\u0e18\u0e32\u0e23\u0e13\u0e30\u0e2b\u0e21\u0e39\u0e48\u0e1a\u0e49\u0e32\u0e19\u0e0b\u0e34\u0e40\u0e21\u0e19\u0e15\u0e4c\u0e44\u0e17\u0e22"}}, {"type": "way", "id": 555904426, "nodes": [7896282412, 7896282411, 7896282417, 7896420636, 1704105426, 7896282412], "tags": {"leisure": "park", "name": "Pibul Garden Ville's Main Park"}}, {"type": "way", "id": 560610616, "nodes": [5406423134, 5406423135, 5406423136, 5406423137, 5406423134], "tags": {"addr:city": "\u0e15\u0e33\u0e1a\u0e25\u0e1a\u0e32\u0e07\u0e40\u0e02\u0e19", "addr:housenumber": "88/23", "addr:postcode": "11000", "building": "yes", "name": "\u0e1e\u0e34\u0e1e\u0e34\u0e18\u0e20\u0e31\u0e13\u0e11\u0e4c\u0e41\u0e1e\u0e17\u0e22\u0e4c\u0e41\u0e1c\u0e19\u0e44\u0e17\u0e22", "opening_hours": "Mo-Sa 08:00-16:00", "tourism": "museum"}}, {"type": "way", "id": 560610617, "nodes": [5406423138, 5406423139, 5406423140, 5406423141, 5406423138], "tags": {"amenity": "cafe", "building": "yes", "cuisine": "coffee_shop;thai;italian", "internet_access": "wlan", "internet_access:fee": "no", "name": "Black Canyon Coffee", "opening_hours": "Mo-Sa 08:00-20:00", "outdoor_seating": "yes", "smoking": "outside"}}, {"type": "way", "id": 589549221, "nodes": [3800771013, 5629708570, 5629742375, 5629742376, 5629742382, 5629742377, 5629742378, 5629742379, 5629742380, 5629742381, 3800771017, 3800771013], "tags": {"addr:housenumber": "1333", "addr:street": "\u0e16\u0e19\u0e19\u0e1b\u0e23\u0e30\u0e0a\u0e32\u0e23\u0e32\u0e29\u0e0e\u0e23\u0e4c \u0e2a\u0e32\u0e221", "amenity": "school", "denomination": "theravada", "name": "\u0e42\u0e23\u0e07\u0e40\u0e23\u0e35\u0e22\u0e19\u0e27\u0e31\u0e14\u0e2a\u0e23\u0e49\u0e2d\u0e22\u0e17\u0e2d\u0e07", "name:en": "Wat Soi Thong School", "name:th": "\u0e42\u0e23\u0e07\u0e40\u0e23\u0e35\u0e22\u0e19\u0e27\u0e31\u0e14\u0e2a\u0e23\u0e49\u0e2d\u0e22\u0e17\u0e2d\u0e07", "operator": "Bangkok Metropolitan Administration", "religion": "buddhist"}}, {"type": "way", "id": 719108840, "nodes": [6751832908, 6751832909, 6751832910, 6751832911, 6751832908], "tags": {"amenity": "marketplace", "building": "roof", "name": "\u0e15\u0e25\u0e32\u0e14\u0e19\u0e31\u0e14\u0e42\u0e23\u0e07\u0e1e\u0e22\u0e32\u0e1a\u0e32\u0e25\u0e22\u0e31\u0e19\u0e2e\u0e35", "name:en": "Yanhee Hospital Marketplace", "name:th": "\u0e15\u0e25\u0e32\u0e14\u0e19\u0e31\u0e14\u0e42\u0e23\u0e07\u0e1e\u0e22\u0e32\u0e1a\u0e32\u0e25\u0e22\u0e31\u0e19\u0e2e\u0e35"}}, {"type": "way", "id": 788316494, "nodes": [7370334809, 7370334810, 7370334811, 7370334812, 7370334809], "tags": {"historic": "memorial", "name": "\u0e2d\u0e19\u0e38\u0e2a\u0e32\u0e27\u0e23\u0e35\u0e22\u0e4c \u0e23\u0e31\u0e0a\u0e01\u0e32\u0e25\u0e17\u0e35\u0e48 \u0e55"}}, {"type": "way", "id": 907642008, "nodes": [8428033343, 8428033344, 8428033345, 8428033346, 8428033343], "tags": {"addr:city": "\u0e41\u0e02\u0e27\u0e07\u0e1a\u0e32\u0e07\u0e2d\u0e49\u0e2d", "addr:postcode": "10700", "amenity": "cafe", "building": "yes", "cuisine": "\u0e34beverage;bekery_halal;coffee_shop", "internet_access": "yes", "name": "milk land meeting mall \u0e1a\u0e32\u0e07\u0e2d\u0e49\u0e2d", "opening_hours": "Mo-Su 10:00-20:00", "outdoor_seating": "yes"}}, {"type": "way", "id": 986168004, "nodes": [9116353207, 9116353208, 9116353209, 9116353210, 9116353211, 9116353207], "tags": {"leisure": "park", "name": "\u0e25\u0e32\u0e19\u0e40\u0e09\u0e25\u0e34\u0e21\u0e1e\u0e23\u0e30\u0e40\u0e01\u0e35\u0e22\u0e23\u0e15\u0e34", "name:en": "Chalerm Prakiat Park"}}, {"type": "way", "id": 1003930520, "nodes": [249796566, 9263476971, 9263476972, 9263476973, 12147555516, 9263476974, 9263476975, 9263476976, 1708045629, 1708045616, 1708045524, 1708045621, 249796560, 9064447820, 249796561, 249796562, 249796563, 249796564, 249796565, 249796566], "tags": {"amenity": "place_of_worship", "denomination": "thai_mahanikaya", "name": "\u0e27\u0e31\u0e14\u0e41\u0e01\u0e49\u0e27\u0e1f\u0e49\u0e32\u0e08\u0e38\u0e2c\u0e32\u0e21\u0e13\u0e35", "name:en": "Wat Kaeo Fa Chulamani", "name:th": "\u0e27\u0e31\u0e14\u0e41\u0e01\u0e49\u0e27\u0e1f\u0e49\u0e32\u0e08\u0e38\u0e2c\u0e32\u0e21\u0e13\u0e35", "religion": "buddhist", "wikidata": "Q99440268", "wikimedia_commons": "Category:Wat Kaeo Fa Chulamani", "wikipedia": "th:\u0e27\u0e31\u0e14\u0e41\u0e01\u0e49\u0e27\u0e1f\u0e49\u0e32\u0e08\u0e38\u0e2c\u0e32\u0e21\u0e13\u0e35"}}, {"type": "way", "id": 1003930522, "nodes": [9263476987, 9263476988, 9263476989, 9263476990, 9263476991, 9263476992, 9263476993, 9263476994, 9263476995, 9263476996, 9263476997, 9263476999, 9263476998, 9263476987], "tags": {"amenity": "place_of_worship", "denomination": "thai_mahanikaya", "name": "\u0e27\u0e31\u0e14\u0e1b\u0e23\u0e30\u0e14\u0e39\u0e48\u0e18\u0e23\u0e23\u0e21\u0e32\u0e18\u0e34\u0e1b\u0e31\u0e15\u0e22\u0e4c", "name:en": "Wat Pradu Thammathipat", "name:th": "\u0e27\u0e31\u0e14\u0e1b\u0e23\u0e30\u0e14\u0e39\u0e48\u0e18\u0e23\u0e23\u0e21\u0e32\u0e18\u0e34\u0e1b\u0e31\u0e15\u0e22\u0e4c", "religion": "buddhist", "wikidata": "Q100698770", "wikipedia": "th:\u0e27\u0e31\u0e14\u0e1b\u0e23\u0e30\u0e14\u0e39\u0e48\u0e18\u0e23\u0e23\u0e21\u0e32\u0e18\u0e34\u0e1b\u0e31\u0e15\u0e22\u0e4c"}}, {"type": "way", "id": 1003930523, "nodes": [9263477000, 9263477001, 9263477002, 9263477003, 9263477004, 9263477005, 9263477006, 9263477007, 9263477000], "tags": {"amenity": "place_of_worship", "denomination": "thai_mahanikaya", "name": "\u0e27\u0e31\u0e14\u0e1a\u0e32\u0e07\u0e42\u0e1e\u0e42\u0e2d\u0e21\u0e32\u0e27\u0e32\u0e2a", "name:en": "Wat Bang Pho Omawat", "name:th": "\u0e27\u0e31\u0e14\u0e1a\u0e32\u0e07\u0e42\u0e1e\u0e42\u0e2d\u0e21\u0e32\u0e27\u0e32\u0e2a", "religion": "buddhist", "wikidata": "Q56528850", "wikimedia_commons": "Category:Wat Bang Pho", "wikipedia": "th:\u0e27\u0e31\u0e14\u0e1a\u0e32\u0e07\u0e42\u0e1e\u0e42\u0e2d\u0e21\u0e32\u0e27\u0e32\u0e2a"}}, {"type": "way", "id": 1003930524, "nodes": [9263477008, 9263477009, 9263477010, 9263477011, 9263477012, 9263477013, 9263477014, 9263477015, 9263477016, 9263477008], "tags": {"amenity": "place_of_worship", "denomination": "thai_mahanikaya", "name": "\u0e27\u0e31\u0e14\u0e40\u0e27\u0e15\u0e27\u0e31\u0e19\u0e18\u0e23\u0e23\u0e21\u0e32\u0e27\u0e32\u0e2a", "name:en": "Wat Wetawan Thammawat", "name:th": "\u0e27\u0e31\u0e14\u0e40\u0e27\u0e15\u0e27\u0e31\u0e19\u0e18\u0e23\u0e23\u0e21\u0e32\u0e27\u0e32\u0e2a", "old_name": "\u0e27\u0e31\u0e14\u0e40\u0e0a\u0e34\u0e07\u0e2b\u0e27\u0e32\u0e22", "old_name:en": "Wat Choengwai", "old_name:th": "\u0e27\u0e31\u0e14\u0e40\u0e0a\u0e34\u0e07\u0e2b\u0e27\u0e32\u0e22", "religion": "buddhist", "wikidata": "Q18337807", "wikimedia_commons": "Category:Wat Wetawan Thammawat", "wikipedia": "th:\u0e27\u0e31\u0e14\u0e40\u0e27\u0e15\u0e27\u0e31\u0e19\u0e18\u0e23\u0e23\u0e21\u0e32\u0e27\u0e32\u0e2a"}}, {"type": "way", "id": 1040731694, "nodes": [9582231010, 9582231011, 9582231012, 9582231013, 9582231010], "tags": {"leisure": "park"}}, {"type": "way", "id": 1225490872, "nodes": [11364682972, 11364682973, 11364682974, 11364682975, 11364682972], "tags": {"addr:city": "\u0e01\u0e23\u0e38\u0e07\u0e40\u0e17\u0e1e\u0e21\u0e2b\u0e32\u0e19\u0e04\u0e23", "addr:housenumber": "1786/1", "addr:postcode": "10800", "addr:street": "\u0e01\u0e23\u0e38\u0e07\u0e40\u0e17\u0e1e-\u0e19\u0e19\u0e17\u0e1a\u0e38\u0e23\u0e35 44", "air_conditioning": "yes", "amenity": "restaurant", "building": "yes", "cuisine": "thai;\u0e2d\u0e32\u0e2b\u0e32\u0e23\u0e44\u0e17\u0e22;\u0e02\u0e49\u0e32\u0e27\u0e15\u0e49\u0e21\u0e23\u0e2d\u0e1a\u0e14\u0e36\u0e01;seafood", "name": "\u0e40\u0e1e\u0e34\u0e48\u0e21\u0e1e\u0e38\u0e07\u0e42\u0e20\u0e0a\u0e19\u0e32", "opening_hours": "16.00-02.00", "takeaway": "yes", "toilets": "yes"}}, {"type": "way", "id": 1308091659, "nodes": [12114126679, 12114126680, 12114126681, 12114126682, 12114126683, 12114126684, 12114126685, 12114126686, 12114126687, 12114126688, 12114126689, 12114126690, 12114126691, 12114126692, 12114126693, 12114126694, 12114126695, 12114126696, 12114126679], "tags": {"leisure": "park"}}, {"type": "way", "id": 1308095832, "nodes": [12114185864, 12114185865, 12114185866, 12114185867, 12114185864], "tags": {"leisure": "park"}}, {"type": "way", "id": 1362288522, "nodes": [12612730004, 12612730005, 12612730006, 12612730007, 12612730008, 12612730004], "tags": {"amenity": "marketplace", "name": "\u0e15\u0e25\u0e32\u0e14\u0e1a\u0e32\u0e07\u0e0b\u0e48\u0e2d\u0e19", "name:en": "Bangson Market", "name:th": "\u0e15\u0e25\u0e32\u0e14\u0e1a\u0e32\u0e07\u0e0b\u0e48\u0e2d\u0e19"}}, {"type": "way", "id": 1377465029, "nodes": [12754506930, 12754506931, 12754506932, 12754506933, 12754506930], "tags": {"amenity": "cafe", "branch": "Starbucks Niche Pride Tao Poon - Interchange", "brand": "Starbucks", "brand:wikidata": "Q37158", "building": "yes", "cuisine": "coffee_shop", "internet_access": "yes", "name": "Starbucks", "official_name": "Starbucks Coffee", "takeaway": "yes"}}, {"type": "way", "id": 1381743951, "nodes": [12792839293, 12792839294, 12792839295, 12792839296, 12792839297, 12792839298, 12792839299, 12792839300, 12793120901, 12793120902, 12793120903, 12793120904, 12793120905, 12793120906, 12792839293], "tags": {"addr:district": "\u0e40\u0e21\u0e37\u0e2d\u0e07\u0e19\u0e19\u0e17\u0e1a\u0e38\u0e23\u0e35", "addr:housenumber": "47", "addr:postcode": "11000", "addr:province": "\u0e19\u0e19\u0e17\u0e1a\u0e38\u0e23\u0e35", "addr:street": "\u0e16\u0e19\u0e19\u0e1e\u0e34\u0e1a\u0e39\u0e25\u0e2a\u0e07\u0e04\u0e23\u0e32\u0e21", "addr:subdistrict": "\u0e2a\u0e27\u0e19\u0e43\u0e2b\u0e0d\u0e48", "amenity": "school", "name": "\u0e42\u0e23\u0e07\u0e40\u0e23\u0e35\u0e22\u0e19\u0e27\u0e31\u0e14\u0e40\u0e02\u0e21\u0e32\u0e20\u0e34\u0e23\u0e15\u0e32\u0e23\u0e32\u0e21", "name:en": "Wat Khemapirataram School", "operator": "\u0e2a\u0e33\u0e19\u0e31\u0e01\u0e07\u0e32\u0e19\u0e04\u0e13\u0e30\u0e01\u0e23\u0e23\u0e21\u0e01\u0e32\u0e23\u0e01\u0e32\u0e23\u0e28\u0e36\u0e01\u0e29\u0e32\u0e02\u0e31\u0e49\u0e19\u0e1e\u0e37\u0e49\u0e19\u0e10\u0e32\u0e19", "operator:type": "government", "religion": "buddhist", "website": "https://www.kma.ac.th/"}}, {"type": "way", "id": 1420928166, "nodes": [13057827863, 7731235195, 3800771021, 13057827866, 13057827863], "tags": {"leisure": "park", "name": "\u0e2a\u0e27\u0e19\u0e2b\u0e22\u0e48\u0e2d\u0e21\u0e42\u0e23\u0e07\u0e40\u0e23\u0e35\u0e22\u0e19\u0e42\u0e22\u0e18\u0e34\u0e19\u0e1a\u0e39\u0e23\u0e13\u0e30"}}, {"type": "way", "id": 1420930041, "nodes": [13057871703, 13057871704, 13059302687, 13059302688, 13057871703], "tags": {"leisure": "park", "name": "\u0e2a\u0e27\u0e19\u0e40\u0e09\u0e25\u0e34\u0e21\u0e1e\u0e23\u0e30\u0e40\u0e01\u0e23\u0e35\u0e22\u0e15\u0e34 \u0e23.10"}}, {"type": "way", "id": 1420939580, "nodes": [13057933824, 13057933825, 13057933826, 13057933827, 13057933824], "tags": {"historic": "monument", "name": "\u0e2d\u0e19\u0e38\u0e2a\u0e32\u0e27\u0e23\u0e35\u0e22\u0e4c\u0e23\u0e31\u0e0a\u0e01\u0e32\u0e25\u0e17\u0e35\u0e48 5"}}, {"type": "way", "id": 1433588374, "nodes": [13175508388, 13175508389, 13175508390, 13175508395, 13175508394, 13175508393, 13175508392, 13175508391, 13175508388], "tags": {"leisure": "park"}}, {"type": "way", "id": 1433798308, "nodes": [13175508670, 1538301988, 13177452514, 13177452544, 13177452515, 13177452516, 13177452517, 13177452518, 13177452519, 13177452520, 13177452521, 13177452522, 13177452523, 13177452524, 13177452525, 13177452526, 13177452527, 13177452528, 13177452529, 13177452530, 13177452531, 13177452532, 13177452533, 13177452534, 13177452535, 13175508666, 13175508667, 13175508668, 13175508669, 13175508670], "tags": {"alt_name": "\u0e27\u0e31\u0e14\u0e19\u0e49\u0e2d\u0e22", "alt_name:en": "Wat Noi", "alt_name:th": "\u0e27\u0e31\u0e14\u0e19\u0e49\u0e2d\u0e22", "amenity": "place_of_worship", "denomination": "thai_thammayut", "name": "\u0e27\u0e31\u0e14\u0e21\u0e31\u0e0a\u0e0c\u0e31\u0e19\u0e15\u0e34\u0e01\u0e32\u0e23\u0e32\u0e21", "name:en": "Wat Matchantikaram", "name:th": "\u0e27\u0e31\u0e14\u0e21\u0e31\u0e0a\u0e0c\u0e31\u0e19\u0e15\u0e34\u0e01\u0e32\u0e23\u0e32\u0e21", "religion": "buddhist", "website": "https://watmatchan.net", "wikidata": "Q17246552", "wikimedia_commons": "Category:Wat Matchanthikaram", "wikipedia": "th:\u0e27\u0e31\u0e14\u0e21\u0e31\u0e0a\u0e0c\u0e31\u0e19\u0e15\u0e34\u0e01\u0e32\u0e23\u0e32\u0e21"}}, {"type": "way", "id": 1433798345, "nodes": [13177452964, 13177453057, 13177453058, 1707656877, 13177452965, 13177452966, 13177452967, 13177453067, 13177452968, 13177452969, 13177452913, 13177452912, 13177452964], "tags": {"amenity": "place_of_worship", "denomination": "thai_mahanikaya", "name": "\u0e27\u0e31\u0e14\u0e40\u0e25\u0e35\u0e22\u0e1a\u0e23\u0e32\u0e29\u0e0f\u0e23\u0e4c\u0e1a\u0e33\u0e23\u0e38\u0e07", "name:en": "Wat Liap Rat Bamrung", "name:th": "\u0e27\u0e31\u0e14\u0e40\u0e25\u0e35\u0e22\u0e1a\u0e23\u0e32\u0e29\u0e0f\u0e23\u0e4c\u0e1a\u0e33\u0e23\u0e38\u0e07", "religion": "buddhist", "wikidata": "Q76298412", "wikimedia_commons": "Category:Wat Liap Rat Bamrung", "wikipedia": "th:\u0e27\u0e31\u0e14\u0e40\u0e25\u0e35\u0e22\u0e1a\u0e23\u0e32\u0e29\u0e0e\u0e23\u0e4c\u0e1a\u0e33\u0e23\u0e38\u0e07"}}, {"type": "way", "id": 1434322102, "nodes": [2465750183, 13183599821, 13183599822, 13183599823, 13183599824, 13183599825, 13183599844, 13183599826, 13183599827, 13183599828, 13183599829, 13183599830, 13183599831, 13183599832, 13183599902, 13183599833, 13183599834, 13183599835, 13183599836, 13183599837, 13183599838, 13183599900, 13183599839, 13183599840, 13183599841, 13183599917, 13183599842, 13183599843, 2465750183], "tags": {"amenity": "place_of_worship", "denomination": "thai_mahanikaya", "name": "\u0e27\u0e31\u0e14\u0e17\u0e2d\u0e07\u0e2a\u0e38\u0e17\u0e18\u0e32\u0e23\u0e32\u0e21", "name:en": "Wat Thong Suttharam", "name:th": "\u0e27\u0e31\u0e14\u0e17\u0e2d\u0e07\u0e2a\u0e38\u0e17\u0e18\u0e32\u0e23\u0e32\u0e21", "religion": "buddhist", "wikidata": "Q99540792", "wikimedia_commons": "Category:Wat Thong Suttharam", "wikipedia": "th:\u0e27\u0e31\u0e14\u0e17\u0e2d\u0e07\u0e2a\u0e38\u0e17\u0e18\u0e32\u0e23\u0e32\u0e21"}}, {"type": "way", "id": 1434553943, "nodes": [13185586568, 13175629413, 13185586580, 13185586575, 13185586576, 13185586577, 13185586578, 13185586579, 13185586568], "tags": {"leisure": "park"}}, {"type": "node", "id": 3800770991, "lat": 13.804831, "lon": 100.5042245}, {"type": "node", "id": 3800770992, "lat": 13.8048621, "lon": 100.5034718}, {"type": "node", "id": 3800770993, "lat": 13.8051421, "lon": 100.5034958}, {"type": "node", "id": 3800770994, "lat": 13.8051602, "lon": 100.5031408}, {"type": "node", "id": 3802169713, "lat": 13.8048034, "lon": 100.5039815}, {"type": "node", "id": 9263476971, "lat": 13.798587, "lon": 100.5178873}, {"type": "node", "id": 6751832908, "lat": 13.8004904, "lon": 100.5111019}, {"type": "node", "id": 6751832909, "lat": 13.8003958, "lon": 100.511258}, {"type": "node", "id": 6751832910, "lat": 13.8002894, "lon": 100.5111842}, {"type": "node", "id": 6751832911, "lat": 13.8003909, "lon": 100.511031}, {"type": "node", "id": 8428033343, "lat": 13.8024469, "lon": 100.5120514}, {"type": "node", "id": 8428033344, "lat": 13.8024169, "lon": 100.512038}, {"type": "node", "id": 8428033345, "lat": 13.8023896, "lon": 100.5120903}, {"type": "node", "id": 8428033346, "lat": 13.8024261, "lon": 100.5121085}, {"type": "node", "id": 249796560, "lat": 13.8000597, "lon": 100.5181428}, {"type": "node", "id": 249796561, "lat": 13.8000223, "lon": 100.5177616}, {"type": "node", "id": 249796562, "lat": 13.7999588, "lon": 100.5176392}, {"type": "node", "id": 249796563, "lat": 13.7994962, "lon": 100.5174215}, {"type": "node", "id": 249796564, "lat": 13.799401, "lon": 100.5174578}, {"type": "node", "id": 249796565, "lat": 13.7993239, "lon": 100.5173625}, {"type": "node", "id": 249796566, "lat": 13.7987999, "lon": 100.5172275}, {"type": "node", "id": 1708045524, "lat": 13.800035, "lon": 100.5183148}, {"type": "node", "id": 1708045616, "lat": 13.8000402, "lon": 100.5185213}, {"type": "node", "id": 1708045621, "lat": 13.800048, "lon": 100.5182236}, {"type": "node", "id": 1708045629, "lat": 13.8000715, "lon": 100.5185669}, {"type": "node", "id": 3797531467, "lat": 13.8008827, "lon": 100.514704}, {"type": "node", "id": 3797531470, "lat": 13.8011558, "lon": 100.5138182}, {"type": "node", "id": 3797531473, "lat": 13.8016721, "lon": 100.5147847}, {"type": "node", "id": 3797531475, "lat": 13.801783, "lon": 100.5140432}, {"type": "node", "id": 3802422775, "lat": 13.8015779, "lon": 100.5139537}, {"type": "node", "id": 3802422777, "lat": 13.8016929, "lon": 100.5135849}, {"type": "node", "id": 3802422781, "lat": 13.8018924, "lon": 100.5136473}, {"type": "node", "id": 3802422782, "lat": 13.8019008, "lon": 100.5140886}, {"type": "node", "id": 9064447820, "lat": 13.8000635, "lon": 100.5180575}, {"type": "node", "id": 9256169076, "lat": 13.8018829, "lon": 100.5141377}, {"type": "node", "id": 9256169077, "lat": 13.8019152, "lon": 100.5141498}, {"type": "node", "id": 9256169078, "lat": 13.8014217, "lon": 100.5146975}, {"type": "node", "id": 9256169079, "lat": 13.8012046, "lon": 100.5153174}, {"type": "node", "id": 9256169080, "lat": 13.8010514, "lon": 100.5152629}, {"type": "node", "id": 9256169081, "lat": 13.8012068, "lon": 100.5148427}, {"type": "node", "id": 9263476972, "lat": 13.7988986, "lon": 100.5179582}, {"type": "node", "id": 9263476973, "lat": 13.7987937, "lon": 100.5183193}, {"type": "node", "id": 9263476974, "lat": 13.7987188, "lon": 100.5186726}, {"type": "node", "id": 9263476975, "lat": 13.7997852, "lon": 100.5188999}, {"type": "node", "id": 9263476976, "lat": 13.7998556, "lon": 100.5185379}, {"type": "node", "id": 12147555516, "lat": 13.7987794, "lon": 100.5183865}, {"type": "node", "id": 9263476987, "lat": 13.8007964, "lon": 100.5237779}, {"type": "node", "id": 9263476988, "lat": 13.8008222, "lon": 100.523108}, {"type": "node", "id": 9263476989, "lat": 13.8013771, "lon": 100.5231655}, {"type": "node", "id": 9263476990, "lat": 13.8013771, "lon": 100.5231185}, {"type": "node", "id": 9263476991, "lat": 13.8019288, "lon": 100.5231306}, {"type": "node", "id": 9263476992, "lat": 13.8019471, "lon": 100.5235618}, {"type": "node", "id": 9263476993, "lat": 13.8019406, "lon": 100.5240641}, {"type": "node", "id": 9263476994, "lat": 13.801741, "lon": 100.5240506}, {"type": "node", "id": 9263476995, "lat": 13.8016771, "lon": 100.5239969}, {"type": "node", "id": 9263476996, "lat": 13.8013184, "lon": 100.5239083}, {"type": "node", "id": 9263476997, "lat": 13.8013255, "lon": 100.5236447}, {"type": "node", "id": 9263476998, "lat": 13.8010804, "lon": 100.5238489}, {"type": "node", "id": 9263476999, "lat": 13.8010936, "lon": 100.5236249}, {"type": "node", "id": 444983307, "lat": 13.7982417, "lon": 100.5509159}, {"type": "node", "id": 444983311, "lat": 13.7980332, "lon": 100.5506022}, {"type": "node", "id": 444983314, "lat": 13.7979249, "lon": 100.5486024}, {"type": "node", "id": 1357763616, "lat": 13.7981622, "lon": 100.5508172}, {"type": "node", "id": 1357763653, "lat": 13.7981778, "lon": 100.5508399}, {"type": "node", "id": 4634847634, "lat": 13.7986004, "lon": 100.5485811}, {"type": "node", "id": 4634847635, "lat": 13.79853, "lon": 100.5485833}, {"type": "node", "id": 4634847636, "lat": 13.7984727, "lon": 100.5485851}, {"type": "node", "id": 4634847637, "lat": 13.7984141, "lon": 100.5485869}, {"type": "node", "id": 4634847638, "lat": 13.7980221, "lon": 100.5485993}, {"type": "node", "id": 4634847639, "lat": 13.7979451, "lon": 100.549005}, {"type": "node", "id": 4634847640, "lat": 13.7979304, "lon": 100.5487113}, {"type": "node", "id": 4634847641, "lat": 13.7979775, "lon": 100.5496544}, {"type": "node", "id": 4634847642, "lat": 13.7979605, "lon": 100.5493121}, {"type": "node", "id": 4634847643, "lat": 13.7981339, "lon": 100.5507758}, {"type": "node", "id": 11360463035, "lat": 13.7981444, "lon": 100.5507985}, {"type": "node", "id": 11360463045, "lat": 13.7979898, "lon": 100.5498985}, {"type": "node", "id": 11360463046, "lat": 13.798023, "lon": 100.5505608}, {"type": "node", "id": 11360463047, "lat": 13.7980506, "lon": 100.5506401}, {"type": "node", "id": 11360463048, "lat": 13.7979461, "lon": 100.5490254}, {"type": "node", "id": 11360463058, "lat": 13.7983489, "lon": 100.548589}, {"type": "node", "id": 254350028, "lat": 13.8030784, "lon": 100.5517142}, {"type": "node", "id": 254350029, "lat": 13.8033336, "lon": 100.5489507}, {"type": "node", "id": 444983283, "lat": 13.8000684, "lon": 100.5500292}, {"type": "node", "id": 444983318, "lat": 13.8001024, "lon": 100.5485336}, {"type": "node", "id": 981019718, "lat": 13.8033771, "lon": 100.5484268}, {"type": "node", "id": 1357763501, "lat": 13.8028539, "lon": 100.5516614}, {"type": "node", "id": 1357763648, "lat": 13.7996403, "lon": 100.5517604}, {"type": "node", "id": 1357777493, "lat": 13.8013405, "lon": 100.5484881}, {"type": "node", "id": 1357777504, "lat": 13.8010998, "lon": 100.5503223}, {"type": "node", "id": 1357777515, "lat": 13.8013832, "lon": 100.5498514}, {"type": "node", "id": 1357777524, "lat": 13.80022, "lon": 100.5498537}, {"type": "node", "id": 1357777530, "lat": 13.8002182, "lon": 100.5485406}, {"type": "node", "id": 4616441920, "lat": 13.799562, "lon": 100.5517131}, {"type": "node", "id": 4616441922, "lat": 13.7994187, "lon": 100.5485552}, {"type": "node", "id": 4634847644, "lat": 13.7986305, "lon": 100.5511507}, {"type": "node", "id": 4634847645, "lat": 13.7989137, "lon": 100.5513217}, {"type": "node", "id": 4634847646, "lat": 13.7993237, "lon": 100.5515693}, {"type": "node", "id": 4634847647, "lat": 13.7997534, "lon": 100.5518191}, {"type": "node", "id": 4634847652, "lat": 13.8022712, "lon": 100.5513133}, {"type": "node", "id": 4634847653, "lat": 13.8021286, "lon": 100.551228}, {"type": "node", "id": 4634847654, "lat": 13.801803, "lon": 100.5510335}, {"type": "node", "id": 4634847655, "lat": 13.8014264, "lon": 100.5508249}, {"type": "node", "id": 4634847656, "lat": 13.8010808, "lon": 100.5506224}, {"type": "node", "id": 4634847657, "lat": 13.8008379, "lon": 100.5504794}, {"type": "node", "id": 4634847658, "lat": 13.8004529, "lon": 100.5502545}, {"type": "node", "id": 4634847659, "lat": 13.8000691, "lon": 100.5499978}, {"type": "node", "id": 4634847660, "lat": 13.800077, "lon": 100.5496517}, {"type": "node", "id": 4634847661, "lat": 13.8000792, "lon": 100.5495525}, {"type": "node", "id": 4634847662, "lat": 13.800084, "lon": 100.549342}, {"type": "node", "id": 4634847663, "lat": 13.8000921, "lon": 100.5489853}, {"type": "node", "id": 4634847664, "lat": 13.8000958, "lon": 100.5488257}, {"type": "node", "id": 4634847665, "lat": 13.8000977, "lon": 100.5487405}, {"type": "node", "id": 4634847666, "lat": 13.8001009, "lon": 100.5486011}, {"type": "node", "id": 4634847667, "lat": 13.7999993, "lon": 100.5485369}, {"type": "node", "id": 5737849061, "lat": 13.7999835, "lon": 100.5485374}, {"type": "node", "id": 5737849064, "lat": 13.7999233, "lon": 100.5485393}, {"type": "node", "id": 5737849065, "lat": 13.8000693, "lon": 100.5485347}, {"type": "node", "id": 11360462973, "lat": 13.8022876, "lon": 100.5513231}, {"type": "node", "id": 11360463041, "lat": 13.7994597, "lon": 100.5516514}, {"type": "node", "id": 11360463053, "lat": 13.7993176, "lon": 100.5485584}, {"type": "node", "id": 11360463056, "lat": 13.7986986, "lon": 100.548578}, {"type": "node", "id": 11360463069, "lat": 13.7998804, "lon": 100.5485407}, {"type": "node", "id": 11360463083, "lat": 13.7995721, "lon": 100.5517192}, {"type": "node", "id": 11978240080, "lat": 13.8032199, "lon": 100.5501472}, {"type": "node", "id": 12785464776, "lat": 13.799529, "lon": 100.5516932}, {"type": "node", "id": 12785464777, "lat": 13.7994708, "lon": 100.5516563}, {"type": "node", "id": 444983299, "lat": 13.8028507, "lon": 100.5519916}, {"type": "node", "id": 972475405, "lat": 13.8030318, "lon": 100.5519918}, {"type": "node", "id": 972475408, "lat": 13.8032897, "lon": 100.5520489}, {"type": "node", "id": 972475410, "lat": 13.8037944, "lon": 100.5522155}, {"type": "node", "id": 1357763622, "lat": 13.8023446, "lon": 100.5520154}, {"type": "node", "id": 4371519090, "lat": 13.8004839, "lon": 100.5522205}, {"type": "node", "id": 4616441921, "lat": 13.8022363, "lon": 100.5520282}, {"type": "node", "id": 4634847648, "lat": 13.8001333, "lon": 100.5520293}, {"type": "node", "id": 4634847649, "lat": 13.8005939, "lon": 100.5522073}, {"type": "node", "id": 4634847650, "lat": 13.8010621, "lon": 100.552151}, {"type": "node", "id": 4634847651, "lat": 13.8015658, "lon": 100.5520904}, {"type": "node", "id": 11360462972, "lat": 13.8022903, "lon": 100.5520218}, {"type": "node", "id": 11360463084, "lat": 13.8003969, "lon": 100.552173}, {"type": "node", "id": 11360463086, "lat": 13.8005646, "lon": 100.5522108}, {"type": "node", "id": 11360463089, "lat": 13.8021711, "lon": 100.5520342}, {"type": "node", "id": 3800770995, "lat": 13.8056371, "lon": 100.5037093}, {"type": "node", "id": 3800770996, "lat": 13.8056501, "lon": 100.5031755}, {"type": "node", "id": 3800770997, "lat": 13.8057175, "lon": 100.5042298}, {"type": "node", "id": 3797531552, "lat": 13.8155139, "lon": 100.5026006}, {"type": "node", "id": 3797531555, "lat": 13.8156395, "lon": 100.5031067}, {"type": "node", "id": 3797531556, "lat": 13.815862, "lon": 100.5032788}, {"type": "node", "id": 3797531557, "lat": 13.8160002, "lon": 100.5024866}, {"type": "node", "id": 3797531558, "lat": 13.8161601, "lon": 100.50321}, {"type": "node", "id": 5269119794, "lat": 13.8118556, "lon": 100.5040688}, {"type": "node", "id": 5269119795, "lat": 13.811842, "lon": 100.5041716}, {"type": "node", "id": 5269119796, "lat": 13.8129262, "lon": 100.5043847}, {"type": "node", "id": 5269119797, "lat": 13.812824, "lon": 100.5049742}, {"type": "node", "id": 5269119798, "lat": 13.8136228, "lon": 100.5051391}, {"type": "node", "id": 5269119799, "lat": 13.8152432, "lon": 100.505736}, {"type": "node", "id": 5269119800, "lat": 13.8158463, "lon": 100.5045919}, {"type": "node", "id": 5269119801, "lat": 13.8156785, "lon": 100.5044985}, {"type": "node", "id": 5269119802, "lat": 13.8154427, "lon": 100.5043911}, {"type": "node", "id": 5269119803, "lat": 13.8153533, "lon": 100.5047912}, {"type": "node", "id": 5269119804, "lat": 13.8134382, "lon": 100.5044781}, {"type": "node", "id": 5269119805, "lat": 13.8134745, "lon": 100.5041996}, {"type": "node", "id": 249796366, "lat": 13.8219641, "lon": 100.5022039}, {"type": "node", "id": 249796367, "lat": 13.8215976, "lon": 100.5023587}, {"type": "node", "id": 249796369, "lat": 13.8212876, "lon": 100.5025013}, {"type": "node", "id": 249796370, "lat": 13.8210612, "lon": 100.5025752}, {"type": "node", "id": 249796371, "lat": 13.820953, "lon": 100.5026686}, {"type": "node", "id": 249796372, "lat": 13.8208398, "lon": 100.5027277}, {"type": "node", "id": 249796373, "lat": 13.8208841, "lon": 100.5028359}, {"type": "node", "id": 249796374, "lat": 13.8208054, "lon": 100.5029097}, {"type": "node", "id": 3800771041, "lat": 13.8196918, "lon": 100.505957}, {"type": "node", "id": 3800771042, "lat": 13.8197964, "lon": 100.5046314}, {"type": "node", "id": 3800771043, "lat": 13.8198259, "lon": 100.5048004}, {"type": "node", "id": 3800771044, "lat": 13.8198318, "lon": 100.5044902}, {"type": "node", "id": 3800771045, "lat": 13.8198965, "lon": 100.5042357}, {"type": "node", "id": 3800771048, "lat": 13.8205419, "lon": 100.5048955}, {"type": "node", "id": 3800771049, "lat": 13.8206126, "lon": 100.5043308}, {"type": "node", "id": 3800771051, "lat": 13.8207755, "lon": 100.5040236}, {"type": "node", "id": 3800771053, "lat": 13.8213812, "lon": 100.5024302}, {"type": "node", "id": 3800771054, "lat": 13.8217276, "lon": 100.5041159}, {"type": "node", "id": 3800771055, "lat": 13.8219795, "lon": 100.5040982}, {"type": "node", "id": 3800771056, "lat": 13.8219864, "lon": 100.5023574}, {"type": "node", "id": 3800771257, "lat": 13.8220174, "lon": 100.5030893}, {"type": "node", "id": 3802203815, "lat": 13.8198596, "lon": 100.5048049}, {"type": "node", "id": 12792839293, "lat": 13.8238495, "lon": 100.5021809}, {"type": "node", "id": 12792839294, "lat": 13.822578, "lon": 100.5023257}, {"type": "node", "id": 12792839295, "lat": 13.8226139, "lon": 100.5030651}, {"type": "node", "id": 12792839296, "lat": 13.8226139, "lon": 100.50321}, {"type": "node", "id": 12792839297, "lat": 13.8220933, "lon": 100.5032192}, {"type": "node", "id": 12792839298, "lat": 13.8220903, "lon": 100.5037984}, {"type": "node", "id": 12792839299, "lat": 13.8221202, "lon": 100.5038847}, {"type": "node", "id": 12792839300, "lat": 13.8221561, "lon": 100.5039155}, {"type": "node", "id": 12793120901, "lat": 13.8226438, "lon": 100.504125}, {"type": "node", "id": 12793120902, "lat": 13.8227545, "lon": 100.5039987}, {"type": "node", "id": 12793120903, "lat": 13.8229161, "lon": 100.5038601}, {"type": "node", "id": 12793120904, "lat": 13.8231165, "lon": 100.5037522}, {"type": "node", "id": 12793120905, "lat": 13.823296, "lon": 100.5037091}, {"type": "node", "id": 12793120906, "lat": 13.8239333, "lon": 100.5036074}, {"type": "node", "id": 1704105426, "lat": 13.8283437, "lon": 100.5051508}, {"type": "node", "id": 7896282411, "lat": 13.8280009, "lon": 100.5049657}, {"type": "node", "id": 7896282412, "lat": 13.8282049, "lon": 100.5049462}, {"type": "node", "id": 7896282417, "lat": 13.8278477, "lon": 100.5049804}, {"type": "node", "id": 7896420636, "lat": 13.828084, "lon": 100.5053441}, {"type": "node", "id": 2098041764, "lat": 13.8094103, "lon": 100.5104929}, {"type": "node", "id": 2098041765, "lat": 13.8094827, "lon": 100.5102796}, {"type": "node", "id": 2098041766, "lat": 13.8094477, "lon": 100.5105453}, {"type": "node", "id": 2098041769, "lat": 13.8095508, "lon": 100.5102331}, {"type": "node", "id": 2098041771, "lat": 13.8095294, "lon": 100.5105806}, {"type": "node", "id": 2098041772, "lat": 13.8096185, "lon": 100.5101859}, {"type": "node", "id": 2098041776, "lat": 13.809736, "lon": 100.510098}, {"type": "node", "id": 2098041777, "lat": 13.8097126, "lon": 100.5106426}, {"type": "node", "id": 2098041778, "lat": 13.8098006, "lon": 100.5100581}, {"type": "node", "id": 2098041781, "lat": 13.8098468, "lon": 100.5100576}, {"type": "node", "id": 2098041785, "lat": 13.8098498, "lon": 100.5106747}, {"type": "node", "id": 2098041788, "lat": 13.8099026, "lon": 100.5100748}, {"type": "node", "id": 2098041793, "lat": 13.8099704, "lon": 100.5101061}, {"type": "node", "id": 2098041796, "lat": 13.8100937, "lon": 100.5101805}, {"type": "node", "id": 2098041799, "lat": 13.8099717, "lon": 100.5107142}, {"type": "node", "id": 2098041804, "lat": 13.8100819, "lon": 100.5107612}, {"type": "node", "id": 2098041809, "lat": 13.8102088, "lon": 100.5108154}, {"type": "node", "id": 2098041812, "lat": 13.8102728, "lon": 100.5103028}, {"type": "node", "id": 2098041817, "lat": 13.8104101, "lon": 100.5109311}, {"type": "node", "id": 2098041821, "lat": 13.8105568, "lon": 100.5105792}, {"type": "node", "id": 2098041826, "lat": 13.8106691, "lon": 100.5111111}, {"type": "node", "id": 2098041840, "lat": 13.8110018, "lon": 100.5111229}, {"type": "node", "id": 2098041843, "lat": 13.8110326, "lon": 100.5110849}, {"type": "node", "id": 2098041851, "lat": 13.8113838, "lon": 100.511704}, {"type": "node", "id": 2098041855, "lat": 13.811429, "lon": 100.511606}, {"type": "node", "id": 6380746842, "lat": 13.8094309, "lon": 100.5103407}, {"type": "node", "id": 6380746843, "lat": 13.8093997, "lon": 100.5104114}, {"type": "node", "id": 249793374, "lat": 13.8103735, "lon": 100.5157899}, {"type": "node", "id": 249793375, "lat": 13.8104666, "lon": 100.5157567}, {"type": "node", "id": 249793376, "lat": 13.8109452, "lon": 100.5155639}, {"type": "node", "id": 3797531524, "lat": 13.8101769, "lon": 100.5151804}, {"type": "node", "id": 3797531534, "lat": 13.8110619, "lon": 100.5148902}, {"type": "node", "id": 3797531536, "lat": 13.8112355, "lon": 100.5154166}, {"type": "node", "id": 3800770998, "lat": 13.8103854, "lon": 100.5189197}, {"type": "node", "id": 3800771000, "lat": 13.8106918, "lon": 100.5188858}, {"type": "node", "id": 4708870699, "lat": 13.8096776, "lon": 100.5138257}, {"type": "node", "id": 6215211208, "lat": 13.8105123, "lon": 100.5143136}, {"type": "node", "id": 6215211209, "lat": 13.8103569, "lon": 100.5136342}, {"type": "node", "id": 9256169082, "lat": 13.8098699, "lon": 100.51462}, {"type": "node", "id": 9256169083, "lat": 13.8099107, "lon": 100.5146023}, {"type": "node", "id": 9256169084, "lat": 13.8106166, "lon": 100.5142758}, {"type": "node", "id": 9256169085, "lat": 13.8107755, "lon": 100.514988}, {"type": "node", "id": 9256169086, "lat": 13.8102761, "lon": 100.51559}, {"type": "node", "id": 9256169087, "lat": 13.8106323, "lon": 100.5143461}, {"type": "node", "id": 9263477000, "lat": 13.8093478, "lon": 100.5186963}, {"type": "node", "id": 9263477007, "lat": 13.808471, "lon": 100.5187197}, {"type": "node", "id": 249796474, "lat": 13.812751, "lon": 100.5173938}, {"type": "node", "id": 249796475, "lat": 13.812084, "lon": 100.5176135}, {"type": "node", "id": 249796478, "lat": 13.8120094, "lon": 100.5176602}, {"type": "node", "id": 3800771003, "lat": 13.8121466, "lon": 100.5181536}, {"type": "node", "id": 3800771004, "lat": 13.8125008, "lon": 100.5190874}, {"type": "node", "id": 3800771013, "lat": 13.8132975, "lon": 100.5180791}, {"type": "node", "id": 3800771017, "lat": 13.8136385, "lon": 100.5179526}, {"type": "node", "id": 3800771025, "lat": 13.8133768, "lon": 100.5188409}, {"type": "node", "id": 3800771032, "lat": 13.8179345, "lon": 100.5179603}, {"type": "node", "id": 3800771033, "lat": 13.8182652, "lon": 100.5190407}, {"type": "node", "id": 5629708568, "lat": 13.8122461, "lon": 100.5184612}, {"type": "node", "id": 5629708569, "lat": 13.8120499, "lon": 100.5177787}, {"type": "node", "id": 5629708570, "lat": 13.8130238, "lon": 100.5173052}, {"type": "node", "id": 5629708571, "lat": 13.8138565, "lon": 100.5186099}, {"type": "node", "id": 5629708572, "lat": 13.8133461, "lon": 100.5187606}, {"type": "node", "id": 5629742375, "lat": 13.8133975, "lon": 100.5171445}, {"type": "node", "id": 5629742376, "lat": 13.8134417, "lon": 100.5172562}, {"type": "node", "id": 5629742377, "lat": 13.81364, "lon": 100.517411}, {"type": "node", "id": 5629742378, "lat": 13.8136131, "lon": 100.517474}, {"type": "node", "id": 5629742379, "lat": 13.8136025, "lon": 100.5175668}, {"type": "node", "id": 5629742380, "lat": 13.8136034, "lon": 100.5176969}, {"type": "node", "id": 5629742381, "lat": 13.8136126, "lon": 100.5178295}, {"type": "node", "id": 5629742382, "lat": 13.8135497, "lon": 100.5172099}, {"type": "node", "id": 12973804440, "lat": 13.8182526, "lon": 100.517931}, {"type": "node", "id": 12973804441, "lat": 13.8179561, "lon": 100.5180554}, {"type": "node", "id": 12973804442, "lat": 13.817889, "lon": 100.5180834}, {"type": "node", "id": 12973804443, "lat": 13.8181346, "lon": 100.5186999}, {"type": "node", "id": 12973804457, "lat": 13.8180753, "lon": 100.5179397}, {"type": "node", "id": 12973804562, "lat": 13.8180277, "lon": 100.5184315}, {"type": "node", "id": 12973804563, "lat": 13.818092, "lon": 100.5185928}, {"type": "node", "id": 3800770999, "lat": 13.8105362, "lon": 100.5198854}, {"type": "node", "id": 3800771001, "lat": 13.8108755, "lon": 100.5193492}, {"type": "node", "id": 3800771002, "lat": 13.8109439, "lon": 100.5197981}, {"type": "node", "id": 4744307417, "lat": 13.8067773, "lon": 100.5235084}, {"type": "node", "id": 4744307418, "lat": 13.8068134, "lon": 100.5235019}, {"type": "node", "id": 4744307419, "lat": 13.8068439, "lon": 100.5234632}, {"type": "node", "id": 4744307420, "lat": 13.8068471, "lon": 100.5234204}, {"type": "node", "id": 4744328421, "lat": 13.8068291, "lon": 100.5234027}, {"type": "node", "id": 4744328422, "lat": 13.8068009, "lon": 100.5234099}, {"type": "node", "id": 4744328423, "lat": 13.8067797, "lon": 100.5234559}, {"type": "node", "id": 4744328424, "lat": 13.8067734, "lon": 100.523485}, {"type": "node", "id": 4744328425, "lat": 13.806812, "lon": 100.5231953}, {"type": "node", "id": 4744328426, "lat": 13.8069479, "lon": 100.5232083}, {"type": "node", "id": 4744328427, "lat": 13.8069668, "lon": 100.5231907}, {"type": "node", "id": 4744328428, "lat": 13.8069668, "lon": 100.5231601}, {"type": "node", "id": 4744328429, "lat": 13.806965, "lon": 100.523123}, {"type": "node", "id": 4744328430, "lat": 13.8069443, "lon": 100.5231128}, {"type": "node", "id": 4744328431, "lat": 13.8069119, "lon": 100.52311}, {"type": "node", "id": 4744328432, "lat": 13.8068714, "lon": 100.5231138}, {"type": "node", "id": 4744328433, "lat": 13.806839, "lon": 100.5231175}, {"type": "node", "id": 4744328434, "lat": 13.8068228, "lon": 100.5231416}, {"type": "node", "id": 4744328435, "lat": 13.8068084, "lon": 100.5231629}, {"type": "node", "id": 4744328436, "lat": 13.8068012, "lon": 100.5231851}, {"type": "node", "id": 9263477001, "lat": 13.8094053, "lon": 100.5200933}, {"type": "node", "id": 9263477002, "lat": 13.8090286, "lon": 100.5200914}, {"type": "node", "id": 9263477003, "lat": 13.8089752, "lon": 100.519457}, {"type": "node", "id": 9263477004, "lat": 13.8086689, "lon": 100.5194517}, {"type": "node", "id": 9263477005, "lat": 13.8086689, "lon": 100.5193896}, {"type": "node", "id": 9263477006, "lat": 13.8084744, "lon": 100.5193896}, {"type": "node", "id": 12754506930, "lat": 13.8058149, "lon": 100.5320292}, {"type": "node", "id": 12754506931, "lat": 13.8058159, "lon": 100.5321783}, {"type": "node", "id": 12754506932, "lat": 13.8056346, "lon": 100.5320946}, {"type": "node", "id": 12754506933, "lat": 13.8056346, "lon": 100.5320345}, {"type": "node", "id": 3800771021, "lat": 13.8139989, "lon": 100.519973}, {"type": "node", "id": 7731235195, "lat": 13.8142194, "lon": 100.5199132}, {"type": "node", "id": 13057827863, "lat": 13.8141674, "lon": 100.5197394}, {"type": "node", "id": 13057827866, "lat": 13.813889, "lon": 100.5198328}, {"type": "node", "id": 9263477008, "lat": 13.8165045, "lon": 100.528223}, {"type": "node", "id": 9263477009, "lat": 13.8158485, "lon": 100.528415}, {"type": "node", "id": 9263477010, "lat": 13.8153751, "lon": 100.5285017}, {"type": "node", "id": 9263477011, "lat": 13.8152822, "lon": 100.5285811}, {"type": "node", "id": 9263477012, "lat": 13.8152032, "lon": 100.5285934}, {"type": "node", "id": 9263477013, "lat": 13.8154652, "lon": 100.5298458}, {"type": "node", "id": 9263477014, "lat": 13.816768, "lon": 100.529466}, {"type": "node", "id": 9263477015, "lat": 13.8165369, "lon": 100.5286533}, {"type": "node", "id": 9263477016, "lat": 13.8166217, "lon": 100.5286253}, {"type": "node", "id": 3800771040, "lat": 13.8196547, "lon": 100.5063768}, {"type": "node", "id": 3800771046, "lat": 13.8201109, "lon": 100.506641}, {"type": "node", "id": 3800771047, "lat": 13.8203846, "lon": 100.5067467}, {"type": "node", "id": 3800771050, "lat": 13.8214224, "lon": 100.5070286}, {"type": "node", "id": 3800771052, "lat": 13.8208778, "lon": 100.5060392}, {"type": "node", "id": 3802203820, "lat": 13.8207954, "lon": 100.5063756}, {"type": "node", "id": 3802203821, "lat": 13.8216906, "lon": 100.5066252}, {"type": "node", "id": 13175508388, "lat": 13.8239646, "lon": 100.5105269}, {"type": "node", "id": 13175508389, "lat": 13.8237953, "lon": 100.5106972}, {"type": "node", "id": 13175508390, "lat": 13.823936, "lon": 100.5108474}, {"type": "node", "id": 13175508391, "lat": 13.8241053, "lon": 100.5106945}, {"type": "node", "id": 13175508392, "lat": 13.8240644, "lon": 100.5107314}, {"type": "node", "id": 13175508393, "lat": 13.8241529, "lon": 100.5108537}, {"type": "node", "id": 13175508394, "lat": 13.8240624, "lon": 100.5109318}, {"type": "node", "id": 13175508395, "lat": 13.8239951, "lon": 100.5109203}, {"type": "node", "id": 1538301988, "lat": 13.8224696, "lon": 100.5172526}, {"type": "node", "id": 3593967394, "lat": 13.8190276, "lon": 100.5184527}, {"type": "node", "id": 3593967398, "lat": 13.8190158, "lon": 100.518692}, {"type": "node", "id": 3800771034, "lat": 13.8185367, "lon": 100.5179191}, {"type": "node", "id": 3800771035, "lat": 13.8185759, "lon": 100.5179439}, {"type": "node", "id": 3800771036, "lat": 13.8186937, "lon": 100.5189193}, {"type": "node", "id": 3800771038, "lat": 13.8189913, "lon": 100.51838}, {"type": "node", "id": 5889558742, "lat": 13.8190378, "lon": 100.5187936}, {"type": "node", "id": 9116353207, "lat": 13.8200551, "lon": 100.5148801}, {"type": "node", "id": 9116353208, "lat": 13.8199228, "lon": 100.515303}, {"type": "node", "id": 9116353209, "lat": 13.8195912, "lon": 100.5152054}, {"type": "node", "id": 9116353210, "lat": 13.8195636, "lon": 100.5151444}, {"type": "node", "id": 9116353211, "lat": 13.8197037, "lon": 100.514746}, {"type": "node", "id": 12973804490, "lat": 13.8184064, "lon": 100.5179246}, {"type": "node", "id": 12973804517, "lat": 13.8190276, "lon": 100.5185771}, {"type": "node", "id": 13175508666, "lat": 13.8233262, "lon": 100.5171864}, {"type": "node", "id": 13175508667, "lat": 13.8231374, "lon": 100.5171301}, {"type": "node", "id": 13175508668, "lat": 13.8231231, "lon": 100.5171649}, {"type": "node", "id": 13175508669, "lat": 13.8228926, "lon": 100.5170912}, {"type": "node", "id": 13175508670, "lat": 13.8225227, "lon": 100.516996}, {"type": "node", "id": 13177452514, "lat": 13.8224343, "lon": 100.5174317}, {"type": "node", "id": 13177452515, "lat": 13.8221406, "lon": 100.5183729}, {"type": "node", "id": 13177452516, "lat": 13.8220043, "lon": 100.5188109}, {"type": "node", "id": 13177452517, "lat": 13.8224508, "lon": 100.5189827}, {"type": "node", "id": 13177452522, "lat": 13.8229995, "lon": 100.5190517}, {"type": "node", "id": 13177452523, "lat": 13.8227192, "lon": 100.5189372}, {"type": "node", "id": 13177452524, "lat": 13.8228081, "lon": 100.5186204}, {"type": "node", "id": 13177452525, "lat": 13.8227944, "lon": 100.5185817}, {"type": "node", "id": 13177452526, "lat": 13.8228645, "lon": 100.5185307}, {"type": "node", "id": 13177452527, "lat": 13.8230508, "lon": 100.5179622}, {"type": "node", "id": 13177452528, "lat": 13.8233362, "lon": 100.5180871}, {"type": "node", "id": 13177452529, "lat": 13.8232935, "lon": 100.5182332}, {"type": "node", "id": 13177452530, "lat": 13.8235533, "lon": 100.51833}, {"type": "node", "id": 13177452531, "lat": 13.8236644, "lon": 100.5180026}, {"type": "node", "id": 13177452532, "lat": 13.8237003, "lon": 100.5180185}, {"type": "node", "id": 13177452533, "lat": 13.8237635, "lon": 100.517839}, {"type": "node", "id": 13177452534, "lat": 13.823208, "lon": 100.517589}, {"type": "node", "id": 13177452535, "lat": 13.8233328, "lon": 100.5172}, {"type": "node", "id": 13177452544, "lat": 13.8221734, "lon": 100.5182678}, {"type": "node", "id": 3800771037, "lat": 13.8188228, "lon": 100.5192978}, {"type": "node", "id": 3800771039, "lat": 13.8192011, "lon": 100.5191239}, {"type": "node", "id": 13177452518, "lat": 13.8222957, "lon": 100.5195319}, {"type": "node", "id": 13177452519, "lat": 13.8225072, "lon": 100.5196336}, {"type": "node", "id": 13177452520, "lat": 13.8225659, "lon": 100.5194521}, {"type": "node", "id": 13177452521, "lat": 13.822822, "lon": 100.519544}, {"type": "node", "id": 12612730004, "lat": 13.8218482, "lon": 100.5313047}, {"type": "node", "id": 12612730005, "lat": 13.8217795, "lon": 100.5312918}, {"type": "node", "id": 12612730008, "lat": 13.8217899, "lon": 100.5319398}, {"type": "node", "id": 1707656877, "lat": 13.8301008, "lon": 100.5218652}, {"type": "node", "id": 13177452912, "lat": 13.8290972, "lon": 100.5220431}, {"type": "node", "id": 13177452913, "lat": 13.8288351, "lon": 100.5216271}, {"type": "node", "id": 13177452964, "lat": 13.8294464, "lon": 100.5225123}, {"type": "node", "id": 13177452965, "lat": 13.8298412, "lon": 100.521559}, {"type": "node", "id": 13177452966, "lat": 13.8296736, "lon": 100.5212852}, {"type": "node", "id": 13177452967, "lat": 13.8293344, "lon": 100.5214641}, {"type": "node", "id": 13177452968, "lat": 13.8291627, "lon": 100.5214965}, {"type": "node", "id": 13177452969, "lat": 13.8288103, "lon": 100.5215882}, {"type": "node", "id": 13177453057, "lat": 13.8295603, "lon": 100.5223996}, {"type": "node", "id": 13177453058, "lat": 13.8298362, "lon": 100.5221268}, {"type": "node", "id": 13177453067, "lat": 13.8292709, "lon": 100.5214761}, {"type": "node", "id": 11364682972, "lat": 13.8259327, "lon": 100.5314805}, {"type": "node", "id": 11364682973, "lat": 13.8258942, "lon": 100.5315191}, {"type": "node", "id": 11364682974, "lat": 13.8258436, "lon": 100.5314529}, {"type": "node", "id": 11364682975, "lat": 13.8259012, "lon": 100.5313863}, {"type": "node", "id": 254350030, "lat": 13.8070865, "lon": 100.5483144}, {"type": "node", "id": 254350031, "lat": 13.8089964, "lon": 100.549636}, {"type": "node", "id": 254350032, "lat": 13.8090821, "lon": 100.5498263}, {"type": "node", "id": 254350033, "lat": 13.8094628, "lon": 100.5500167}, {"type": "node", "id": 254350035, "lat": 13.8098399, "lon": 100.5499008}, {"type": "node", "id": 254350036, "lat": 13.8106868, "lon": 100.5502028}, {"type": "node", "id": 254351624, "lat": 13.8090771, "lon": 100.550645}, {"type": "node", "id": 254351625, "lat": 13.8095422, "lon": 100.550329}, {"type": "node", "id": 254351626, "lat": 13.8099793, "lon": 100.550246}, {"type": "node", "id": 981099107, "lat": 13.8060112, "lon": 100.5483563}, {"type": "node", "id": 981099194, "lat": 13.8062194, "lon": 100.5483485}, {"type": "node", "id": 1710382669, "lat": 13.8110677, "lon": 100.5488197}, {"type": "node", "id": 1710382672, "lat": 13.8108171, "lon": 100.54857}, {"type": "node", "id": 1710382690, "lat": 13.8112086, "lon": 100.5481993}, {"type": "node", "id": 3945953749, "lat": 13.8112408, "lon": 100.5489365}, {"type": "node", "id": 3945953755, "lat": 13.8114218, "lon": 100.5489841}, {"type": "node", "id": 6346514793, "lat": 13.8113503, "lon": 100.5480967}, {"type": "node", "id": 6346514794, "lat": 13.8113965, "lon": 100.5481366}, {"type": "node", "id": 6346514795, "lat": 13.811512, "lon": 100.5479863}, {"type": "node", "id": 6346514796, "lat": 13.8113965, "lon": 100.5480929}, {"type": "node", "id": 6346514797, "lat": 13.8114199, "lon": 100.5480883}, {"type": "node", "id": 6346514798, "lat": 13.8114178, "lon": 100.5480386}, {"type": "node", "id": 6346514799, "lat": 13.811474, "lon": 100.5480312}, {"type": "node", "id": 6346514800, "lat": 13.8114748, "lon": 100.5479859}, {"type": "node", "id": 6346514801, "lat": 13.811502, "lon": 100.5485883}, {"type": "node", "id": 6346514802, "lat": 13.8112291, "lon": 100.5489556}, {"type": "node", "id": 6346514803, "lat": 13.8113599, "lon": 100.5490242}, {"type": "node", "id": 6346514804, "lat": 13.8114032, "lon": 100.548982}, {"type": "node", "id": 6346514805, "lat": 13.8114292, "lon": 100.549075}, {"type": "node", "id": 6346514806, "lat": 13.811488, "lon": 100.5490952}, {"type": "node", "id": 6346514807, "lat": 13.8116776, "lon": 100.5489135}, {"type": "node", "id": 6346514808, "lat": 13.8114949, "lon": 100.5491284}, {"type": "node", "id": 6346514809, "lat": 13.8116272, "lon": 100.5491839}, {"type": "node", "id": 6346514810, "lat": 13.8116335, "lon": 100.5490359}, {"type": "node", "id": 6346514811, "lat": 13.8116757, "lon": 100.549035}, {"type": "node", "id": 6346514812, "lat": 13.8117118, "lon": 100.5488481}, {"type": "node", "id": 6346514813, "lat": 13.8117064, "lon": 100.5489089}, {"type": "node", "id": 6346514818, "lat": 13.8114303, "lon": 100.548037}, {"type": "node", "id": 6346514819, "lat": 13.8114276, "lon": 100.5490552}, {"type": "node", "id": 254350025, "lat": 13.8096393, "lon": 100.5556315}, {"type": "node", "id": 254350026, "lat": 13.8062092, "lon": 100.5536397}, {"type": "node", "id": 254350041, "lat": 13.8078326, "lon": 100.5534417}, {"type": "node", "id": 254351623, "lat": 13.8079043, "lon": 100.5524823}, {"type": "node", "id": 981174132, "lat": 13.8080609, "lon": 100.5540094}, {"type": "node", "id": 981174204, "lat": 13.8095521, "lon": 100.5553797}, {"type": "node", "id": 981174207, "lat": 13.8088815, "lon": 100.5548376}, {"type": "node", "id": 10983768203, "lat": 13.8069881, "lon": 100.5541075}, {"type": "node", "id": 1710382757, "lat": 13.811746, "lon": 100.548603}, {"type": "node", "id": 6346514820, "lat": 13.8117345, "lon": 100.5487059}, {"type": "node", "id": 6346684834, "lat": 13.8117348, "lon": 100.5486774}, {"type": "node", "id": 6346684835, "lat": 13.8117284, "lon": 100.5487387}, {"type": "node", "id": 12612730006, "lat": 13.8216878, "lon": 100.5324891}, {"type": "node", "id": 12612730007, "lat": 13.8217586, "lon": 100.532502}, {"type": "node", "id": 5362715601, "lat": 13.8311442, "lon": 100.5437712}, {"type": "node", "id": 5362715602, "lat": 13.8310993, "lon": 100.5441132}, {"type": "node", "id": 12114126679, "lat": 13.8299174, "lon": 100.5420219}, {"type": "node", "id": 12114126680, "lat": 13.8299174, "lon": 100.5419949}, {"type": "node", "id": 12114126681, "lat": 13.8299039, "lon": 100.5419862}, {"type": "node", "id": 12114126682, "lat": 13.8298919, "lon": 100.5419891}, {"type": "node", "id": 12114126683, "lat": 13.8298798, "lon": 100.5419993}, {"type": "node", "id": 12114126684, "lat": 13.829653, "lon": 100.5421562}, {"type": "node", "id": 12114126685, "lat": 13.8296459, "lon": 100.5421694}, {"type": "node", "id": 12114126686, "lat": 13.8296466, "lon": 100.5421774}, {"type": "node", "id": 12114126687, "lat": 13.8296643, "lon": 100.5421833}, {"type": "node", "id": 12114126688, "lat": 13.8298082, "lon": 100.5422161}, {"type": "node", "id": 12114126689, "lat": 13.8298309, "lon": 100.5422271}, {"type": "node", "id": 12114126690, "lat": 13.8298529, "lon": 100.5422417}, {"type": "node", "id": 12114126691, "lat": 13.8298713, "lon": 100.5422577}, {"type": "node", "id": 12114126692, "lat": 13.8298855, "lon": 100.5422723}, {"type": "node", "id": 12114126693, "lat": 13.829894, "lon": 100.5422774}, {"type": "node", "id": 12114126694, "lat": 13.8298975, "lon": 100.5422636}, {"type": "node", "id": 12114126695, "lat": 13.8299011, "lon": 100.5422263}, {"type": "node", "id": 12114126696, "lat": 13.8299153, "lon": 100.5420519}, {"type": "node", "id": 13175629413, "lat": 13.8301689, "lon": 100.539358}, {"type": "node", "id": 13185586568, "lat": 13.8299445, "lon": 100.5393203}, {"type": "node", "id": 13185586575, "lat": 13.8300152, "lon": 100.5408085}, {"type": "node", "id": 13185586576, "lat": 13.8299233, "lon": 100.5406255}, {"type": "node", "id": 13185586577, "lat": 13.8298629, "lon": 100.5402144}, {"type": "node", "id": 13185586578, "lat": 13.8298555, "lon": 100.5398994}, {"type": "node", "id": 13185586579, "lat": 13.829916, "lon": 100.5394165}, {"type": "node", "id": 13185586580, "lat": 13.8300515, "lon": 100.5407029}, {"type": "node", "id": 12114185864, "lat": 13.8281615, "lon": 100.5459347}, {"type": "node", "id": 12114185865, "lat": 13.8277885, "lon": 100.5460002}, {"type": "node", "id": 12114185866, "lat": 13.8279059, "lon": 100.5465721}, {"type": "node", "id": 12114185867, "lat": 13.8283107, "lon": 100.5464927}, {"type": "node", "id": 3798784486, "lat": 13.832204, "lon": 100.5069496}, {"type": "node", "id": 3798784487, "lat": 13.8322653, "lon": 100.5076436}, {"type": "node", "id": 3798784489, "lat": 13.8322983, "lon": 100.5068404}, {"type": "node", "id": 3798784491, "lat": 13.8330805, "lon": 100.5075586}, {"type": "node", "id": 3798784492, "lat": 13.8330852, "lon": 100.506821}, {"type": "node", "id": 1712330543, "lat": 13.8410308, "lon": 100.508573}, {"type": "node", "id": 1712330687, "lat": 13.8408823, "lon": 100.5082672}, {"type": "node", "id": 2615199415, "lat": 13.8410053, "lon": 100.5085204}, {"type": "node", "id": 2615199416, "lat": 13.8411238, "lon": 100.5087864}, {"type": "node", "id": 3578653103, "lat": 13.8420891, "lon": 100.5081687}, {"type": "node", "id": 3578653104, "lat": 13.8421074, "lon": 100.5088955}, {"type": "node", "id": 3578653105, "lat": 13.8419641, "lon": 100.5089009}, {"type": "node", "id": 3578653106, "lat": 13.8419667, "lon": 100.5090913}, {"type": "node", "id": 3578653107, "lat": 13.8411984, "lon": 100.5091101}, {"type": "node", "id": 3578653108, "lat": 13.8408527, "lon": 100.5081765}, {"type": "node", "id": 2465750183, "lat": 13.8333445, "lon": 100.5298493}, {"type": "node", "id": 13183599821, "lat": 13.8336047, "lon": 100.5295886}, {"type": "node", "id": 13183599822, "lat": 13.8338521, "lon": 100.5292566}, {"type": "node", "id": 13183599823, "lat": 13.8338966, "lon": 100.5291866}, {"type": "node", "id": 13183599824, "lat": 13.8339845, "lon": 100.5290864}, {"type": "node", "id": 13183599825, "lat": 13.8343221, "lon": 100.5287979}, {"type": "node", "id": 13183599826, "lat": 13.8345096, "lon": 100.5285963}, {"type": "node", "id": 13183599827, "lat": 13.8350471, "lon": 100.5281014}, {"type": "node", "id": 13183599828, "lat": 13.8357056, "lon": 100.5287924}, {"type": "node", "id": 13183599829, "lat": 13.8352571, "lon": 100.5293899}, {"type": "node", "id": 13183599830, "lat": 13.8350276, "lon": 100.5291755}, {"type": "node", "id": 13183599831, "lat": 13.8346182, "lon": 100.5295384}, {"type": "node", "id": 13183599832, "lat": 13.8347001, "lon": 100.5297309}, {"type": "node", "id": 13183599833, "lat": 13.8342427, "lon": 100.5299233}, {"type": "node", "id": 13183599834, "lat": 13.8345915, "lon": 100.530629}, {"type": "node", "id": 13183599835, "lat": 13.8344527, "lon": 100.5306766}, {"type": "node", "id": 13183599836, "lat": 13.8343708, "lon": 100.5305483}, {"type": "node", "id": 13183599837, "lat": 13.8339668, "lon": 100.5307408}, {"type": "node", "id": 13183599838, "lat": 13.8340291, "lon": 100.5308599}, {"type": "node", "id": 13183599839, "lat": 13.8337728, "lon": 100.5310854}, {"type": "node", "id": 13183599840, "lat": 13.8332443, "lon": 100.5305648}, {"type": "node", "id": 13183599841, "lat": 13.8332959, "lon": 100.5304952}, {"type": "node", "id": 13183599842, "lat": 13.8330058, "lon": 100.5302514}, {"type": "node", "id": 13183599843, "lat": 13.833214, "lon": 100.5299893}, {"type": "node", "id": 13183599844, "lat": 13.8343599, "lon": 100.5287573}, {"type": "node", "id": 13183599900, "lat": 13.8339546, "lon": 100.5309255}, {"type": "node", "id": 13183599902, "lat": 13.8344977, "lon": 100.529816}, {"type": "node", "id": 13183599917, "lat": 13.8330801, "lon": 100.5303139}, {"type": "node", "id": 5261452892, "lat": 13.8442915, "lon": 100.5269646}, {"type": "node", "id": 5261452893, "lat": 13.8443368, "lon": 100.5273429}, {"type": "node", "id": 313272316, "lat": 13.8491624, "lon": 100.5321302}, {"type": "node", "id": 5261452891, "lat": 13.8445817, "lon": 100.5269132}, {"type": "node", "id": 5261452894, "lat": 13.8446497, "lon": 100.5272868}, {"type": "node", "id": 5261472555, "lat": 13.8491568, "lon": 100.5317892}, {"type": "node", "id": 5261472556, "lat": 13.8491104, "lon": 100.530989}, {"type": "node", "id": 5261472557, "lat": 13.849067, "lon": 100.5299626}, {"type": "node", "id": 5261472558, "lat": 13.8508879, "lon": 100.5298708}, {"type": "node", "id": 5261472564, "lat": 13.8489008, "lon": 100.5286729}, {"type": "node", "id": 5261472565, "lat": 13.8474491, "lon": 100.5287245}, {"type": "node", "id": 5261472566, "lat": 13.8474636, "lon": 100.5292418}, {"type": "node", "id": 5261472567, "lat": 13.8475004, "lon": 100.5298304}, {"type": "node", "id": 5261472568, "lat": 13.847649, "lon": 100.5298232}, {"type": "node", "id": 5261472569, "lat": 13.848505, "lon": 100.5297842}, {"type": "node", "id": 5261472571, "lat": 13.8489284, "lon": 100.5294657}, {"type": "node", "id": 5394915650, "lat": 13.8507427, "lon": 100.5298781}, {"type": "node", "id": 5406423134, "lat": 13.848182, "lon": 100.5296033}, {"type": "node", "id": 5406423135, "lat": 13.8476689, "lon": 100.5296274}, {"type": "node", "id": 5406423136, "lat": 13.8476559, "lon": 100.5292277}, {"type": "node", "id": 5406423137, "lat": 13.848169, "lon": 100.5292036}, {"type": "node", "id": 5406423138, "lat": 13.8487404, "lon": 100.5294939}, {"type": "node", "id": 5406423139, "lat": 13.848519, "lon": 100.5294992}, {"type": "node", "id": 5406423140, "lat": 13.8485216, "lon": 100.5296655}, {"type": "node", "id": 5406423141, "lat": 13.8487456, "lon": 100.5296548}, {"type": "node", "id": 5406423152, "lat": 13.8484944, "lon": 100.5294794}, {"type": "node", "id": 5406423153, "lat": 13.8486132, "lon": 100.5294756}, {"type": "node", "id": 9582231010, "lat": 13.8456869, "lon": 100.5266107}, {"type": "node", "id": 9582231011, "lat": 13.8456973, "lon": 100.526777}, {"type": "node", "id": 9582231012, "lat": 13.8485322, "lon": 100.5266602}, {"type": "node", "id": 9582231013, "lat": 13.8485254, "lon": 100.5265187}, {"type": "node", "id": 5261472552, "lat": 13.8511696, "lon": 100.5309892}, {"type": "node", "id": 5261472559, "lat": 13.8511078, "lon": 100.5298708}, {"type": "node", "id": 5362709653, "lat": 13.8324238, "lon": 100.5447935}, {"type": "node", "id": 5362715598, "lat": 13.8321225, "lon": 100.5437096}, {"type": "node", "id": 5362715599, "lat": 13.8317904, "lon": 100.5438914}, {"type": "node", "id": 5362715600, "lat": 13.8315152, "lon": 100.5438082}, {"type": "node", "id": 5362715603, "lat": 13.8316289, "lon": 100.5451669}, {"type": "node", "id": 13184429827, "lat": 13.8315723, "lon": 100.5450543}, {"type": "node", "id": 1801770670, "lat": 13.8398314, "lon": 100.5418536}, {"type": "node", "id": 1801770671, "lat": 13.8392362, "lon": 100.5424361}, {"type": "node", "id": 1801770685, "lat": 13.8399086, "lon": 100.5426433}, {"type": "node", "id": 1801770667, "lat": 13.8344013, "lon": 100.5486147}, {"type": "node", "id": 1801770669, "lat": 13.8342033, "lon": 100.5488346}, {"type": "node", "id": 1801770672, "lat": 13.8343856, "lon": 100.5494328}, {"type": "node", "id": 1801770673, "lat": 13.8344716, "lon": 100.5495132}, {"type": "node", "id": 1801770674, "lat": 13.834132, "lon": 100.5490227}, {"type": "node", "id": 1801770675, "lat": 13.8342841, "lon": 100.5487461}, {"type": "node", "id": 1801770676, "lat": 13.8352232, "lon": 100.5493767}, {"type": "node", "id": 1801770677, "lat": 13.8349586, "lon": 100.5495025}, {"type": "node", "id": 1801770678, "lat": 13.8354899, "lon": 100.5492987}, {"type": "node", "id": 1801770679, "lat": 13.8347763, "lon": 100.5495374}, {"type": "node", "id": 1801770680, "lat": 13.834607, "lon": 100.5495428}, {"type": "node", "id": 1801770682, "lat": 13.8341476, "lon": 100.5491192}, {"type": "node", "id": 1801770683, "lat": 13.8342596, "lon": 100.5492855}, {"type": "node", "id": 1801770684, "lat": 13.8341398, "lon": 100.5489261}, {"type": "node", "id": 2071183954, "lat": 13.8372423, "lon": 100.5512794}, {"type": "node", "id": 13184430014, "lat": 13.8375311, "lon": 100.5513901}, {"type": "node", "id": 13184555849, "lat": 13.8373262, "lon": 100.5513602}, {"type": "node", "id": 13184555850, "lat": 13.8375373, "lon": 100.551046}, {"type": "node", "id": 1710467179, "lat": 13.8392686, "lon": 100.5500417}, {"type": "node", "id": 1710467193, "lat": 13.8396629, "lon": 100.5506719}, {"type": "node", "id": 1710467351, "lat": 13.839416, "lon": 100.5499867},