{"version": 0.6, "generator": "Overpass API 0.7.62.8 e802775f", "osm3s": {"timestamp_osm_base": "2025-11-20T03:20:30Z", "copyright": "The data included in this document is from www.openstreetmap.org. The data is made available under ODbL."}, "elements": [{"type": "node", "id": 676087228, "lat": 13.7015803, "lon": 100.6778042, "tags": {"amenity": "place_of_worship", "denomination": "thai_thammayut", "name": "\u0e27\u0e31\u0e14\u0e41\u0e01\u0e49\u0e27\u0e1e\u0e34\u0e17\u0e31\u0e01\u0e29\u0e4c\u0e40\u0e08\u0e23\u0e34\u0e0d\u0e18\u0e23\u0e23\u0e21", "name:en": "Wat Kaewpithak Charoentham", "name:th": "\u0e27\u0e31\u0e14\u0e41\u0e01\u0e49\u0e27\u0e1e\u0e34\u0e17\u0e31\u0e01\u0e29\u0e4c\u0e40\u0e08\u0e23\u0e34\u0e0d\u0e18\u0e23\u0e23\u0e21", "religion": "buddhist", "short_name": "\u0e27\u0e31\u0e14\u0e41\u0e01\u0e49\u0e27", "wikidata": "Q100698860", "wikipedia": "th:\u0e27\u0e31\u0e14\u0e41\u0e01\u0e49\u0e27\u0e1e\u0e34\u0e17\u0e31\u0e01\u0e29\u0e4c\u0e40\u0e08\u0e23\u0e34\u0e0d\u0e18\u0e23\u0e23\u0e21"}}, {"type": "node", "id": 1794190217, "lat": 13.7020989, "lon": 100.6892745, "tags": {"amenity": "restaurant", "cuisine": "thai", "name": "Somtam"}}, {"type": "node", "id": 2421845453, "lat": 13.7374494, "lon": 100.6668387, "tags": {"amenity": "restaurant", "diet:halal": "yes", "name": "\u0e2a\u0e27\u0e19\u0e2d\u0e32\u0e2b\u0e32\u0e23\u200b \u0e08\u0e31\u0e19\u0e17\u0e23\u0e4c\u200b\u0e40\u0e2a\u0e35\u0e49\u0e22\u0e27\u200b", "name:th": "\u0e2a\u0e27\u0e19\u0e2d\u0e32\u0e2b\u0e32\u0e23\u200b \u0e08\u0e31\u0e19\u0e17\u0e23\u0e4c\u200b\u0e40\u0e2a\u0e35\u0e49\u0e22\u0e27\u200b"}}, {"type": "node", "id": 4132571452, "lat": 13.7312951, "lon": 100.6508431, "tags": {"amenity": "cafe", "name": "Wawee Coffee", "toilets:wheelchair": "no", "wheelchair": "limited"}}, {"type": "node", "id": 4451735989, "lat": 13.7474102, "lon": 100.6529162, "tags": {"name": "\u0e01\u0e17.\u0e01\u0e23\u0e35\u0e11\u0e328\u0e41\u0e22\u0e0114", "name:th": "\u0e01\u0e17.\u0e01\u0e23\u0e35\u0e11\u0e328\u0e41\u0e22\u0e0114", "tourism": "viewpoint"}}, {"type": "node", "id": 5384897422, "lat": 13.7398067, "lon": 100.6522256, "tags": {"name": "Dry Fruits", "tourism": "attraction"}}, {"type": "node", "id": 5585747221, "lat": 13.7298378, "lon": 100.6541658, "tags": {"amenity": "restaurant", "name": "\u0e40\u0e19\u0e37\u0e49\u0e2d\u0e15\u0e38\u0e4b\u0e19\u0e1e\u0e31\u0e12\u0e19\u0e32\u0e01\u0e32\u0e23 68"}}, {"type": "node", "id": 5598274622, "lat": 13.7229806, "lon": 100.6889969, "tags": {"alt_name": "\u0e27\u0e31\u0e14\u0e01\u0e23\u0e30\u0e17\u0e38\u0e48\u0e21", "amenity": "place_of_worship", "denomination": "thai_mahanikaya", "name": "\u0e27\u0e31\u0e14\u0e01\u0e23\u0e30\u0e17\u0e38\u0e48\u0e21\u0e40\u0e2a\u0e37\u0e2d\u0e1b\u0e25\u0e32", "name:en": "Wat Krathum Suea Pla", "name:th": "\u0e27\u0e31\u0e14\u0e01\u0e23\u0e30\u0e17\u0e38\u0e48\u0e21\u0e40\u0e2a\u0e37\u0e2d\u0e1b\u0e25\u0e32", "religion": "buddhist", "tourism": "attraction", "wikidata": "Q99382730", "wikipedia": "th:\u0e27\u0e31\u0e14\u0e01\u0e23\u0e30\u0e17\u0e38\u0e48\u0e21\u0e40\u0e2a\u0e37\u0e2d\u0e1b\u0e25\u0e32"}}, {"type": "node", "id": 5634168277, "lat": 13.7014855, "lon": 100.672601, "tags": {"amenity": "restaurant", "delivery": "yes", "internet_access": "no", "name": "\u0e42\u0e15\u0e4a\u0e30\u0e01\u0e25\u0e21\u200b \u0e01\u0e4b\u0e27\u0e22\u0e40\u0e15\u0e35\u0e4b\u0e22\u0e27\u200b\u0e15\u0e49\u0e21\u0e22\u0e33", "takeaway": "yes", "toilets": "yes"}}, {"type": "node", "id": 5677510533, "lat": 13.730321, "lon": 100.6583321, "tags": {"addr:housenumber": "655", "addr:postcode": "10250", "addr:province": "\u0e01\u0e23\u0e38\u0e07\u0e40\u0e17\u0e1e\u0e21\u0e2b\u0e32\u0e19\u0e04\u0e23", "addr:street": "\u0e0b\u0e2d\u0e22 \u0e1e\u0e31\u0e12\u0e19\u0e32\u0e01\u0e32\u0e23 61", "amenity": "cafe", "cuisine": "coffee_shop;bakery;chocolate", "internet_access": "yes", "internet_access:ssid": "Larnahouse", "name": "Larnahouse", "opening_hours": "Mo-Su 09:00-22:00", "outdoor_seating": "yes", "smoking": "no"}}, {"type": "node", "id": 5774334396, "lat": 13.7301885, "lon": 100.6581608, "tags": {"addr:housenumber": "651", "addr:postcode": "10250", "addr:province": "\u0e01\u0e23\u0e38\u0e07\u0e40\u0e17\u0e1e\u0e21\u0e2b\u0e32\u0e19\u0e04\u0e23", "addr:street": "\u0e0b\u0e2d\u0e22 \u0e1e\u0e31\u0e12\u0e19\u0e32\u0e01\u0e32\u0e23 61", "amenity": "restaurant", "capacity": "20", "delivery": "yes", "name": "Mae ka mon", "opening_hours": "07:00-18:00", "outdoor_seating": "yes", "smoking": "no", "takeaway": "yes"}}, {"type": "node", "id": 6538568685, "lat": 13.7210845, "lon": 100.6506246, "tags": {"name:en": "Hone", "tourism": "apartment"}}, {"type": "node", "id": 7054133385, "lat": 13.723618, "lon": 100.6887066, "tags": {"name": "\u0e1e\u0e34\u0e1e\u0e34\u0e18\u0e20\u0e31\u0e13\u0e11\u0e4c\u0e1e\u0e23\u0e30\u0e1e\u0e38\u0e17\u0e18\u0e23\u0e39\u0e1b 80 \u0e1b\u0e32\u0e07 \u0e27\u0e31\u0e14\u0e01\u0e23\u0e30\u0e17\u0e38\u0e48\u0e21\u0e40\u0e2a\u0e37\u0e2d\u0e1b\u0e25\u0e32", "name:en": "Museum of 80 Buddha Postures Wat Krathum Suea Pla", "name:th": "\u0e1e\u0e34\u0e1e\u0e34\u0e18\u0e20\u0e31\u0e13\u0e11\u0e4c\u0e1e\u0e23\u0e30\u0e1e\u0e38\u0e17\u0e18\u0e23\u0e39\u0e1b 80 \u0e1b\u0e32\u0e07 \u0e27\u0e31\u0e14\u0e01\u0e23\u0e30\u0e17\u0e38\u0e48\u0e21\u0e40\u0e2a\u0e37\u0e2d\u0e1b\u0e25\u0e32", "tourism": "museum"}}, {"type": "node", "id": 9107913217, "lat": 13.7356366, "lon": 100.6802818, "tags": {"amenity": "restaurant", "name": "\u0e09\u0e31\u0e48\u0e27 \u0e04\u0e34\u0e21 \u0e40\u0e2e\u0e07"}}, {"type": "node", "id": 9120405809, "lat": 13.716814, "lon": 100.655455, "tags": {"addr:postcode": "10250", "addr:street": "\u0e2d\u0e48\u0e48\u0e2d\u0e19\u0e19\u0e38\u0e0a55-2", "amenity": "cafe", "cuisine": "coffee_shop;cafe;coffee", "internet_access": "yes", "internet_access:fee": "no", "name": "Atlas Specialty Coffee", "opening_hours": "Mo-Su 08:00-18:00", "phone": "0985583945", "website": "https://www.facebook.com/Atlas.specialtycoffeeth"}}, {"type": "node", "id": 9778495025, "lat": 13.7304708, "lon": 100.6994899, "tags": {"name": "Dcondo Onnut-Rama9", "tourism": "apartment"}}, {"type": "node", "id": 10249076073, "lat": 13.7345535, "lon": 100.6926035, "tags": {"amenity": "restaurant", "cuisine": "asian;thai;pizza;regional", "name": "SRP Garden", "phone": "0818061954"}}, {"type": "node", "id": 10562171247, "lat": 13.7010966, "lon": 100.6737473, "tags": {"amenity": "restaurant", "cuisine": "thai", "name": "\u0e2a\u0e32\u0e23\u0e04\u0e32\u0e21\u0e08\u0e34\u0e49\u0e21\u0e08\u0e38\u0e48\u0e21"}}, {"type": "node", "id": 10562171275, "lat": 13.7265597, "lon": 100.6568549, "tags": {"amenity": "restaurant", "cuisine": "thai;noodles", "name": "\u0e01\u0e4b\u0e27\u0e22\u0e40\u0e15\u0e35\u0e4b\u0e22\u0e27 \u0e42\u0e04\u0e15\u0e23\u0e2d\u0e23\u0e48\u0e2d\u0e22"}}, {"type": "node", "id": 10566591980, "lat": 13.7249884, "lon": 100.6581746, "tags": {"amenity": "restaurant", "cuisine": "chinese", "name": "HONGKONG NOODLE", "name:en": "HONGKONG NOODLE", "name:th": "\u0e2e\u0e48\u0e2d\u0e07\u0e01\u0e07\u0e19\u0e39\u0e49\u0e14\u0e40\u0e14\u0e34\u0e49\u0e25", "opening_hours": "Mo-Su 09:00-20:30"}}, {"type": "node", "id": 10566591981, "lat": 13.7250627, "lon": 100.6584392, "tags": {"amenity": "restaurant", "cuisine": "japanese", "name": "Yoshinoya Katsuya", "opening_hours": "Mo-Su 10:00-22:00"}}, {"type": "node", "id": 10566591986, "lat": 13.7254473, "lon": 100.6587168, "tags": {"amenity": "restaurant", "cuisine": "noodle", "name": "Ramen Ozawa", "name:en": "Ramen Ozawa", "name:th": "\u0e23\u0e32\u0e40\u0e21\u0e07 \u0e42\u0e2d\u0e0b\u0e32\u0e27\u0e48\u0e32"}}, {"type": "node", "id": 10566591992, "lat": 13.7250809, "lon": 100.6587253, "tags": {"amenity": "restaurant", "name": "\u0e27\u0e23\u0e32\u0e20\u0e23\u0e13\u0e4c"}}, {"type": "node", "id": 10567747854, "lat": 13.7251817, "lon": 100.6588147, "tags": {"amenity": "cafe", "brand": "\u0e04\u0e32\u0e40\u0e1f\u0e48 \u0e2d\u0e40\u0e21\u0e0b\u0e2d\u0e19", "brand:en": "Caf\u00e9 Amazon", "brand:th": "\u0e04\u0e32\u0e40\u0e1f\u0e48 \u0e2d\u0e40\u0e21\u0e0b\u0e2d\u0e19", "brand:wikidata": "Q43247503", "cuisine": "coffee_shop", "name": "\u0e04\u0e32\u0e40\u0e1f\u0e48 \u0e2d\u0e40\u0e21\u0e0b\u0e2d\u0e19", "name:en": "Caf\u00e9 Amazon", "name:th": "\u0e04\u0e32\u0e40\u0e1f\u0e48 \u0e2d\u0e40\u0e21\u0e0b\u0e2d\u0e19", "takeaway": "yes"}}, {"type": "node", "id": 10567747856, "lat": 13.7249997, "lon": 100.658217, "tags": {"amenity": "restaurant", "name": "\u0e44\u0e08\u0e41\u0e2d\u0e49\u0e19\u0e25\u0e39\u0e01\u0e0a\u0e34\u0e49\u0e19\u0e1b\u0e25\u0e32\u0e23\u0e30\u0e40\u0e1a\u0e34\u0e14\u0e40\u0e16\u0e34\u0e14\u0e40\u0e17\u0e34\u0e07"}}, {"type": "node", "id": 10600362524, "lat": 13.7264615, "lon": 100.6568902, "tags": {"amenity": "restaurant", "name": "\u0e02\u0e49\u0e32\u0e27\u0e15\u0e49\u0e21\u0e1b\u0e25\u0e32 164"}}, {"type": "node", "id": 10600362525, "lat": 13.726511, "lon": 100.6568694, "tags": {"amenity": "restaurant", "name": "\u0e19\u0e32\u0e22\u0e42\u0e2d\u0e02\u0e49\u0e32\u0e27\u0e21\u0e31\u0e19\u0e44\u0e01\u0e48\u0e15\u0e2d\u0e19 \u0e02\u0e49\u0e32\u0e27\u0e02\u0e32\u0e2b\u0e21\u0e39"}}, {"type": "node", "id": 10656523048, "lat": 13.725372, "lon": 100.6587478, "tags": {"amenity": "restaurant", "name": "\u0e23\u0e32\u0e0a\u0e32\u0e23\u0e2a \u0e01\u0e4b\u0e27\u0e22\u0e40\u0e15\u0e35\u0e4b\u0e22\u0e27\u0e23\u0e2a\u0e40\u0e14\u0e47\u0e14", "opening_hours": "10:00-20:00"}}, {"type": "node", "id": 10683315223, "lat": 13.7254129, "lon": 100.6587336, "tags": {"amenity": "restaurant"}}, {"type": "node", "id": 10794806147, "lat": 13.7012817, "lon": 100.6882988, "tags": {"amenity": "restaurant", "name": "\u0e40\u0e1b\u0e32\u0e40\u0e2b\u0e25\u0e48\u0e32\u0e01\u0e07", "name:en": "PaoLhao Kong", "name:th": "\u0e40\u0e1b\u0e32\u0e40\u0e2b\u0e25\u0e48\u0e32\u0e01\u0e07"}}, {"type": "node", "id": 10794806149, "lat": 13.7011428, "lon": 100.6882473, "tags": {"amenity": "restaurant", "cuisine": "thai", "name": "\u0e01\u0e25\u0e31\u0e1a\u0e19\u0e04\u0e23"}}, {"type": "node", "id": 10794806159, "lat": 13.7013843, "lon": 100.688342, "tags": {"amenity": "restaurant", "name": "\u0e40\u0e22\u0e47\u0e19\u0e15\u0e32\u0e42\u0e1f\u0e40\u0e04\u0e23\u0e37\u0e48\u0e2d\u0e07\u0e17\u0e23\u0e07", "name:en": "Yentafo Kruengsonge", "name:th": "\u0e40\u0e22\u0e47\u0e19\u0e15\u0e32\u0e42\u0e1f\u0e40\u0e04\u0e23\u0e37\u0e48\u0e2d\u0e07\u0e17\u0e23\u0e07"}}, {"type": "node", "id": 10794806160, "lat": 13.7013148, "lon": 100.6883436, "tags": {"amenity": "restaurant", "name": "\u0e44\u0e08\u0e41\u0e2d\u0e49\u0e19\u0e25\u0e39\u0e01\u0e0a\u0e34\u0e49\u0e19\u0e23\u0e30\u0e40\u0e1a\u0e34\u0e14\u0e40\u0e16\u0e34\u0e14\u0e40\u0e17\u0e34\u0e07"}}, {"type": "node", "id": 10794806161, "lat": 13.7010454, "lon": 100.6882398, "tags": {"amenity": "restaurant", "name": "\u0e01\u0e25\u0e49\u0e27\u0e22\u0e17\u0e2d\u0e14\u0e2d\u0e31\u0e21\u0e1e\u0e27\u0e32"}}, {"type": "node", "id": 10842083616, "lat": 13.7080125, "lon": 100.6908967, "tags": {"amenity": "cafe", "name": "Ground Phlox"}}, {"type": "node", "id": 10923679205, "lat": 13.7203087, "lon": 100.6912541, "tags": {"addr:housenumber": "324", "addr:postcode": "10250", "addr:street": "\u0e16\u0e19\u0e19\u0e2d\u0e48\u0e2d\u0e19\u0e19\u0e38\u0e0a", "amenity": "cafe", "contact:facebook": "MD82CAFE", "contact:instagram": "md82cafe", "contact:line": "md82cafe", "cuisine": "coffee_shop;tea;thai", "internet_access": "wlan", "name": "MD-82 Airline cafe", "opening_hours": "Mo-Su 12:00-23:00", "phone": "+66 598 2645"}}, {"type": "node", "id": 11074618405, "lat": 13.7268767, "lon": 100.6906067, "tags": {"amenity": "restaurant"}}, {"type": "node", "id": 11074640205, "lat": 13.7289511, "lon": 100.6905865, "tags": {"amenity": "restaurant", "name:my": "\u1014\u102c\u1032\u100d\u102c\u103a\u1017\u103c\u1036\u1000\u103a"}}, {"type": "node", "id": 11777310535, "lat": 13.7412115, "lon": 100.6546728, "tags": {"amenity": "cafe", "delivery": "yes", "name": "Coffee stall", "opening_hours": "Mo-Sa 09:00-16:00"}}, {"type": "node", "id": 12164752024, "lat": 13.7383725, "lon": 100.6885534, "tags": {"addr:district": "\u0e2a\u0e30\u0e1e\u0e32\u0e19\u0e2a\u0e39\u0e07", "addr:housenumber": "56/92", "addr:postcode": "10250", "addr:province": "bangkok", "addr:street": "\u0e01\u0e23\u0e38\u0e07\u0e40\u0e17\u0e1e\u0e01\u0e23\u0e35\u0e11\u0e32", "addr:subdistrict": "\u0e17\u0e31\u0e1a\u0e0a\u0e49\u0e32\u0e07", "name": "\u0e40\u0e2d\u0e35\u0e48\u0e22\u0e21\u0e27\u0e31\u0e19\u0e41\u0e21\u0e19\u0e0a\u0e31\u0e48\u0e19", "phone": "0963061169", "tourism": "apartment"}}, {"type": "node", "id": 12578547821, "lat": 13.7168722, "lon": 100.6548057, "tags": {"amenity": "restaurant", "name": "NOKYUNGTONG HASHERY", "opening_hours": "Th,Fr,Su-Tu 11:00-20:00"}}, {"type": "node", "id": 12580915187, "lat": 13.7164454, "lon": 100.6532556, "tags": {"amenity": "cafe", "name": "CAFFE HOUSE"}}, {"type": "node", "id": 12581558811, "lat": 13.7169327, "lon": 100.6503512, "tags": {"amenity": "cafe", "brand": "\u0e04\u0e32\u0e40\u0e1f\u0e48 \u0e2d\u0e40\u0e21\u0e0b\u0e2d\u0e19", "brand:en": "Caf\u00e9 Amazon", "brand:th": "\u0e04\u0e32\u0e40\u0e1f\u0e48 \u0e2d\u0e40\u0e21\u0e0b\u0e2d\u0e19", "brand:wikidata": "Q43247503", "cuisine": "coffee_shop", "name": "\u0e04\u0e32\u0e40\u0e1f\u0e48 \u0e2d\u0e40\u0e21\u0e0b\u0e2d\u0e19", "name:en": "Caf\u00e9 Amazon", "name:th": "\u0e04\u0e32\u0e40\u0e1f\u0e48 \u0e2d\u0e40\u0e21\u0e0b\u0e2d\u0e19", "takeaway": "yes"}}, {"type": "node", "id": 12581558859, "lat": 13.7165679, "lon": 100.6504935, "tags": {"amenity": "restaurant", "cuisine": "thai", "name": "\u0e01\u0e25\u0e31\u0e1a\u0e19\u0e04\u0e23"}}, {"type": "node", "id": 12581846659, "lat": 13.7250395, "lon": 100.658584, "tags": {"amenity": "restaurant", "cuisine": "thai", "name": "\u0e01\u0e25\u0e31\u0e1a\u0e19\u0e04\u0e23"}}, {"type": "node", "id": 12587361364, "lat": 13.7164304, "lon": 100.6531292, "tags": {"amenity": "restaurant", "cuisine": "thai", "name": "\u0e1c\u0e31\u0e14\u0e01\u0e23\u0e30\u0e08\u0e32\u0e22(\u0e2d\u0e32\u0e2b\u0e32\u0e23\u0e15\u0e32\u0e21\u0e2a\u0e31\u0e48\u0e07)"}}, {"type": "node", "id": 12587361365, "lat": 13.7164356, "lon": 100.6531648, "tags": {"amenity": "restaurant", "cuisine": "noodle", "name": "\u0e40\u0e08\u0e34\u0e19\u0e08\u0e39 \u0e23\u0e32\u0e0a\u0e34\u0e19\u0e35 \u0e1a\u0e30\u0e2b\u0e21\u0e35\u0e48\u0e40\u0e01\u0e35\u0e4a\u0e22\u0e27\u0e01\u0e38\u0e49\u0e07"}}, {"type": "node", "id": 12587361373, "lat": 13.7164654, "lon": 100.653457, "tags": {"amenity": "restaurant", "cuisine": "thai", "name": "\u0e2d\u0e31\u0e2a\u0e23\u0e35\u0e48"}}, {"type": "node", "id": 12587361378, "lat": 13.7166299, "lon": 100.6534376, "tags": {"amenity": "restaurant", "cuisine": "thai", "name": "\u0e42\u0e04\u0e23\u0e15-\u0e1b\u0e48\u0e32"}}, {"type": "node", "id": 12587361398, "lat": 13.7167568, "lon": 100.6534059, "tags": {"amenity": "restaurant", "cuisine": "thai", "name": "\u0e2a\u0e49\u0e21\u0e15\u0e33 \u0e41\u0e0b\u0e48\u0e1a\u0e40\u0e40\u0e27\u0e2d\u0e23\u0e4c"}}, {"type": "node", "id": 12672244907, "lat": 13.7165538, "lon": 100.6541193, "tags": {"amenity": "restaurant", "cuisine": "noodle", "name": "\u0e1b.\u0e1b\u0e23\u0e30\u0e17\u0e35\u0e1b \u0e01\u0e4b\u0e27\u0e22\u0e40\u0e15\u0e35\u0e4b\u0e22\u0e27\u0e40\u0e23\u0e37\u0e2d \u0e2a\u0e32\u0e02\u0e32\u0e2d\u0e48\u0e2d\u0e19\u0e38\u0e0a 55", "phone": "0899239222"}}, {"type": "node", "id": 12672244908, "lat": 13.7166097, "lon": 100.6540958, "tags": {"amenity": "restaurant", "cuisine": "thai", "name": "\u0e04\u0e23\u0e31\u0e27 \u0e42\u0e2e\u0e41\u0e0b\u0e27 \u0e2d\u0e32\u0e2b\u0e32\u0e23\u0e2d\u0e35\u0e2a\u0e32\u0e19"}}, {"type": "node", "id": 12672252292, "lat": 13.716137, "lon": 100.6537294, "tags": {"board_type": "welcome_sign", "direction": "90", "information": "board", "name": "\u0e2b\u0e21\u0e39\u0e48\u0e1a\u0e49\u0e32\u0e19\u0e40\u0e2a\u0e23\u0e35", "tourism": "information"}}, {"type": "node", "id": 12672361464, "lat": 13.7158433, "lon": 100.6538204, "tags": {"amenity": "restaurant", "cuisine": "thai", "name": "\u0e02\u0e49\u0e32\u0e27\u0e41\u0e01\u0e07"}}, {"type": "node", "id": 12686742213, "lat": 13.7168007, "lon": 100.655259, "tags": {"board_type": "welcome_sign", "information": "board", "name": "LPN", "tourism": "information"}}, {"type": "node", "id": 12946520040, "lat": 13.716533, "lon": 100.6541703, "tags": {"amenity": "restaurant", "cuisine": "thai", "name": "\u0e40\u0e08\u0e23\u0e34\u0e0d\u0e2d\u0e32\u0e2b\u0e32\u0e23 \u0e01\u0e23\u0e30\u0e40\u0e1e\u0e23\u0e32\u0e1e\u0e23\u0e34\u0e01\u0e41\u0e2b\u0e49\u0e07"}}, {"type": "node", "id": 12946520085, "lat": 13.7134104, "lon": 100.6608866, "tags": {"amenity": "restaurant", "cuisine": "thai", "name": "\u0e42\u0e08\u0e4a\u0e01\u0e1b\u0e23\u0e34\u0e19\u0e0b\u0e4c"}}, {"type": "node", "id": 13240462835, "lat": 13.7248913, "lon": 100.6974913, "tags": {"addr:district": "\u0e1b\u0e23\u0e30\u0e40\u0e27\u0e28", "addr:housenumber": "Cj \u0e2b\u0e25\u0e31\u0e07 \u0e2a\u0e19 \u0e14\u0e2d\u0e01\u0e44\u0e21\u0e49", "addr:postcode": "10250", "addr:province": "\u0e01\u0e23\u0e38\u0e07\u0e40\u0e17\u0e1e\u0e21\u0e2b\u0e32\u0e19\u0e04\u0e23", "addr:street": "\u0e16\u0e19\u0e19\u0e40\u0e09\u0e25\u0e34\u0e21\u0e1e\u0e23\u0e30\u0e40\u0e01\u0e35\u0e22\u0e23\u0e15\u0e34 \u0e23.9", "addr:subdistrict": "\u0e1b\u0e23\u0e30\u0e40\u0e27\u0e28", "amenity": "restaurant", "cuisine": "\u0e2b\u0e21\u0e39\u0e01\u0e30\u0e17\u0e30;\u0e1b\u0e34\u0e49\u0e07\u0e22\u0e48\u0e32\u0e07", "diet:healthy": "yes", "diet:local": "yes", "diet:raw": "yes", "diet:seafood": "yes", "name": "\u0e15\u0e31\u0e49\u0e07\u0e42\u0e15\u0e4a\u0e30 \u0e2b\u0e21\u0e39\u0e01\u0e30\u0e17\u0e30\u0e2a\u0e32\u0e02\u0e32\u0e1b\u0e23\u0e30\u0e40\u0e27\u0e28", "phone": "0961061489", "website": "https://www.facebook.com/profile.php?id=61578867070541"}}, {"type": "way", "id": 443159424, "nodes": [4407874571, 4407874566, 4407874561, 4407874562, 4407874571], "tags": {"amenity": "marketplace", "building": "yes", "name": "Pattanakarn Market", "name:en": "Pattanakarn Market", "name:th": "\u0e15\u0e25\u0e32\u0e14\u0e2a\u0e14\u0e1e\u0e31\u0e12\u0e19\u0e32\u0e01\u0e32\u0e23"}}, {"type": "way", "id": 566923734, "nodes": [5458538838, 7987264542, 5458538840, 5458538843, 1607500169, 1607500145, 1607500161, 5458538838], "tags": {"leisure": "park", "name": "Muang Thong Park"}}, {"type": "way", "id": 566923735, "nodes": [5458538844, 5458538845, 5458538846, 5458538847, 5458538848, 7987245439, 5458538850, 5458538851, 1691230925, 5458538844], "tags": {"leisure": "park", "name": "Muang Thong Park"}}, {"type": "way", "id": 605774543, "nodes": [5744771701, 5744771702, 5744771703, 5744771704, 5744771705, 5744771701], "tags": {"amenity": "restaurant", "building": "yes", "name": "\u0e1f\u0e49\u0e32\u0e43\u0e2a"}}, {"type": "way", "id": 605775668, "nodes": [5744763706, 5774361549, 5744763707, 5744763708, 5744763709, 5744763706], "tags": {"amenity": "cafe", "building": "yes", "name": "Larnahouse"}}, {"type": "way", "id": 605775678, "nodes": [5744780421, 5744780422, 5744780423, 5744780424, 5744780421], "tags": {"amenity": "restaurant", "building": "yes", "name": "Black paper"}}, {"type": "way", "id": 1111750241, "nodes": [10171176013, 10171176014, 10171176015, 10548850924, 10171180417, 10171180418, 10171180419, 10171180420, 13164820883, 10548850918, 10171180422, 13164820884, 10171180423, 10171176013], "tags": {"leisure": "park", "name": "\u0e1e\u0e31\u0e12\u0e19\u0e32\u0e20\u0e34\u0e23\u0e21\u0e22\u0e4c", "operator": "\u0e40\u0e02\u0e15\u0e1b\u0e23\u0e30\u0e40\u0e27\u0e28"}}, {"type": "way", "id": 1111751465, "nodes": [10171184653, 10171184654, 10171184655, 10171184656, 10171184657, 10171184658, 10171184653], "tags": {"leisure": "park", "name": "Setthasiri Pattanakarn Park"}}, {"type": "way", "id": 1112213164, "nodes": [10175202962, 10175202963, 10175202964, 10175202965, 10175202966, 10175202962], "tags": {"leisure": "park", "name": "Park"}}, {"type": "way", "id": 1112214422, "nodes": [12581484042, 12581484043, 12581484069, 12581484044, 10175216674, 12581484045, 12581484051, 12581484042], "tags": {"addr:district": "\u0e1b\u0e23\u0e30\u0e40\u0e27\u0e28", "addr:housenumber": "401/2", "addr:place": "\u0e2d\u0e48\u0e2d\u0e19\u0e19\u0e38\u0e38\u0e0a 70/1", "addr:postcode": "10250", "addr:province": "\u0e01\u0e23\u0e38\u0e07\u0e40\u0e17\u0e1e\u0e21\u0e2b\u0e32\u0e19\u0e04\u0e23", "addr:street": "\u0e2d\u0e48\u0e2d\u0e19\u0e19\u0e38\u0e0a", "addr:subdistrict": "\u0e1b\u0e23\u0e30\u0e40\u0e27\u0e28", "amenity": "school", "email": "m.suwit@hotmail.com", "fax": "023215355", "grades": "7-12", "loc_name": "\u0e40\u0e2a\u0e23\u0e35", "loc_name:th": "\u0e42\u0e23\u0e07\u0e40\u0e23\u0e35\u0e22\u0e19\u0e40\u0e2a\u0e23\u0e35", "name": "\u0e42\u0e23\u0e07\u0e40\u0e23\u0e35\u0e22\u0e19\u0e21\u0e31\u0e18\u0e22\u0e21\u0e2a\u0e38\u0e27\u0e34\u0e17\u0e22\u0e4c\u0e40\u0e2a\u0e23\u0e35\u0e2d\u0e19\u0e38\u0e2a\u0e23\u0e13\u0e4c", "name:th": "\u0e42\u0e23\u0e07\u0e40\u0e23\u0e35\u0e22\u0e19\u0e21\u0e31\u0e18\u0e22\u0e21\u0e2a\u0e38\u0e27\u0e34\u0e17\u0e22\u0e4c\u0e40\u0e2a\u0e23\u0e35\u0e2d\u0e19\u0e38\u0e2a\u0e23\u0e13\u0e4c", "phone": "023215355", "polling_station": "yes", "religion": "buddhist", "short_name": "\u0e40\u0e2a\u0e23\u0e35\u0e2d\u0e19\u0e38\u0e2a\u0e23\u0e13\u0e4c", "short_name:th": "\u0e2a\u0e38\u0e27\u0e34\u0e17\u0e22\u0e4c\u0e40\u0e2a\u0e23\u0e35", "website": "https://www.msuwit.ac.th/"}}, {"type": "way", "id": 1120582427, "nodes": [10249066949, 10274802859, 10274802860, 10249066950, 10274802870, 10274802869, 10274802868, 10274802867, 10274802866, 10783934662, 10274802865, 10274802864, 10783934663, 10274802863, 10249066951, 10249066952, 10274802861, 10274802862, 10249066949], "tags": {"amenity": "restaurant", "building": "house", "layer": "1", "name": "SRP Garden"}}, {"type": "way", "id": 1120582428, "nodes": [10249066953, 10249066954, 10249066955, 10249066956, 10249066953], "tags": {"amenity": "restaurant", "building": "house"}}, {"type": "way", "id": 1120582429, "nodes": [10249066957, 10249066958, 10249066959, 10249066960, 10249066957], "tags": {"amenity": "restaurant", "building": "house"}}, {"type": "way", "id": 1120582432, "nodes": [10249066984, 10249066985, 10249066986, 10249066987, 10249066984], "tags": {"amenity": "restaurant", "building": "house"}}, {"type": "way", "id": 1120582433, "nodes": [10249066988, 10249066989, 10249066990, 10249066991, 10249066988], "tags": {"amenity": "restaurant", "building": "house"}}, {"type": "way", "id": 1120582434, "nodes": [10249066992, 10249066993, 10249066994, 10249066995, 10249066992], "tags": {"amenity": "restaurant", "building": "house"}}, {"type": "way", "id": 1120582435, "nodes": [10249066996, 10249066997, 10249066998, 10249066999, 10249066996], "tags": {"amenity": "restaurant", "building": "house"}}, {"type": "way", "id": 1120582436, "nodes": [10249067000, 10249067001, 10249067002, 10249067003, 10249067000], "tags": {"amenity": "restaurant", "building": "house"}}, {"type": "way", "id": 1120582437, "nodes": [10249067004, 10249067005, 10249067006, 10249067007, 10249067004], "tags": {"amenity": "restaurant", "building": "house"}}, {"type": "way", "id": 1120582438, "nodes": [10249067008, 10249067009, 10249067010, 10249067011, 10249067008], "tags": {"amenity": "restaurant", "building": "house"}}, {"type": "way", "id": 1120582439, "nodes": [10249067012, 10249067013, 10249067014, 10249067015, 10249067012], "tags": {"amenity": "restaurant", "building": "house"}}, {"type": "way", "id": 1120582440, "nodes": [10249067016, 10249067017, 10249067018, 10249067020, 10249067019, 10249067021, 10249067016], "tags": {"amenity": "restaurant", "building": "house"}}, {"type": "way", "id": 1120582444, "nodes": [10249067097, 10249067098, 10249067099, 10249067100, 10249067101, 10249067102, 10249067103, 10249067104, 10249067105, 10249067106, 11330709145, 10249067082, 10249067083, 10249067084, 10249067085, 10249067086, 10249067087, 10249067088, 11330709148, 10249067075, 10249067076, 10249067077, 10249067059, 10249067060, 10249067063, 10249067064, 10249067065, 10249067066, 10249067067, 10249067068, 10249067069, 10249067070, 10249067061, 10249067062, 10249067071, 11330709147, 10249067092, 10249067093, 10249067094, 10249067095, 10249067096, 10249067078, 11330709146, 10249067111, 10249067112, 10249067113, 10249067114, 10249067115, 10249067097], "tags": {"amenity": "restaurant", "building": "house"}}, {"type": "way", "id": 1120582447, "nodes": [10249067116, 10249067117, 10249067118, 10249067119, 10249067116], "tags": {"amenity": "restaurant", "building": "house"}}, {"type": "way", "id": 1120582448, "nodes": [10249067120, 10249067121, 10249067122, 10249067123, 10249067120], "tags": {"amenity": "restaurant", "building": "house"}}, {"type": "way", "id": 1120582449, "nodes": [10249067124, 10249067125, 10249067126, 10249067127, 10249067124], "tags": {"amenity": "restaurant", "building": "house"}}, {"type": "way", "id": 1120586139, "nodes": [10249095240, 10249095241, 10249095242, 10249095243, 10249095240], "tags": {"amenity": "restaurant", "building": "house"}}, {"type": "way", "id": 1120586140, "nodes": [10249095244, 10249095245, 10249095246, 10249095247, 10249095244], "tags": {"amenity": "restaurant", "building": "house"}}, {"type": "way", "id": 1132753981, "nodes": [12581846663, 10562171299, 10562171300, 10562171301, 12581846663], "tags": {"amenity": "cafe", "building": "yes", "cuisine": "coffee_shop", "name": "\u0e01\u0e32\u0e41\u0e1f\u0e1e\u0e31\u0e19\u0e18\u0e4c\u0e44\u0e17\u0e22"}}, {"type": "way", "id": 1159160556, "nodes": [10779692321, 10779692322, 10779692323, 10779692324, 10779692321], "tags": {"amenity": "restaurant", "building": "yes", "name": "\u0e1b.\u0e1b\u0e25\u0e32 \u0e0a\u0e32\u0e1a\u0e39", "opening_hours": "Mo-Su 11:00-23:00"}}, {"type": "way", "id": 1159176233, "nodes": [10779776841, 10779776842, 10779776843, 10779776844, 10779776845, 10779776841], "tags": {"amenity": "restaurant", "building": "yes", "name": "AROYDEE \u0e2a\u0e32\u0e02\u0e32\u0e1b\u0e23\u0e30\u0e40\u0e17\u0e28\u0e44\u0e17\u0e22"}}, {"type": "way", "id": 1159176240, "nodes": [10779776881, 10779776882, 10779776883, 10779776884, 10779776881], "tags": {"air_conditioning": "yes", "amenity": "restaurant", "branch": "\u0e2a\u0e27\u0e19\u0e2b\u0e25\u0e27\u0e07 \u0e23.9", "building": "yes", "name": "\u0e01\u0e39\u0e42\u0e23\u0e15\u0e35\u0e0a\u0e32\u0e0a\u0e31\u0e01", "opening_hours": "Mo-Su 11:00-22:00", "pets_allowed": "no"}}, {"type": "way", "id": 1160632708, "nodes": [10794806162, 10794806163, 10794806164, 10794806165, 10794806162], "tags": {"amenity": "cafe", "brand": "\u0e04\u0e32\u0e40\u0e1f\u0e48 \u0e2d\u0e40\u0e21\u0e0b\u0e2d\u0e19", "brand:en": "Caf\u00e9 Amazon", "brand:th": "\u0e04\u0e32\u0e40\u0e1f\u0e48 \u0e2d\u0e40\u0e21\u0e0b\u0e2d\u0e19", "brand:wikidata": "Q43247503", "building": "yes", "cuisine": "coffee_shop", "name": "\u0e04\u0e32\u0e40\u0e1f\u0e48 \u0e2d\u0e40\u0e21\u0e0b\u0e2d\u0e19", "name:en": "Caf\u00e9 Amazon", "name:th": "\u0e04\u0e32\u0e40\u0e1f\u0e48 \u0e2d\u0e40\u0e21\u0e0b\u0e2d\u0e19", "takeaway": "yes"}}, {"type": "way", "id": 1175950910, "nodes": [10926598303, 10926598304, 10926627405, 10926627406, 10926627407, 10926627408, 10926627409, 10926627410, 10926627411, 10926627412, 10926627413, 10926627424, 10926627416, 10926627414, 10926598303], "tags": {"amenity": "cafe", "building": "yes", "layer": "1"}}, {"type": "way", "id": 1180919631, "nodes": [10967286400, 10967286401, 10967286402, 10967286403, 10967286400], "tags": {"amenity": "restaurant", "building": "yes"}}, {"type": "way", "id": 1183571803, "nodes": [10991191146, 10991191149, 10991191150, 10991191151, 10991191152, 10991191145, 10991191146], "tags": {"air_conditioning": "yes", "amenity": "restaurant", "building": "yes", "name": "\u0e25\u0e32\u0e19\u0e19\u0e31\u0e27", "opening_hours": "11:30-23:50", "outdoor_seating": "yes"}}, {"type": "way", "id": 1231698744, "nodes": [11422924393, 11422924394, 11422924395, 11422924396, 11422924397, 11422924398, 11422924399, 11422924400, 11422924401, 11422924402, 11422924403, 11422924404, 11422924405, 11422924406, 11422924407, 11422924408, 11422924393], "tags": {"leisure": "park", "name": "\u0e2a\u0e27\u0e19\u0e40\u0e09\u0e25\u0e34\u0e21\u0e1e\u0e31\u0e12\u0e19\u0e4c", "name:en": "Chaloem Pat Park", "name:th": "\u0e2a\u0e27\u0e19\u0e40\u0e09\u0e25\u0e34\u0e21\u0e1e\u0e31\u0e12\u0e19\u0e4c"}}, {"type": "way", "id": 1252641348, "nodes": [11643258833, 11643258834, 11643258835, 11643258836, 11643258837, 11643258838, 11643258833], "tags": {"amenity": "cafe", "building": "yes", "name": "Seven Rabbit Coffee and Tea"}}, {"type": "way", "id": 1286295744, "nodes": [5665198188, 11952922772, 12175804243, 12175916853, 12191940335, 12175804234, 11952905364, 5663199283, 12175839184, 12093840400, 12093840399, 8001755016, 12175839182, 11930887795, 11930887796, 5663199291, 11930887798, 11930887799, 11930887800, 11930887801, 11930887802, 11930887803, 11930887804, 11930887805, 11930887806, 11930887807, 11930887808, 11930887809, 11930887810, 11930887811, 11930887812, 11930887813, 11930887814, 11952922770, 11952905368, 11952922769, 5665198187, 5665198188], "tags": {"addr:city": "\u0e41\u0e02\u0e27\u0e07\u0e17\u0e31\u0e1a\u0e0a\u0e49\u0e32\u0e07", "addr:postcode": "10250", "addr:street": "\u0e0b\u0e2d\u0e22\u0e19\u0e31\u0e01\u0e01\u0e35\u0e2c\u0e32\u0e41\u0e2b\u0e25\u0e21\u0e17\u0e2d\u0e07", "leisure": "park", "name": "\u0e2a\u0e27\u0e19\u0e2a\u0e38\u0e02\u0e20\u0e32\u0e1e\u0e2b\u0e31\u0e27\u0e2b\u0e21\u0e32\u0e01", "name:en": "Hua Mak Health Park", "name:th": "\u0e2a\u0e27\u0e19\u0e2a\u0e38\u0e02\u0e20\u0e32\u0e1e\u0e2b\u0e31\u0e27\u0e2b\u0e21\u0e32\u0e01"}}, {"type": "way", "id": 1358535462, "nodes": [12573728713, 12573728714, 12573728715, 12672244902, 12573728716, 12573728713], "tags": {"amenity": "marketplace", "name": "\u0e15\u0e25\u0e32\u0e14\u0e15\u0e23\u0e07\u0e02\u0e49\u0e32\u0e21\u0e2b\u0e21\u0e39\u0e48\u0e1a\u0e49\u0e32\u0e19\u0e40\u0e2a\u0e23\u0e35"}}, {"type": "way", "id": 1359302017, "nodes": [12581947938, 12581947939, 12581947940, 12581947941, 12581947938], "tags": {"amenity": "restaurant", "building": "yes", "cuisine": "asian", "name": "Siam Brasserie"}}, {"type": "way", "id": 1359306555, "nodes": [12581947980, 12581947981, 12581947982, 12581947983, 12581947980], "tags": {"building": "yes", "tourism": "apartment"}}, {"type": "way", "id": 1359306556, "nodes": [12581947977, 12581947984, 12581947985, 12581947986, 12581947977], "tags": {"building": "yes", "tourism": "apartment"}}, {"type": "way", "id": 1435614685, "nodes": [13195418832, 13195418833, 13195418834, 13195418835, 13195418832], "tags": {"addr:district": "\u0e1b\u0e23\u0e30\u0e40\u0e27\u0e28", "addr:housenumber": "11", "addr:postcode": "10250", "addr:province": "\u0e01\u0e23\u0e38\u0e07\u0e40\u0e17\u0e1e\u0e21\u0e2b\u0e32\u0e19\u0e04\u0e23", "addr:street": "\u0e0b\u0e2d\u0e22\u0e16\u0e19\u0e19\u0e1e\u0e31\u0e12\u0e19\u0e32\u0e01\u0e32\u0e23 94", "addr:subdistrict": "\u0e1b\u0e23\u0e30\u0e40\u0e27\u0e28", "amenity": "place_of_worship", "building": "temple", "denomination": "mahayana", "diet:vegetarian": "only", "name": "\u0e15\u0e33\u0e2b\u0e19\u0e31\u0e01\u0e01\u0e27\u0e19\u0e2d\u0e34\u0e21", "name:en": "Guan Yin Citta", "name:th": "\u0e15\u0e33\u0e2b\u0e19\u0e31\u0e01\u0e01\u0e27\u0e19\u0e2d\u0e34\u0e21", "name:zh-Hans": "\u89c2\u97f3\u5802", "phone": "+66 85 818 8111", "religion": "buddhist", "service_times": "Mo-Su 10:00-17:00", "website": "https://www.facebook.com/xinlingbkk"}}, {"type": "node", "id": 10175202962, "lat": 13.7116514, "lon": 100.663189}, {"type": "node", "id": 10175202965, "lat": 13.7114134, "lon": 100.6629816}, {"type": "node", "id": 10175202966, "lat": 13.7116687, "lon": 100.663155}, {"type": "node", "id": 10175216674, "lat": 13.7088074, "lon": 100.6620744}, {"type": "node", "id": 10991191150, "lat": 13.7125012, "lon": 100.6632887}, {"type": "node", "id": 10991191151, "lat": 13.712572, "lon": 100.6631683}, {"type": "node", "id": 10991191152, "lat": 13.7124394, "lon": 100.6630857}, {"type": "node", "id": 12581484042, "lat": 13.7101006, "lon": 100.6619018}, {"type": "node", "id": 12581484043, "lat": 13.7092529, "lon": 100.6632732}, {"type": "node", "id": 12581484044, "lat": 13.7084083, "lon": 100.66272}, {"type": "node", "id": 12581484045, "lat": 13.7092561, "lon": 100.6613486}, {"type": "node", "id": 12581484051, "lat": 13.7093354, "lon": 100.6614006}, {"type": "node", "id": 12581484069, "lat": 13.7084736, "lon": 100.6627628}, {"type": "node", "id": 12573728713, "lat": 13.7169858, "lon": 100.6534601}, {"type": "node", "id": 12573728714, "lat": 13.716396, "lon": 100.6535231}, {"type": "node", "id": 12573728715, "lat": 13.7165027, "lon": 100.6541676}, {"type": "node", "id": 12573728716, "lat": 13.7170856, "lon": 100.6540088}, {"type": "node", "id": 12672244902, "lat": 13.7166731, "lon": 100.6541251}, {"type": "node", "id": 10171176013, "lat": 13.7172748, "lon": 100.6598668}, {"type": "node", "id": 10171176014, "lat": 13.7177471, "lon": 100.6626293}, {"type": "node", "id": 10171176015, "lat": 13.7173731, "lon": 100.6622981}, {"type": "node", "id": 10171180417, "lat": 13.7161964, "lon": 100.6617768}, {"type": "node", "id": 10171180418, "lat": 13.7159774, "lon": 100.6615155}, {"type": "node", "id": 10171180419, "lat": 13.7157719, "lon": 100.6612478}, {"type": "node", "id": 10171180420, "lat": 13.7155001, "lon": 100.6610984}, {"type": "node", "id": 10171180422, "lat": 13.7155887, "lon": 100.6604444}, {"type": "node", "id": 10171180423, "lat": 13.7165539, "lon": 100.6602359}, {"type": "node", "id": 10548850918, "lat": 13.7154629, "lon": 100.6604974}, {"type": "node", "id": 10548850924, "lat": 13.7168711, "lon": 100.6622429}, {"type": "node", "id": 13164820883, "lat": 13.715226, "lon": 100.6610244}, {"type": "node", "id": 13164820884, "lat": 13.7160364, "lon": 100.6603137}, {"type": "node", "id": 10562171299, "lat": 13.7238499, "lon": 100.6583083}, {"type": "node", "id": 10562171300, "lat": 13.7238819, "lon": 100.658407}, {"type": "node", "id": 10562171301, "lat": 13.7239698, "lon": 100.6583769}, {"type": "node", "id": 12581846663, "lat": 13.7239378, "lon": 100.6582781}, {"type": "node", "id": 4407874561, "lat": 13.7286161, "lon": 100.6546895}, {"type": "node", "id": 4407874562, "lat": 13.7288358, "lon": 100.6547993}, {"type": "node", "id": 4407874566, "lat": 13.7291008, "lon": 100.6536622}, {"type": "node", "id": 4407874571, "lat": 13.7293205, "lon": 100.653772}, {"type": "node", "id": 1607500145, "lat": 13.7309589, "lon": 100.6583637}, {"type": "node", "id": 1607500161, "lat": 13.7310579, "lon": 100.6582778}, {"type": "node", "id": 1607500169, "lat": 13.7308651, "lon": 100.6585407}, {"type": "node", "id": 1691230925, "lat": 13.7310976, "lon": 100.6591861}, {"type": "node", "id": 5458538838, "lat": 13.7311848, "lon": 100.6584589}, {"type": "node", "id": 5458538840, "lat": 13.730645, "lon": 100.6587031}, {"type": "node", "id": 5458538843, "lat": 13.730702, "lon": 100.6585155}, {"type": "node", "id": 5458538844, "lat": 13.7311178, "lon": 100.6589561}, {"type": "node", "id": 5458538845, "lat": 13.7306279, "lon": 100.6588376}, {"type": "node", "id": 5458538846, "lat": 13.7305453, "lon": 100.6591844}, {"type": "node", "id": 5458538847, "lat": 13.7303391, "lon": 100.6602108}, {"type": "node", "id": 5458538848, "lat": 13.7302978, "lon": 100.6605612}, {"type": "node", "id": 5458538850, "lat": 13.7308641, "lon": 100.6610972}, {"type": "node", "id": 5458538851, "lat": 13.7309751, "lon": 100.6600975}, {"type": "node", "id": 5744763706, "lat": 13.7304288, "lon": 100.6582967}, {"type": "node", "id": 5744763707, "lat": 13.7303011, "lon": 100.658451}, {"type": "node", "id": 5744763708, "lat": 13.7301976, "lon": 100.6583602}, {"type": "node", "id": 5744763709, "lat": 13.7303252, "lon": 100.6582059}, {"type": "node", "id": 5774361549, "lat": 13.730413, "lon": 100.6583158}, {"type": "node", "id": 7987245439, "lat": 13.7304254, "lon": 100.6610758}, {"type": "node", "id": 7987264542, "lat": 13.7311349, "lon": 100.6588978}, {"type": "node", "id": 11643258833, "lat": 13.7354927, "lon": 100.6507219}, {"type": "node", "id": 11643258834, "lat": 13.7355781, "lon": 100.6507591}, {"type": "node", "id": 11643258835, "lat": 13.7355329, "lon": 100.6508692}, {"type": "node", "id": 11643258836, "lat": 13.7353316, "lon": 100.6507816}, {"type": "node", "id": 11643258837, "lat": 13.7354134, "lon": 100.6505824}, {"type": "node", "id": 11643258838, "lat": 13.7355293, "lon": 100.6506328}, {"type": "node", "id": 12581947938, "lat": 13.7393229, "lon": 100.6551905}, {"type": "node", "id": 12581947939, "lat": 13.7392347, "lon": 100.6554566}, {"type": "node", "id": 12581947940, "lat": 13.7391246, "lon": 100.6554179}, {"type": "node", "id": 12581947941, "lat": 13.7392128, "lon": 100.6551518}, {"type": "node", "id": 11422924393, "lat": 13.6989261, "lon": 100.6749398}, {"type": "node", "id": 11422924394, "lat": 13.69907, "lon": 100.6748904}, {"type": "node", "id": 11422924395, "lat": 13.6993361, "lon": 100.6748206}, {"type": "node", "id": 11422924396, "lat": 13.6997867, "lon": 100.6747215}, {"type": "node", "id": 11422924397, "lat": 13.6999423, "lon": 100.6747194}, {"type": "node", "id": 11422924398, "lat": 13.7000386, "lon": 100.674751}, {"type": "node", "id": 11422924399, "lat": 13.7001184, "lon": 100.674829}, {"type": "node", "id": 11422924400, "lat": 13.7001635, "lon": 100.6748944}, {"type": "node", "id": 11422924401, "lat": 13.7001205, "lon": 100.6749723}, {"type": "node", "id": 11422924402, "lat": 13.6999775, "lon": 100.6751655}, {"type": "node", "id": 11422924403, "lat": 13.6999197, "lon": 100.675214}, {"type": "node", "id": 11422924404, "lat": 13.699861, "lon": 100.6752387}, {"type": "node", "id": 11422924405, "lat": 13.6997809, "lon": 100.6752333}, {"type": "node", "id": 11422924406, "lat": 13.6995334, "lon": 100.6751433}, {"type": "node", "id": 11422924407, "lat": 13.6992487, "lon": 100.6750052}, {"type": "node", "id": 11422924408, "lat": 13.6991515, "lon": 100.6749664}, {"type": "node", "id": 10779776841, "lat": 13.7064016, "lon": 100.6695516}, {"type": "node", "id": 10779776842, "lat": 13.7064982, "lon": 100.6694876}, {"type": "node", "id": 10779776843, "lat": 13.7065114, "lon": 100.6694974}, {"type": "node", "id": 10779776844, "lat": 13.7065143, "lon": 100.6696818}, {"type": "node", "id": 10779776845, "lat": 13.7064037, "lon": 100.6696837}, {"type": "node", "id": 13195418832, "lat": 13.7058369, "lon": 100.6680126}, {"type": "node", "id": 13195418833, "lat": 13.7055215, "lon": 100.6680095}, {"type": "node", "id": 13195418834, "lat": 13.7055203, "lon": 100.6681464}, {"type": "node", "id": 13195418835, "lat": 13.7058356, "lon": 100.6681495}, {"type": "node", "id": 10779692321, "lat": 13.702947, "lon": 100.6720861}, {"type": "node", "id": 10779692322, "lat": 13.7031119, "lon": 100.6720884}, {"type": "node", "id": 10779692323, "lat": 13.7031091, "lon": 100.6723019}, {"type": "node", "id": 10779692324, "lat": 13.7029441, "lon": 100.6722995}, {"type": "node", "id": 10779776881, "lat": 13.7037879, "lon": 100.6705948}, {"type": "node", "id": 10779776882, "lat": 13.7039057, "lon": 100.6705974}, {"type": "node", "id": 10779776883, "lat": 13.7039038, "lon": 100.67069}, {"type": "node", "id": 10779776884, "lat": 13.703786, "lon": 100.6706875}, {"type": "node", "id": 10175202963, "lat": 13.7114724, "lon": 100.6635073}, {"type": "node", "id": 10175202964, "lat": 13.7111771, "lon": 100.6633535}, {"type": "node", "id": 10967286400, "lat": 13.7120823, "lon": 100.6636908}, {"type": "node", "id": 10967286401, "lat": 13.7119998, "lon": 100.6638227}, {"type": "node", "id": 10967286402, "lat": 13.7120476, "lon": 100.6638544}, {"type": "node", "id": 10967286403, "lat": 13.7121301, "lon": 100.6637225}, {"type": "node", "id": 10991191145, "lat": 13.7123038, "lon": 100.6633164}, {"type": "node", "id": 10991191146, "lat": 13.712505, "lon": 100.6634417}, {"type": "node", "id": 10991191149, "lat": 13.7125698, "lon": 100.6633314}, {"type": "node", "id": 10171184654, "lat": 13.7133756, "lon": 100.6745873}, {"type": "node", "id": 10171184655, "lat": 13.7126448, "lon": 100.6737392}, {"type": "node", "id": 10171184656, "lat": 13.7127525, "lon": 100.6736147}, {"type": "node", "id": 10171184657, "lat": 13.7131284, "lon": 100.6738853}, {"type": "node", "id": 10171184658, "lat": 13.7133618, "lon": 100.6741786}, {"type": "node", "id": 10794806162, "lat": 13.7008126, "lon": 100.6882332}, {"type": "node", "id": 10794806163, "lat": 13.7009231, "lon": 100.6882804}, {"type": "node", "id": 10794806164, "lat": 13.7008656, "lon": 100.6884233}, {"type": "node", "id": 10794806165, "lat": 13.700755, "lon": 100.6883761}, {"type": "node", "id": 10171184653, "lat": 13.7134748, "lon": 100.674515}, {"type": "node", "id": 10926598303, "lat": 13.7204206, "lon": 100.6911548}, {"type": "node", "id": 10926598304, "lat": 13.7204102, "lon": 100.6911863}, {"type": "node", "id": 10926627405, "lat": 13.7203073, "lon": 100.6912869}, {"type": "node", "id": 10926627406, "lat": 13.7203438, "lon": 100.6914418}, {"type": "node", "id": 10926627407, "lat": 13.7202604, "lon": 100.6913298}, {"type": "node", "id": 10926627408, "lat": 13.7202122, "lon": 100.6913747}, {"type": "node", "id": 10926627409, "lat": 13.7201685, "lon": 100.6913962}, {"type": "node", "id": 10926627410, "lat": 13.7201972, "lon": 100.6913539}, {"type": "node", "id": 10926627411, "lat": 13.7202415, "lon": 100.6913097}, {"type": "node", "id": 10926627412, "lat": 13.7201314, "lon": 100.6912252}, {"type": "node", "id": 10926627413, "lat": 13.7202839, "lon": 100.69126}, {"type": "node", "id": 10926627414, "lat": 13.7203907, "lon": 100.6911648}, {"type": "node", "id": 10926627416, "lat": 13.7203823, "lon": 100.6911723}, {"type": "node", "id": 10926627424, "lat": 13.7203732, "lon": 100.6911804}, {"type": "node", "id": 5744771701, "lat": 13.7425459, "lon": 100.6823489}, {"type": "node", "id": 5744771702, "lat": 13.7424132, "lon": 100.6822977}, {"type": "node", "id": 5744771703, "lat": 13.7422861, "lon": 100.6824703}, {"type": "node", "id": 5744771704, "lat": 13.7423856, "lon": 100.6825708}, {"type": "node", "id": 5744771705, "lat": 13.7425219, "lon": 100.6825765}, {"type": "node", "id": 5744780421, "lat": 13.7410262, "lon": 100.6835772}, {"type": "node", "id": 5744780422, "lat": 13.7408672, "lon": 100.6835198}, {"type": "node", "id": 5744780423, "lat": 13.7407916, "lon": 100.6837327}, {"type": "node", "id": 5744780424, "lat": 13.7409507, "lon": 100.6837491}, {"type": "node", "id": 10249066949, "lat": 13.7346653, "lon": 100.6922949}, {"type": "node", "id": 10249066950, "lat": 13.7345239, "lon": 100.6922438}, {"type": "node", "id": 10249066951, "lat": 13.7344634, "lon": 100.6925438}, {"type": "node", "id": 10249066952, "lat": 13.7347077, "lon": 100.6925576}, {"type": "node", "id": 10249066953, "lat": 13.734811, "lon": 100.6929636}, {"type": "node", "id": 10249066954, "lat": 13.734546, "lon": 100.6929371}, {"type": "node", "id": 10249066955, "lat": 13.7345334, "lon": 100.6930694}, {"type": "node", "id": 10249066956, "lat": 13.7347985, "lon": 100.6930959}, {"type": "node", "id": 10249066957, "lat": 13.7345015, "lon": 100.6929348}, {"type": "node", "id": 10249066958, "lat": 13.7343384, "lon": 100.6929254}, {"type": "node", "id": 10249066959, "lat": 13.7343318, "lon": 100.6930469}, {"type": "node", "id": 10249066960, "lat": 13.7344948, "lon": 100.6930564}, {"type": "node", "id": 10249066984, "lat": 13.7342621, "lon": 100.692443}, {"type": "node", "id": 10249066985, "lat": 13.7342218, "lon": 100.6924297}, {"type": "node", "id": 10249066986, "lat": 13.7342088, "lon": 100.6924713}, {"type": "node", "id": 10249066987, "lat": 13.7342491, "lon": 100.6924846}, {"type": "node", "id": 10249066988, "lat": 13.7342887, "lon": 100.6923814}, {"type": "node", "id": 10249066989, "lat": 13.7342485, "lon": 100.6923681}, {"type": "node", "id": 10249066990, "lat": 13.7342355, "lon": 100.6924098}, {"type": "node", "id": 10249066991, "lat": 13.7342758, "lon": 100.6924231}, {"type": "node", "id": 10249066992, "lat": 13.7343383, "lon": 100.6923015}, {"type": "node", "id": 10249066993, "lat": 13.7343039, "lon": 100.6922782}, {"type": "node", "id": 10249066994, "lat": 13.7342616, "lon": 100.6923442}, {"type": "node", "id": 10249066995, "lat": 13.734296, "lon": 100.6923675}, {"type": "node", "id": 10249066996, "lat": 13.7342753, "lon": 100.6921951}, {"type": "node", "id": 10249066997, "lat": 13.7342436, "lon": 100.6921669}, {"type": "node", "id": 10249066998, "lat": 13.7341936, "lon": 100.6922264}, {"type": "node", "id": 10249066999, "lat": 13.7342254, "lon": 100.6922547}, {"type": "node", "id": 10249067000, "lat": 13.7342435, "lon": 100.6927058}, {"type": "node", "id": 10249067001, "lat": 13.7342047, "lon": 100.6927231}, {"type": "node", "id": 10249067002, "lat": 13.7342215, "lon": 100.6927633}, {"type": "node", "id": 10249067003, "lat": 13.7342604, "lon": 100.692746}, {"type": "node", "id": 10249067004, "lat": 13.7342589, "lon": 100.6927643}, {"type": "node", "id": 10249067005, "lat": 13.7342201, "lon": 100.6927816}, {"type": "node", "id": 10249067006, "lat": 13.7342369, "lon": 100.6928218}, {"type": "node", "id": 10249067007, "lat": 13.7342757, "lon": 100.6928045}, {"type": "node", "id": 10249067008, "lat": 13.7342814, "lon": 100.692818}, {"type": "node", "id": 10249067009, "lat": 13.7342426, "lon": 100.6928353}, {"type": "node", "id": 10249067010, "lat": 13.7342594, "lon": 100.6928754}, {"type": "node", "id": 10249067011, "lat": 13.7342983, "lon": 100.6928582}, {"type": "node", "id": 10249067012, "lat": 13.7342873, "lon": 100.6926659}, {"type": "node", "id": 10249067013, "lat": 13.7342535, "lon": 100.6926789}, {"type": "node", "id": 10249067014, "lat": 13.7342728, "lon": 100.6927321}, {"type": "node", "id": 10249067015, "lat": 13.7343066, "lon": 100.6927192}, {"type": "node", "id": 10249067016, "lat": 13.7343191, "lon": 100.6927356}, {"type": "node", "id": 10249067017, "lat": 13.7342853, "lon": 100.6927485}, {"type": "node", "id": 10249067018, "lat": 13.7343189, "lon": 100.692814}, {"type": "node", "id": 10249067019, "lat": 13.7343905, "lon": 100.6928327}, {"type": "node", "id": 10249067020, "lat": 13.7343772, "lon": 100.6928575}, {"type": "node", "id": 10249067021, "lat": 13.7343441, "lon": 100.6927915}, {"type": "node", "id": 10249067059, "lat": 13.73485, "lon": 100.6925499}, {"type": "node", "id": 10249067060, "lat": 13.7348482, "lon": 100.6925408}, {"type": "node", "id": 10249067061, "lat": 13.7347942, "lon": 100.6925544}, {"type": "node", "id": 10249067062, "lat": 13.7347969, "lon": 100.6925638}, {"type": "node", "id": 10249067063, "lat": 13.7348437, "lon": 100.6925329}, {"type": "node", "id": 10249067064, "lat": 13.734837, "lon": 100.6925268}, {"type": "node", "id": 10249067065, "lat": 13.7348288, "lon": 100.6925232}, {"type": "node", "id": 10249067066, "lat": 13.7348198, "lon": 100.6925224}, {"type": "node", "id": 10249067067, "lat": 13.7348112, "lon": 100.6925246}, {"type": "node", "id": 10249067068, "lat": 13.7348036, "lon": 100.6925295}, {"type": "node", "id": 10249067069, "lat": 13.7347979, "lon": 100.6925366}, {"type": "node", "id": 10249067070, "lat": 13.7347947, "lon": 100.6925452}, {"type": "node", "id": 10249067071, "lat": 13.7348025, "lon": 100.6925718}, {"type": "node", "id": 10249067075, "lat": 13.7348377, "lon": 100.6925751}, {"type": "node", "id": 10249067076, "lat": 13.7348446, "lon": 100.6925683}, {"type": "node", "id": 10249067077, "lat": 13.7348488, "lon": 100.6925596}, {"type": "node", "id": 10249067078, "lat": 13.7348032, "lon": 100.6926217}, {"type": "node", "id": 10249067082, "lat": 13.7348384, "lon": 100.692625}, {"type": "node", "id": 10249067083, "lat": 13.7348453, "lon": 100.6926182}, {"type": "node", "id": 10249067084, "lat": 13.7348496, "lon": 100.6926095}, {"type": "node", "id": 10249067085, "lat": 13.7348508, "lon": 100.6925998}, {"type": "node", "id": 10249067086, "lat": 13.734849, "lon": 100.6925908}, {"type": "node", "id": 10249067087, "lat": 13.7348445, "lon": 100.6925828}, {"type": "node", "id": 10249067088, "lat": 13.7348378, "lon": 100.6925767}, {"type": "node", "id": 10249067092, "lat": 13.7348043, "lon": 100.6925794}, {"type": "node", "id": 10249067093, "lat": 13.7347986, "lon": 100.6925865}, {"type": "node", "id": 10249067094, "lat": 13.7347954, "lon": 100.6925951}, {"type": "node", "id": 10249067095, "lat": 13.734795, "lon": 100.6926043}, {"type": "node", "id": 10249067096, "lat": 13.7347977, "lon": 100.6926137}, {"type": "node", "id": 10249067097, "lat": 13.734802, "lon": 100.6926698}, {"type": "node", "id": 10249067098, "lat": 13.7348099, "lon": 100.6926754}, {"type": "node", "id": 10249067099, "lat": 13.7348191, "lon": 100.6926779}, {"type": "node", "id": 10249067100, "lat": 13.7348286, "lon": 100.6926772}, {"type": "node", "id": 10249067101, "lat": 13.7348372, "lon": 100.6926732}, {"type": "node", "id": 10249067102, "lat": 13.7348441, "lon": 100.6926664}, {"type": "node", "id": 10249067103, "lat": 13.7348484, "lon": 100.6926577}, {"type": "node", "id": 10249067104, "lat": 13.7348496, "lon": 100.6926479}, {"type": "node", "id": 10249067105, "lat": 13.7348478, "lon": 100.6926389}, {"type": "node", "id": 10249067106, "lat": 13.7348433, "lon": 100.6926309}, {"type": "node", "id": 10249067111, "lat": 13.7348031, "lon": 100.6926276}, {"type": "node", "id": 10249067112, "lat": 13.7347974, "lon": 100.6926347}, {"type": "node", "id": 10249067113, "lat": 13.7347942, "lon": 100.6926433}, {"type": "node", "id": 10249067114, "lat": 13.7347938, "lon": 100.6926525}, {"type": "node", "id": 10249067115, "lat": 13.7347965, "lon": 100.6926619}, {"type": "node", "id": 10249067116, "lat": 13.7342221, "lon": 100.692523}, {"type": "node", "id": 10249067117, "lat": 13.7341484, "lon": 100.6925167}, {"type": "node", "id": 10249067118, "lat": 13.7341397, "lon": 100.692624}, {"type": "node", "id": 10249067119, "lat": 13.7342133, "lon": 100.6926303}, {"type": "node", "id": 10249067120, "lat": 13.7342258, "lon": 100.6922702}, {"type": "node", "id": 10249067121, "lat": 13.7341649, "lon": 100.6922668}, {"type": "node", "id": 10249067122, "lat": 13.7341604, "lon": 100.6923525}, {"type": "node", "id": 10249067123, "lat": 13.7342213, "lon": 100.6923559}, {"type": "node", "id": 10249067124, "lat": 13.7343465, "lon": 100.6921716}, {"type": "node", "id": 10249067125, "lat": 13.7343209, "lon": 100.6922058}, {"type": "node", "id": 10249067126, "lat": 13.7343814, "lon": 100.6922539}, {"type": "node", "id": 10249067127, "lat": 13.734407, "lon": 100.6922196}, {"type": "node", "id": 10249095240, "lat": 13.734165, "lon": 100.6927294}, {"type": "node", "id": 10249095241, "lat": 13.7341229, "lon": 100.6927265}, {"type": "node", "id": 10249095242, "lat": 13.7341199, "lon": 100.6927701}, {"type": "node", "id": 10249095243, "lat": 13.7341621, "lon": 100.6927731}, {"type": "node", "id": 10249095244, "lat": 13.7341568, "lon": 100.692794}, {"type": "node", "id": 10249095245, "lat": 13.7341146, "lon": 100.6927911}, {"type": "node", "id": 10249095246, "lat": 13.7341116, "lon": 100.6928347}, {"type": "node", "id": 10249095247, "lat": 13.7341539, "lon": 100.6928377}, {"type": "node", "id": 10274802859, "lat": 13.7346247, "lon": 100.6922926}, {"type": "node", "id": 10274802860, "lat": 13.734627, "lon": 100.6922496}, {"type": "node", "id": 10274802861, "lat": 13.7347184, "lon": 100.6923586}, {"type": "node", "id": 10274802862, "lat": 13.7346621, "lon": 100.6923554}, {"type": "node", "id": 10274802863, "lat": 13.7344684, "lon": 100.692451}, {"type": "node", "id": 10274802864, "lat": 13.734513, "lon": 100.6924383}, {"type": "node", "id": 10274802865, "lat": 13.7345153, "lon": 100.6923945}, {"type": "node", "id": 10274802866, "lat": 13.7345355, "lon": 100.6923914}, {"type": "node", "id": 10274802867, "lat": 13.734538, "lon": 100.6923452}, {"type": "node", "id": 10274802868, "lat": 13.7344958, "lon": 100.6923428}, {"type": "node", "id": 10274802869, "lat": 13.7344983, "lon": 100.6922976}, {"type": "node", "id": 10274802870, "lat": 13.734521, "lon": 100.6922988}, {"type": "node", "id": 10783934662, "lat": 13.7345155, "lon": 100.6923903}, {"type": "node", "id": 10783934663, "lat": 13.7344692, "lon": 100.6924358}, {"type": "node", "id": 11330709145, "lat": 13.7348373, "lon": 100.6926255}, {"type": "node", "id": 11330709146, "lat": 13.7348076, "lon": 100.6926247}, {"type": "node", "id": 11330709147, "lat": 13.734809, "lon": 100.6925764}, {"type": "node", "id": 11330709148, "lat": 13.734836, "lon": 100.6925759}, {"type": "node", "id": 5663199283, "lat": 13.7420569, "lon": 100.6946637}, {"type": "node", "id": 5663199291, "lat": 13.7408616, "lon": 100.6939972}, {"type": "node", "id": 5665198187, "lat": 13.7428176, "lon": 100.694545}, {"type": "node", "id": 5665198188, "lat": 13.7426921, "lon": 100.6950018}, {"type": "node", "id": 8001755016, "lat": 13.7414349, "lon": 100.6943182}, {"type": "node", "id": 11930887795, "lat": 13.7411754, "lon": 100.6941729}, {"type": "node", "id": 11930887796, "lat": 13.7409787, "lon": 100.6940628}, {"type": "node", "id": 11930887798, "lat": 13.740926, "lon": 100.6939195}, {"type": "node", "id": 11930887799, "lat": 13.7409304, "lon": 100.6938906}, {"type": "node", "id": 11930887800, "lat": 13.7409457, "lon": 100.693858}, {"type": "node", "id": 11930887801, "lat": 13.7409619, "lon": 100.6938176}, {"type": "node", "id": 11930887802, "lat": 13.7409812, "lon": 100.6937654}, {"type": "node", "id": 11930887803, "lat": 13.740998, "lon": 100.6936938}, {"type": "node", "id": 11930887804, "lat": 13.7411593, "lon": 100.6937449}, {"type": "node", "id": 11930887805, "lat": 13.7412098, "lon": 100.6937486}, {"type": "node", "id": 11930887806, "lat": 13.7413248, "lon": 100.6937739}, {"type": "node", "id": 11930887807, "lat": 13.7413831, "lon": 100.6937584}, {"type": "node", "id": 11930887808, "lat": 13.741495, "lon": 100.6937474}, {"type": "node", "id": 11930887809, "lat": 13.7415742, "lon": 100.6937679}, {"type": "node", "id": 11930887810, "lat": 13.7416934, "lon": 100.6937981}, {"type": "node", "id": 11930887811, "lat": 13.7418183, "lon": 100.6937968}, {"type": "node", "id": 11930887812, "lat": 13.7419346, "lon": 100.6938156}, {"type": "node", "id": 11930887813, "lat": 13.7421109, "lon": 100.6938253}, {"type": "node", "id": 11930887814, "lat": 13.742243, "lon": 100.6938211}, {"type": "node", "id": 11952905364, "lat": 13.7422239, "lon": 100.6947526}, {"type": "node", "id": 11952905368, "lat": 13.7424577, "lon": 100.6930871}, {"type": "node", "id": 11952922769, "lat": 13.7431001, "lon": 100.693242}, {"type": "node", "id": 11952922770, "lat": 13.7423148, "lon": 100.693792}, {"type": "node", "id": 11952922772, "lat": 13.7425941, "lon": 100.6949496}, {"type": "node", "id": 12093840399, "lat": 13.7416474, "lon": 100.694439}, {"type": "node", "id": 12093840400, "lat": 13.741857, "lon": 100.6945549}, {"type": "node", "id": 12175804234, "lat": 13.7422282, "lon": 100.6947549}, {"type": "node", "id": 12175804243, "lat": 13.7425401, "lon": 100.6949209}, {"type": "node", "id": 12175839182, "lat": 13.7413002, "lon": 100.6942428}, {"type": "node", "id": 12175839184, "lat": 13.7419099, "lon": 100.6945837}, {"type": "node", "id": 12175916853, "lat": 13.7423529, "lon": 100.6948212}, {"type": "node", "id": 12191940335, "lat": 13.7422912, "lon": 100.6947884}, {"type": "node", "id": 12581947977, "lat": 13.7436883, "lon": 100.6939762}, {"type": "node", "id": 12581947980, "lat": 13.7434623, "lon": 100.693924}, {"type": "node", "id": 12581947981, "lat": 13.7433001, "lon": 100.6938874}, {"type": "node", "id": 12581947982, "lat": 13.7431626, "lon": 100.6945165}, {"type": "node", "id": 12581947983, "lat": 13.7433251, "lon": 100.6945537}, {"type": "node", "id": 12581947984, "lat": 13.7438433, "lon": 100.6940131}, {"type": "node", "id": 12581947985, "lat": 13.7437136, "lon": 100.6946484}, {"type": "node", "id": 12581947986, "lat": 13.7435506, "lon": 100.6946078}]}