{"version": 0.6, "generator": "Overpass API 0.7.62.8 e802775f", "osm3s": {"timestamp_osm_base": "2025-11-20T03:20:30Z", "copyright": "The data included in this document is from www.openstreetmap.org. The data is made available under ODbL."}, "elements": [{"type": "node", "id": 1114352991, "lat": 13.7263148, "lon": 100.4930973, "tags": {"artwork_type": "statue", "historic": "monument", "name": "\u0e1e\u0e23\u0e30\u0e1a\u0e23\u0e21\u0e23\u0e32\u0e0a\u0e32\u0e19\u0e38\u0e2a\u0e32\u0e27\u0e23\u0e35\u0e22\u0e4c \u0e2a\u0e21\u0e40\u0e14\u0e47\u0e08\u0e1e\u0e23\u0e30\u0e40\u0e08\u0e49\u0e32\u0e15\u0e32\u0e01\u0e2a\u0e34\u0e19\u0e21\u0e2b\u0e32\u0e23\u0e32\u0e0a", "name:en": "King Taksin Monument", "name:th": "\u0e1e\u0e23\u0e30\u0e1a\u0e23\u0e21\u0e23\u0e32\u0e0a\u0e32\u0e19\u0e38\u0e2a\u0e32\u0e27\u0e23\u0e35\u0e22\u0e4c \u0e2a\u0e21\u0e40\u0e14\u0e47\u0e08\u0e1e\u0e23\u0e30\u0e40\u0e08\u0e49\u0e32\u0e15\u0e32\u0e01\u0e2a\u0e34\u0e19\u0e21\u0e2b\u0e32\u0e23\u0e32\u0e0a", "tourism": "artwork", "wikidata": "Q13017453", "wikimedia_commons": "Category:King Taksin Monument", "wikipedia": "th:\u0e1e\u0e23\u0e30\u0e1a\u0e23\u0e21\u0e23\u0e32\u0e0a\u0e32\u0e19\u0e38\u0e2a\u0e23\u0e13\u0e4c\u0e2a\u0e21\u0e40\u0e14\u0e47\u0e08\u0e1e\u0e23\u0e30\u0e40\u0e08\u0e49\u0e32\u0e01\u0e23\u0e38\u0e07\u0e18\u0e19\u0e1a\u0e38\u0e23\u0e35"}}, {"type": "node", "id": 1255818003, "lat": 13.7436576, "lon": 100.4920631, "tags": {"amenity": "cafe", "cuisine": "coffee_shop", "name:en": "Vivi - The Coffee Place", "opening_hours": "Mo-Su 10:00-20:00", "phone": "022264672", "website": "https://facebook.com/vivithecoffeeplace/"}}, {"type": "node", "id": 1523240497, "lat": 13.7426341, "lon": 100.4961389, "tags": {"amenity": "cafe", "brand": "Caf\u00e9 Amazon", "brand:wikidata": "Q43247503", "brand:wikipedia": "en:Caf\u00e9 Amazon", "cuisine": "coffee_shop", "name": "Caf\u00e9 Amazon", "owner": "PTT", "takeaway": "yes", "website": "http://www.cafe-amazon.com/"}}, {"type": "node", "id": 1527999677, "lat": 13.7333894, "lon": 100.4911333, "tags": {"amenity": "restaurant", "name": "\u0e23\u0e32\u0e14\u0e2b\u0e19\u0e49\u0e32\u0e1c\u0e31\u0e14\u0e0b\u0e35\u0e2d\u0e34\u0e4a\u0e27\u0e23\u0e2a\u0e40\u0e25\u0e34\u0e28"}}, {"type": "node", "id": 1528023359, "lat": 13.7329725, "lon": 100.4893845, "tags": {"alt_name": "\u0e2d\u0e19\u0e38\u0e2a\u0e32\u0e27\u0e23\u0e35\u0e22\u0e4c\u0e40\u0e08\u0e49\u0e32\u0e1e\u0e48\u0e2d", "historic": "memorial", "name": "\u0e2d\u0e19\u0e38\u0e2a\u0e32\u0e27\u0e23\u0e35\u0e22\u0e4c\u0e2a\u0e21\u0e40\u0e14\u0e47\u0e08\u0e40\u0e08\u0e49\u0e32\u0e1e\u0e23\u0e30\u0e22\u0e32\u0e1a\u0e23\u0e21\u0e21\u0e2b\u0e32\u0e28\u0e23\u0e35\u0e2a\u0e38\u0e23\u0e34\u0e22\u0e27\u0e07\u0e28\u0e4c"}}, {"type": "node", "id": 1765313096, "lat": 13.7206406, "lon": 100.4953819, "tags": {"amenity": "cafe", "cuisine": "coffee_shop", "designation": "\u0e23\u0e49\u0e32\u0e19\u0e01\u0e32\u0e41\u0e1f \u0e04\u0e32\u0e40\u0e1f \u0e40\u0e21\u0e0b\u0e32\u0e21\u0e35 \u0e23\u0e16\u0e44\u0e1f\u0e1f\u0e49\u0e32 \u0e1a\u0e35\u0e17\u0e35\u0e40\u0e2d\u0e2a \u0e27\u0e07\u0e40\u0e27\u0e35\u0e22\u0e19\u0e43\u0e2b\u0e0d\u0e48", "name": "\u0e04\u0e32\u0e40\u0e1f \u0e40\u0e21\u0e0b\u0e32\u0e21\u0e35", "name:en": "Cafe Mes amis", "name:th": "\u0e04\u0e32\u0e40\u0e1f \u0e40\u0e21\u0e0b\u0e32\u0e21\u0e35", "wifi": "yes"}}, {"type": "node", "id": 1881978015, "lat": 13.7174759, "lon": 100.4522428, "tags": {"amenity": "restaurant", "name": "\u0e23\u0e34\u0e21\u0e19\u0e49\u0e33\u0e40\u0e08\u0e49\u0e32\u0e1e\u0e23\u0e30\u0e22\u0e32\u0e2b\u0e21\u0e39\u0e01\u0e30\u0e17\u0e30"}}, {"type": "node", "id": 1883376544, "lat": 13.7198558, "lon": 100.4557426, "tags": {"amenity": "restaurant", "name": "\u0e40\u0e08\u0e35\u0e22\u0e07\u0e25\u0e39\u0e01\u0e0a\u0e34\u0e49\u0e19\u0e1b\u0e25\u0e32 \u0e2a\u0e32\u0e02\u0e32\u0e40\u0e1e\u0e0a\u0e23\u0e40\u0e01\u0e29\u0e21"}}, {"type": "node", "id": 1883377550, "lat": 13.7192904, "lon": 100.4548011, "tags": {"amenity": "restaurant", "name": "\u0e15\u0e32\u0e2b\u0e19\u0e4a\u0e33\u0e1a\u0e30\u0e2b\u0e21\u0e35\u0e48\u0e40\u0e01\u0e35\u0e4a\u0e22\u0e27 80 \u0e1b\u0e35 & \u0e0a\u0e32\u0e25\u0e35\u0e2a\u0e40\u0e15\u0e47\u0e01\u0e2a\u0e4c"}}, {"type": "node", "id": 1883487417, "lat": 13.7200743, "lon": 100.455217, "tags": {"amenity": "restaurant", "name": "\u0e23\u0e49\u0e32\u0e19\u0e2d\u0e32\u0e2b\u0e32\u0e23\u0e15\u0e32\u0e21\u0e2a\u0e31\u0e48\u0e07"}}, {"type": "node", "id": 1883502627, "lat": 13.7226278, "lon": 100.4543936, "tags": {"amenity": "restaurant", "name": "\u0e01\u0e4b\u0e27\u0e22\u0e40\u0e15\u0e35\u0e4b\u0e22\u0e27\u0e2b\u0e21\u0e39\u0e15\u0e38\u0e4b\u0e19 (\u0e23\u0e2a\u0e2a\u0e30\u0e40\u0e14\u0e47\u0e14)"}}, {"type": "node", "id": 1883503301, "lat": 13.7227112, "lon": 100.4541227, "tags": {"amenity": "restaurant"}}, {"type": "node", "id": 1883519461, "lat": 13.7226852, "lon": 100.4539349, "tags": {"amenity": "restaurant"}}, {"type": "node", "id": 1883519463, "lat": 13.722719, "lon": 100.4538196, "tags": {"amenity": "restaurant"}}, {"type": "node", "id": 1883521903, "lat": 13.7232297, "lon": 100.4532054, "tags": {"amenity": "restaurant"}}, {"type": "node", "id": 1883530192, "lat": 13.7252256, "lon": 100.4525482, "tags": {"amenity": "restaurant", "name": "\u0e23\u0e49\u0e32\u0e19\u0e02\u0e32\u0e1b\u0e23\u0e30\u0e08\u0e33 \u0e2a\u0e32\u0e02\u0e32 2"}}, {"type": "node", "id": 1883534904, "lat": 13.7262133, "lon": 100.4519017, "tags": {"amenity": "restaurant", "name": "Prince of \u0e40\u0e01\u0e32\u0e30\u0e1e\u0e07\u0e31\u0e19 Beach & Restuarant"}}, {"type": "node", "id": 1883534905, "lat": 13.7258536, "lon": 100.4528406, "tags": {"amenity": "restaurant"}}, {"type": "node", "id": 1883535474, "lat": 13.7261194, "lon": 100.4519581, "tags": {"amenity": "cafe", "name": "Prince of \u0e40\u0e01\u0e32\u0e30\u0e1e\u0e07\u0e31\u0e19 Coffe"}}, {"type": "node", "id": 1883569045, "lat": 13.729319, "lon": 100.4517596, "tags": {"amenity": "restaurant", "name": "Sea Time"}}, {"type": "node", "id": 1887121773, "lat": 13.7448277, "lon": 100.4912739, "tags": {"addr:postcode": "10200", "name": "Arun Residence", "tourism": "hotel"}}, {"type": "node", "id": 1887121774, "lat": 13.7448593, "lon": 100.4911918, "tags": {"alt_name": "The Deck by Arun Residence", "amenity": "restaurant", "name": "The Deck"}}, {"type": "node", "id": 1890946485, "lat": 13.7184138, "lon": 100.4524383, "tags": {"amenity": "restaurant"}}, {"type": "node", "id": 1890946486, "lat": 13.7182053, "lon": 100.4524437, "tags": {"amenity": "restaurant", "name": "\u0e42\u0e04\u0e02\u0e38\u0e19 \u0e0b\u0e2d\u0e22\u0e40\u0e1e\u0e0a\u0e23\u0e40\u0e01\u0e29\u0e21 38"}}, {"type": "node", "id": 1890947540, "lat": 13.7179005, "lon": 100.4519207, "tags": {"amenity": "cafe", "cuisine": "coffee_shop", "name": "Sit 'n Sip Cafe"}}, {"type": "node", "id": 1892777740, "lat": 13.7240164, "lon": 100.4510609, "tags": {"amenity": "restaurant"}}, {"type": "node", "id": 1892785197, "lat": 13.7238652, "lon": 100.4500953, "tags": {"amenity": "restaurant"}}, {"type": "node", "id": 1892795713, "lat": 13.7173015, "lon": 100.4502696, "tags": {"amenity": "restaurant"}}, {"type": "node", "id": 1892795899, "lat": 13.7175491, "lon": 100.4502428, "tags": {"amenity": "restaurant"}}, {"type": "node", "id": 1892799121, "lat": 13.7193783, "lon": 100.4500309, "tags": {"amenity": "restaurant", "name": "\u0e02\u0e19\u0e21\u0e08\u0e35\u0e19\u0e25\u0e49\u0e32\u0e19\u0e19\u0e32"}}, {"type": "node", "id": 1892799474, "lat": 13.7199437, "lon": 100.4501167, "tags": {"amenity": "restaurant"}}, {"type": "node", "id": 2367434259, "lat": 13.7406467, "lon": 100.4980403, "tags": {"artwork_type": "statue", "historic": "monument", "name": "\u0e1b\u0e10\u0e21\u0e1a\u0e23\u0e21\u0e23\u0e32\u0e0a\u0e32\u0e19\u0e38\u0e2a\u0e23\u0e13\u0e4c", "name:en": "King Rama I (Phra Buddha Yodfa) Statue", "name:th": "\u0e1b\u0e10\u0e21\u0e1a\u0e23\u0e21\u0e23\u0e32\u0e0a\u0e32\u0e19\u0e38\u0e2a\u0e23\u0e13\u0e4c", "tourism": "artwork", "wikidata": "Q108821678", "wikipedia": "th:\u0e1b\u0e10\u0e21\u0e1a\u0e23\u0e21\u0e23\u0e32\u0e0a\u0e32\u0e19\u0e38\u0e2a\u0e23\u0e13\u0e4c"}}, {"type": "node", "id": 2972682323, "lat": 13.726354, "lon": 100.4998622, "tags": {"amenity": "restaurant", "diet:vegetarian": "yes", "name": "Healthy Pan"}}, {"type": "node", "id": 2972684238, "lat": 13.7445451, "lon": 100.4998272, "tags": {"amenity": "restaurant", "diet:vegan": "yes", "diet:vegetarian": "yes", "name": "Nang Aharn Jay"}}, {"type": "node", "id": 3036731573, "lat": 13.7441686, "lon": 100.4888931, "tags": {"addr:postcode": "10600", "amenity": "cafe", "cuisine": "coffee_shop;ice_cream", "name": "\u0e01\u0e32\u0e41\u0e1f\u0e27\u0e31\u0e14\u0e2d\u0e23\u0e38\u0e13", "name:en": "Coffee at Arun temple"}}, {"type": "node", "id": 3431325821, "lat": 13.7135628, "lon": 100.4790289, "tags": {"amenity": "cafe", "brand": "Starbucks", "brand:wikidata": "Q37158", "brand:wikipedia": "en:Starbucks", "cuisine": "coffee_shop", "name": "Starbucks", "name:en": "Starbucks Coffee", "name:th": "\u0e2a\u0e15\u0e32\u0e23\u0e4c\u0e1a\u0e31\u0e04\u0e2a\u0e4c", "official_name": "Starbucks Coffee", "shop": "coffee", "smoking": "no", "takeaway": "yes", "website": "https://www.starbucks.com/", "wheelchair": "yes"}}, {"type": "node", "id": 3431325825, "lat": 13.7231369, "lon": 100.4636302, "tags": {"amenity": "cafe", "brand": "Starbucks", "brand:wikidata": "Q37158", "cuisine": "coffee_shop", "name": "Starbucks", "name:en": "Starbucks Coffee", "name:th": "\u0e2a\u0e15\u0e32\u0e23\u0e4c\u0e1a\u0e31\u0e04\u0e2a\u0e4c", "official_name": "Starbucks Coffee", "shop": "coffee", "smoking": "no", "takeaway": "yes", "website": "https://www.starbucks.co.th/"}}, {"type": "node", "id": 3448864175, "lat": 13.7108652, "lon": 100.4978443, "tags": {"amenity": "cafe", "name": "Take a Shot"}}, {"type": "node", "id": 3496310047, "lat": 13.7163134, "lon": 100.4991084, "tags": {"amenity": "restaurant", "name": "\u0e2a\u0e40\u0e15\u0e4a\u0e01"}}, {"type": "node", "id": 3832016359, "lat": 13.7213975, "lon": 100.4996827, "tags": {"addr:city": "\u0e01\u0e23\u0e38\u0e07\u0e40\u0e17\u0e1e\u0e21\u0e2b\u0e32\u0e19\u0e04\u0e23", "addr:postcode": "10600", "addr:street": "\u0e16\u0e19\u0e19\u0e01\u0e23\u0e38\u0e07\u0e18\u0e19\u0e1a\u0e38\u0e23\u0e35", "amenity": "cafe", "brand": "\u0e04\u0e32\u0e40\u0e1f\u0e48 \u0e2d\u0e40\u0e21\u0e0b\u0e2d\u0e19", "brand:en": "Caf\u00e9 Amazon", "brand:th": "\u0e04\u0e32\u0e40\u0e1f\u0e48 \u0e2d\u0e40\u0e21\u0e0b\u0e2d\u0e19", "brand:wikidata": "Q43247503", "cuisine": "coffee_shop", "name": "\u0e04\u0e32\u0e40\u0e1f\u0e48 \u0e2d\u0e40\u0e21\u0e0b\u0e2d\u0e19", "name:en": "Caf\u00e9 Amazon", "name:th": "\u0e04\u0e32\u0e40\u0e1f\u0e48 \u0e2d\u0e40\u0e21\u0e0b\u0e2d\u0e19", "takeaway": "yes"}}, {"type": "node", "id": 3878917073, "lat": 13.7497024, "lon": 100.4983832, "tags": {"internet_access": "wlan", "name": "Granny Bike.bed", "operator": "Neemo and Parn", "tourism": "guest_house"}}, {"type": "node", "id": 3932966569, "lat": 13.7415838, "lon": 100.4943109, "tags": {"amenity": "restaurant", "cuisine": "thai", "internet_access": "wlan", "name:en": "River Cafe"}}, {"type": "node", "id": 3972123239, "lat": 13.7429709, "lon": 100.4876032, "tags": {"amenity": "restaurant", "name:en": "Somboon thai restaurant"}}, {"type": "node", "id": 4161559690, "lat": 13.743963, "lon": 100.4924056, "tags": {"name": "Chaiwat Guesthouse", "tourism": "guest_house"}}, {"type": "node", "id": 4165357989, "lat": 13.7408485, "lon": 100.4843282, "tags": {"amenity": "restaurant"}}, {"type": "node", "id": 4173566689, "lat": 13.7294064, "lon": 100.4836616, "tags": {"name": "Over Stay Hotel", "tourism": "hotel"}}, {"type": "node", "id": 4200510216, "lat": 13.7484049, "lon": 100.4953406, "tags": {"historic": "monument", "image": "https://upload.wikimedia.org/wikipedia/commons/b/bf/\u0e2d\u0e19\u0e38\u0e2a\u0e32\u0e27\u0e23\u0e35\u0e22\u0e4c\u0e2a\u0e21\u0e40\u0e14\u0e47\u0e08\u0e1e\u0e23\u0e30\u0e19\u0e32\u0e07\u0e40\u0e08\u0e49\u0e32\u0e2a\u0e38\u0e19\u0e31\u0e19\u0e17\u0e32\u0e01\u0e38\u0e21\u0e32\u0e23\u0e35\u0e23\u0e31\u0e15\u0e19\u0e4c_\u0e2a\u0e27\u0e19\u0e2a\u0e23\u0e32\u0e0d\u0e23\u0e21\u0e22\u0e4c_01.jpg", "mapillary": "936511030516128", "name": "\u0e2d\u0e19\u0e38\u0e2a\u0e32\u0e27\u0e23\u0e35\u0e22\u0e4c\u0e2a\u0e21\u0e40\u0e14\u0e47\u0e08\u0e1e\u0e23\u0e30\u0e19\u0e32\u0e07\u0e40\u0e08\u0e49\u0e32\u0e2a\u0e38\u0e19\u0e31\u0e19\u0e17\u0e32\u0e01\u0e38\u0e21\u0e32\u0e23\u0e35\u0e23\u0e31\u0e15\u0e19\u0e4c", "name:en": "Queen Sunanda Kumariratana Memorial", "name:th": "\u0e2d\u0e19\u0e38\u0e2a\u0e32\u0e27\u0e23\u0e35\u0e22\u0e4c\u0e2a\u0e21\u0e40\u0e14\u0e47\u0e08\u0e1e\u0e23\u0e30\u0e19\u0e32\u0e07\u0e40\u0e08\u0e49\u0e32\u0e2a\u0e38\u0e19\u0e31\u0e19\u0e17\u0e32\u0e01\u0e38\u0e21\u0e32\u0e23\u0e35\u0e23\u0e31\u0e15\u0e19\u0e4c", "opening_hours": "Mo-Su 04:30-21:00", "wikidata": "Q134084086"}}, {"type": "node", "id": 4238653790, "lat": 13.7135108, "lon": 100.4650374, "tags": {"name": "\u0e04\u0e2d\u0e19\u0e42\u0e14\u0e40\u0e14\u0e2d\u0e30\u0e04\u0e35", "tourism": "hostel"}}, {"type": "node", "id": 4248050698, "lat": 13.7474096, "lon": 100.4977159, "tags": {"name": "Feung Narkhorn ", "tourism": "hotel"}}, {"type": "node", "id": 4257127190, "lat": 13.7274865, "lon": 100.4990793, "tags": {"addr:postcode": "100600", "addr:street": "Soi Lat Ya 6, Khlong San, Bangkok", "name": "Thai Bamboo Tattoo", "phone": "+66895056689", "tourism": "attraction"}}, {"type": "node", "id": 4296613994, "lat": 13.7080548, "lon": 100.4822344, "tags": {"amenity": "cafe"}}, {"type": "node", "id": 4335224489, "lat": 13.7219846, "lon": 100.4919234, "tags": {"name": "Loft inn", "tourism": "hotel"}}, {"type": "node", "id": 4339325236, "lat": 13.7455671, "lon": 100.4852972, "tags": {"amenity": "restaurant", "cuisine": "thai", "name": "\u0e01\u0e4b\u0e27\u0e22\u0e40\u0e15\u0e35\u0e4b\u0e22\u0e27\u0e40\u0e23\u0e37\u0e2d\u0e2d\u0e22\u0e38\u0e18\u0e22\u0e32 \"\u0e25\u0e38\u0e07\""}}, {"type": "node", "id": 4374242092, "lat": 13.7408711, "lon": 100.4956527, "tags": {"amenity": "cafe", "brand": "Starbucks", "brand:wikidata": "Q37158", "cuisine": "coffee_shop", "name": "Starbucks", "name:es": "Starbucks", "official_name": "Starbucks Coffee", "takeaway": "yes"}}, {"type": "node", "id": 4486660390, "lat": 13.7446485, "lon": 100.4922636, "tags": {"addr:housenumber": "392/37", "addr:postcode": "8200", "addr:street": "Thanon Mahathat", "amenity": "cafe", "internet_access": "wlan", "name:en": "Blue Whale 392", "opening_hours": "Fr-We 10:00-20:00"}}, {"type": "node", "id": 4512902590, "lat": 13.7410409, "lon": 100.4955311, "tags": {"amenity": "cafe", "name:en": "Starbucks", "opening_hours": "Mo-Su 07:00-22:00"}}, {"type": "node", "id": 4544807689, "lat": 13.7108636, "lon": 100.4555421, "tags": {"tourism": "hotel"}}, {"type": "node", "id": 4551592889, "lat": 13.7232417, "lon": 100.4956729, "tags": {"name:en": "The seed - sathorm taksim", "tourism": "guest_house"}}, {"type": "node", "id": 4566943823, "lat": 13.7051119, "lon": 100.4909787, "tags": {"amenity": "restaurant"}}, {"type": "node", "id": 4566943828, "lat": 13.7052591, "lon": 100.4907024, "tags": {"amenity": "cafe", "brand": "The Coffee Club", "brand:wikidata": "Q7726599", "cuisine": "coffee_shop", "internet_access": "wlan", "name": "The Coffee Club", "name:en": "The Coffee Club", "takeaway": "yes"}}, {"type": "node", "id": 4589454991, "lat": 13.7135064, "lon": 100.4764156, "tags": {"amenity": "restaurant", "name:en": "Sizzler"}}, {"type": "node", "id": 4642387813, "lat": 13.7451421, "lon": 100.4919287, "tags": {"amenity": "restaurant", "name": "The GATE", "name:de": "The GATE", "name:en": "The GATE", "name:th": "The GATE"}}, {"type": "node", "id": 4677741406, "lat": 13.7464364, "lon": 100.4907575, "tags": {"amenity": "restaurant", "cuisine": "asian", "name": "\u0e2d\u0e32\u0e21\u0e48\u0e32", "name:de": "Ama", "name:en": "Ama", "name:ru": "\u0410\u043c\u0430", "name:th": "\u0e2d\u0e32\u0e21\u0e48\u0e32"}}, {"type": "node", "id": 4677772789, "lat": 13.7448854, "lon": 100.4916568, "tags": {"amenity": "restaurant", "cuisine": "thai", "diet:vegan": "yes", "diet:vegetarian": "yes", "internet_access": "wlan", "name:de": "Home Cafe Tha Tien", "name:en": "Home Cafe Tha Tien", "opening_hours": "Mo-Sa 10:30-18:30", "phone": "+66 2 622 1936"}}, {"type": "node", "id": 4715284192, "lat": 13.7450717, "lon": 100.4919616, "tags": {"amenity": "restaurant", "name:en": "The Gate", "opening_hours": "Mo-Su 09:00-18:00"}}, {"type": "node", "id": 4739296321, "lat": 13.744012, "lon": 100.4923154, "tags": {"addr:housenumber": "394/19", "addr:postcode": "10200", "addr:street": "Maha Rat Rd", "internet_access": "wlan", "name": "Chaiwat Guesthouse", "phone": "087 014 4433", "tourism": "guest_house"}}, {"type": "node", "id": 4763918421, "lat": 13.7463764, "lon": 100.4974001, "tags": {"addr:housenumber": "84", "addr:street": "\u0e16\u0e19\u0e19\u0e1a\u0e49\u0e32\u0e19\u0e2b\u0e21\u0e49\u0e2d", "alt_name:th": "\u0e14\u0e35\u0e21\u0e35\u0e42\u0e20\u0e0a\u0e19\u0e32;\u0e01\u0e4b\u0e27\u0e22\u0e40\u0e15\u0e35\u0e4b\u0e22\u0e27\u0e40\u0e23\u0e37\u0e2d \u0e14\u0e35\u0e21\u0e35;\u0e01\u0e4b\u0e27\u0e22\u0e40\u0e15\u0e35\u0e4b\u0e22\u0e27\u0e40\u0e23\u0e37\u0e2d\u0e14\u0e35\u0e21\u0e35", "amenity": "restaurant", "cuisine": "noodle", "name": "\u0e19\u0e34\u0e27\u0e14\u0e35\u0e21\u0e35\u0e42\u0e20\u0e0a\u0e19\u0e32", "name:th": "\u0e19\u0e34\u0e27\u0e14\u0e35\u0e21\u0e35\u0e42\u0e20\u0e0a\u0e19\u0e32", "phone": "+66 88 621 5599"}}, {"type": "node", "id": 4816850221, "lat": 13.7410075, "lon": 100.4958181, "tags": {"internet_access": "wlan", "name": "Onion Hotel", "opening_hours": "Mo-Su 07:00-22:00", "tourism": "hotel"}}, {"type": "node", "id": 4847218022, "lat": 13.701007, "lon": 100.4901656, "tags": {"name:zh": "\u7709\u5357\u6cb3\u904a\u8239\u9910\u5ef3", "tourism": "attraction"}}, {"type": "node", "id": 4923344221, "lat": 13.7410445, "lon": 100.4952215, "tags": {"addr:housenumber": "174", "addr:street": "\u0e16\u0e19\u0e19\u0e08\u0e31\u0e01\u0e23\u0e40\u0e1e\u0e0a\u0e23", "amenity": "restaurant", "name": "\u0e23\u0e49\u0e32\u0e19\u0e25\u0e32\u0e20\u0e25\u0e2d\u0e22 @ \u0e22\u0e2d\u0e14\u0e1e\u0e34\u0e21\u0e32\u0e19", "name:en": "LarbLoi river restaurant", "name:zh": "LarbLoi \u6cb3\u5cb8\u9910\u5ef3", "opening_hours": "Mo-Su 11:00-23:00"}}, {"type": "node", "id": 4928977922, "lat": 13.7450947, "lon": 100.4911092, "tags": {"addr:district": "\u0e1e\u0e23\u0e30\u0e19\u0e04\u0e23", "addr:housenumber": "FL1 INN A DAY", "addr:place": "\u0e0a\u0e38\u0e21\u0e0a\u0e19\u0e17\u0e48\u0e32\u0e40\u0e15\u0e35\u0e22\u0e19", "addr:postcode": "10200", "addr:province": "\u0e01\u0e23\u0e38\u0e07\u0e40\u0e17\u0e1e\u0e21\u0e2b\u0e32\u0e19\u0e04\u0e23", "addr:street": "Thanon Mahathat", "addr:subdistrict": "\u0e1e\u0e23\u0e30\u0e1a\u0e23\u0e21\u0e21\u0e2b\u0e32\u0e23\u0e32\u0e0a\u0e27\u0e31\u0e07", "amenity": "restaurant", "cuisine": "thai", "name": "MUG JEE", "opening_hours": "Mo-Su 12:00-24:00", "phone": "+6622210577", "website": "https://www.innaday.com/"}}, {"type": "node", "id": 4929014021, "lat": 13.7447827, "lon": 100.4922425, "tags": {"addr:housenumber": "392/1-2", "addr:postcode": "10200", "addr:street": "Thanon Mahathat", "amenity": "restaurant", "name": "Baan ThaTien Cafe", "opening_hours": "Mo-Su 07:30-17:00", "phone": "+66951515545"}}, {"type": "node", "id": 4969652321, "lat": 13.7451968, "lon": 100.4913119, "tags": {"addr:postcode": "10200", "amenity": "restaurant", "cuisine": "italian;thai", "diet:vegan": "yes", "diet:vegetarian": "only", "internet_access": "wlan", "name": "Began Vegan", "opening_hours": "Mo-Su 10:00-18:00", "website": "https://m.facebook.com/makememango/"}}, {"type": "node", "id": 4971894721, "lat": 13.7464626, "lon": 100.4908854, "tags": {"amenity": "restaurant", "name:en": "Tian Store Restaurant"}}, {"type": "node", "id": 5002756021, "lat": 13.7441001, "lon": 100.4917688, "tags": {"addr:housenumber": "392/25-26", "addr:postcode": "10200", "addr:street": "Thanon Mahathat", "amenity": "restaurant", "name:en": "Above Riva", "phone": "022211188", "website": "https://www.rivaarunbangkok.com/"}}, {"type": "node", "id": 5031707522, "lat": 13.7243154, "lon": 100.4976688, "tags": {"addr:street": "\u0e16\u0e19\u0e19\u0e01\u0e23\u0e38\u0e07\u0e18\u0e19\u0e1a\u0e38\u0e23\u0e35", "amenity": "restaurant", "cuisine": "seafood", "name": "Somsak Bpuu Ob", "opening_hours": "Mo-Su 17:00-21:30"}}, {"type": "node", "id": 5195396232, "lat": 13.7495825, "lon": 100.4983207, "tags": {"addr:postcode": "10200", "amenity": "cafe", "internet_access": "wlan", "name:en": "NO.14 Cafe", "opening_hours": "Mo-Fr 07:30-16:00; Sa 08:30-15:00"}}, {"type": "node", "id": 5225793821, "lat": 13.7437118, "lon": 100.4960164, "tags": {"addr:housenumber": "179", "addr:street": "\u0e16\u0e19\u0e19\u0e2d\u0e31\u0e29\u0e0e\u0e32\u0e07\u0e04\u0e4c", "amenity": "cafe", "cuisine": "coffee_shop", "internet_access": "wlan", "name:en": "Farm to table"}}, {"type": "node", "id": 5316042722, "lat": 13.720769, "lon": 100.4764718, "tags": {"amenity": "restaurant", "name:en": "Tong Leng Noodles"}}, {"type": "node", "id": 5319518021, "lat": 13.7464956, "lon": 100.4908168, "tags": {"amenity": "cafe", "cuisine": "asian;coffee_shop;breakfast", "name": "Goodjob", "name:en": "Goodjob", "opening_hours": "Mo-Su 09:30-18:00"}}, {"type": "node", "id": 5325061721, "lat": 13.7451963, "lon": 100.4912859, "tags": {"addr:street": "67 Maha Rat Rd, Khwaeng Phra Borom Maha Ratchawang, Khet Phra Nakhon, Krung Thep Maha Nakhon 10200", "amenity": "cafe", "name:en": "Make Me Mango"}}, {"type": "node", "id": 5330666722, "lat": 13.7475515, "lon": 100.4976326, "tags": {"addr:housenumber": "130/12", "addr:postcode": "10200", "addr:street": "\u0e16\u0e19\u0e19\u0e40\u0e1f\u0e37\u0e48\u0e2d\u0e07\u0e19\u0e04\u0e23", "amenity": "cafe", "name:en": "Old Town Cafe Bangkok", "opening_hours": "Sa-We 08:30-16:30", "phone": "0818108456", "website": "http://www.facebook.com/OldTownCafeBangkok"}}, {"type": "node", "id": 5340223521, "lat": 13.7450697, "lon": 100.4992528, "tags": {"amenity": "cafe", "name": "Vimalin kitchen"}}, {"type": "node", "id": 5344191226, "lat": 13.7489661, "lon": 100.4991268, "tags": {"addr:postcode": "10200", "name": "K8 Hostel", "tourism": "hostel"}}, {"type": "node", "id": 5367410721, "lat": 13.7055309, "lon": 100.4908815, "tags": {"amenity": "cafe", "brand": "Starbucks", "brand:wikidata": "Q37158", "cuisine": "coffee_shop", "internet_access": "wlan", "name": "Starbucks", "name:en": "Starbucks", "official_name": "Starbucks Coffee", "takeaway": "yes"}}, {"type": "node", "id": 5374165521, "lat": 13.7335347, "lon": 100.4919726, "tags": {"amenity": "restaurant", "name": "\u0e1b\u0e49\u0e32\u0e01\u0e34\u0e08 \u0e23.9"}}, {"type": "node", "id": 5382326921, "lat": 13.7483977, "lon": 100.4990615, "tags": {"name:en": "K8 Hostel", "tourism": "hotel"}}, {"type": "node", "id": 5383876924, "lat": 13.7328673, "lon": 100.4933736, "tags": {"amenity": "restaurant"}}, {"type": "node", "id": 5432919023, "lat": 13.7393146, "lon": 100.4930099, "tags": {"name": "\u0e1e\u0e34\u0e1e\u0e34\u0e18\u0e20\u0e31\u0e13\u0e11\u0e4c\u0e1a\u0e49\u0e32\u0e19\u0e01\u0e38\u0e0e\u0e35\u0e08\u0e35\u0e19", "name:en": "Baan Kudichin Museum", "name:th": "\u0e1e\u0e34\u0e1e\u0e34\u0e18\u0e20\u0e31\u0e13\u0e11\u0e4c\u0e1a\u0e49\u0e32\u0e19\u0e01\u0e38\u0e0e\u0e35\u0e08\u0e35\u0e19", "tourism": "attraction", "wikidata": "Q73545513"}}, {"type": "node", "id": 5432940624, "lat": 13.739201, "lon": 100.4932456, "tags": {"name:en": "Street Art", "tourism": "artwork"}}, {"type": "node", "id": 5462334721, "lat": 13.7273328, "lon": 100.4979252, "tags": {"amenity": "restaurant", "name:en": "Pad Thai Narok Taek"}}, {"type": "node", "id": 5497967727, "lat": 13.742236, "lon": 100.496746, "tags": {"addr:district": "\u0e1e\u0e23\u0e30\u0e19\u0e04\u0e23", "addr:housenumber": "67", "addr:postcode": "10200", "addr:province": "\u0e01\u0e23\u0e38\u0e07\u0e40\u0e17\u0e1e\u0e21\u0e2b\u0e32\u0e19\u0e04\u0e23", "addr:street": "Chakkraphet Rd,", "addr:subdistrict": "Khwaeng Wang Burapha Phirom", "amenity": "cafe", "cuisine": "tea;cake;coffee_shop", "internet_access": "wlan", "name": "Floral Cafe", "name:en": "Floral Cafe", "opening_hours": "Mo-So 09:00-19:00", "phone": "02 222 6895"}}, {"type": "node", "id": 5572388724, "lat": 13.7269499, "lon": 100.4861409, "tags": {"name:en": "Motif Condominium", "tourism": "hotel"}}, {"type": "node", "id": 5591939222, "lat": 13.7224385, "lon": 100.4615433, "tags": {"internet_access": "wlan", "name:en": "Bang Wa", "name:ru": "\u0411\u0430\u043d\u0433 \u0412\u0430", "tourism": "hostel", "wikidata": "Q18162596", "wikimedia_commons": "Category:Bang Wa BTS Station", "wikipedia": "en:Bang Wa station"}}, {"type": "node", "id": 5592851222, "lat": 13.7443103, "lon": 100.4861438, "tags": {"amenity": "restaurant"}}, {"type": "node", "id": 5604203921, "lat": 13.7457977, "lon": 100.491386, "tags": {"amenity": "restaurant", "name:en": "The Sixth", "opening_hours": "Mo-Fr 10:30-17:30"}}, {"type": "node", "id": 5604283421, "lat": 13.7463158, "lon": 100.4911098, "tags": {"amenity": "restaurant", "name:en": "Tang Heng Kee"}}, {"type": "node", "id": 5606293021, "lat": 13.7443017, "lon": 100.4916562, "tags": {"amenity": "restaurant", "name:en": "Suppaniga"}}, {"type": "node", "id": 5613688224, "lat": 13.7457337, "lon": 100.4913474, "tags": {"amenity": "cafe", "name": "Tha Tia Art Caf\u00e9", "name:th": "Tha Tian Art Caf\u00e9"}}, {"type": "node", "id": 5761725158, "lat": 13.7439306, "lon": 100.4921701, "tags": {"amenity": "restaurant", "name:en": "Urban Rustic Thai"}}, {"type": "node", "id": 5810806853, "lat": 13.7439653, "lon": 100.4921994, "tags": {"addr:housenumber": "394/35", "addr:postcode": "10200", "addr:street": "Maharaj Road", "amenity": "restaurant", "email": "info@errbkk.com", "name": "Err", "opening_hours": "Tu-Su 11:00-22:00", "phone": "02 622 2291 - 2", "website": "https://www.errbkk.com/"}}, {"type": "node", "id": 5820861955, "lat": 13.7498661, "lon": 100.49621, "tags": {"description": "https://photos.app.goo.gl/Q3fGHXqujPrLQ2zw5", "historic": "memorial", "image": "https://images.mapillary.com/d0CAITE50mo2vm8E7CvjLQ/thumb-2048.jpg", "mapillary": "1774945372678854", "name": "\u0e2d\u0e19\u0e38\u0e2a\u0e32\u0e27\u0e23\u0e35\u0e22\u0e4c\u0e2b\u0e21\u0e39", "name:en": "Pig Memorial", "name:th": "\u0e2d\u0e19\u0e38\u0e2a\u0e32\u0e27\u0e23\u0e35\u0e22\u0e4c\u0e2b\u0e21\u0e39", "official_name": "\u0e2d\u0e19\u0e38\u0e2a\u0e32\u0e27\u0e23\u0e35\u0e22\u0e4c\u0e2a\u0e2b\u0e0a\u0e32\u0e15\u0e34", "official_name:th": "\u0e2d\u0e19\u0e38\u0e2a\u0e32\u0e27\u0e23\u0e35\u0e22\u0e4c\u0e2a\u0e2b\u0e0a\u0e32\u0e15\u0e34", "start_date": "1913", "wikidata": "Q2211964", "wikipedia": "th:\u0e2d\u0e19\u0e38\u0e2a\u0e32\u0e27\u0e23\u0e35\u0e22\u0e4c\u0e2b\u0e21\u0e39\u0e41\u0e25\u0e30\u0e2a\u0e30\u0e1e\u0e32\u0e19\u0e1b\u0e35\u0e01\u0e38\u0e19"}}, {"type": "node", "id": 5821683753, "lat": 13.7455185, "lon": 100.4908772, "tags": {"amenity": "restaurant", "name:it": "Trok Tha Tian"}}, {"type": "node", "id": 5827289928, "lat": 13.7444249, "lon": 100.4989578, "tags": {"historic": "memorial", "memorial": "statue", "name": "\u0e2d\u0e19\u0e38\u0e2a\u0e32\u0e27\u0e23\u0e35\u0e22\u0e4c\u0e2a\u0e21\u0e40\u0e14\u0e47\u0e08\u0e40\u0e08\u0e49\u0e32\u0e1f\u0e49\u0e32\u0e08\u0e38\u0e11\u0e32\u0e18\u0e38\u0e0a\u0e18\u0e23\u0e32\u0e14\u0e34\u0e25\u0e01", "name:th": "\u0e2d\u0e19\u0e38\u0e2a\u0e32\u0e27\u0e23\u0e35\u0e22\u0e4c\u0e2a\u0e21\u0e40\u0e14\u0e47\u0e08\u0e40\u0e08\u0e49\u0e32\u0e1f\u0e49\u0e32\u0e08\u0e38\u0e11\u0e32\u0e18\u0e38\u0e0a\u0e18\u0e23\u0e32\u0e14\u0e34\u0e25\u0e01", "official_name:th": "\u0e1e\u0e23\u0e30\u0e2d\u0e19\u0e38\u0e2a\u0e32\u0e27\u0e23\u0e35\u0e22\u0e4c \u0e2a\u0e21\u0e40\u0e14\u0e47\u0e08\u0e1e\u0e23\u0e30\u0e40\u0e08\u0e49\u0e32\u0e1a\u0e23\u0e21\u0e27\u0e07\u0e28\u0e4c\u0e40\u0e18\u0e2d \u0e40\u0e08\u0e49\u0e32\u0e1f\u0e49\u0e32\u0e08\u0e38\u0e11\u0e32\u0e18\u0e38\u0e0a\u0e18\u0e23\u0e32\u0e14\u0e34\u0e25\u0e01 \u0e01\u0e23\u0e21\u0e02\u0e38\u0e19\u0e40\u0e1e\u0e47\u0e0a\u0e23\u0e1a\u0e39\u0e23\u0e13\u0e4c\u0e2d\u0e34\u0e19\u0e17\u0e23\u0e32\u0e0a\u0e31\u0e22", "start_date": "1994"}}, {"type": "node", "id": 5898638585, "lat": 13.7442851, "lon": 100.4870184, "tags": {"amenity": "cafe"}}, {"type": "node", "id": 5997095385, "lat": 13.7268614, "lon": 100.4962979, "tags": {"addr:street": "\u0e25\u0e32\u0e14\u0e2b\u0e0d\u0e49\u0e32", "amenity": "restaurant", "name:en": "Somsak Claypot Crab", "opening_hours": "Mo-Su 16:00-22:00"}}, {"type": "node", "id": 5999760573, "lat": 13.7423312, "lon": 100.4958377, "tags": {"amenity": "cafe", "name": "Caf\u00e9 No.5"}}, {"type": "node", "id": 6105231885, "lat": 13.7441994, "lon": 100.4994067, "tags": {"amenity": "restaurant", "name:en": "Not in english"}}, {"type": "node", "id": 6120619786, "lat": 13.7377556, "lon": 100.4916708, "tags": {"amenity": "cafe", "internet_access": "wlan"}}, {"type": "node", "id": 6124442971, "lat": 13.7437455, "lon": 100.496778, "tags": {"amenity": "restaurant", "name:en": "Farm to Table Hideout"}}, {"type": "node", "id": 6149743086, "lat": 13.7461868, "lon": 100.4911738, "tags": {"amenity": "cafe", "name:en": "304 Caf\u00e9 @ Tha Tien"}}, {"type": "node", "id": 6165028947, "lat": 13.7428455, "lon": 100.4904364, "tags": {"historic": "memorial", "memorial": "statue", "name": "\u0e1e\u0e23\u0e30\u0e1a\u0e23\u0e21\u0e23\u0e32\u0e0a\u0e32\u0e19\u0e38\u0e2a\u0e32\u0e27\u0e23\u0e35\u0e22\u0e4c \u0e2a\u0e21\u0e40\u0e14\u0e47\u0e08\u0e1e\u0e23\u0e30\u0e40\u0e08\u0e49\u0e32\u0e15\u0e32\u0e01\u0e2a\u0e34\u0e19\u0e21\u0e2b\u0e32\u0e23\u0e32\u0e0a\u200b", "name:en": "Statues of King Taksin", "name:th": "\u0e1e\u0e23\u0e30\u0e1a\u0e23\u0e21\u0e23\u0e32\u0e0a\u0e32\u0e19\u0e38\u0e2a\u0e32\u0e27\u0e23\u0e35\u0e22\u0e4c \u0e2a\u0e21\u0e40\u0e14\u0e47\u0e08\u0e1e\u0e23\u0e30\u0e40\u0e08\u0e49\u0e32\u0e15\u0e32\u0e01\u0e2a\u0e34\u0e19\u0e21\u0e2b\u0e32\u0e23\u0e32\u0e0a\u200b", "start_date": "12 January 1998", "wikimedia_commons": "Category:Statues of King Taksin, Phra Racha Wang Derm"}}, {"type": "node", "id": 6172718586, "lat": 13.7442504, "lon": 100.4991961, "tags": {"amenity": "restaurant"}}, {"type": "node", "id": 6191423585, "lat": 13.7432302, "lon": 100.4924117, "tags": {"amenity": "restaurant"}}, {"type": "node", "id": 6204836901, "lat": 13.7266314, "lon": 100.4990185, "tags": {"addr:housenumber": "102", "addr:street": "\u0e0b\u0e2d\u0e22 \u0e27\u0e34\u0e40\u0e28\u0e29\u0e2a\u0e23\u0e23\u0e04\u0e4c \u0e40\u0e08\u0e23\u0e34\u0e0d\u0e23\u0e31\u0e16", "ele": "2", "level": "9", "name": "A.M. Mansion", "payment:cash": "yes", "phone": "+6624380110", "tourism": "apartment"}}, {"type": "node", "id": 6232721188, "lat": 13.7444953, "lon": 100.4912433, "tags": {"direction": "315-180", "name:en": "Sunset Viewpoint", "name:ko": "\ud574\ub118\uc774 \uacbd\uc2b9\uc9c0", "tourism": "viewpoint"}}, {"type": "node", "id": 6278097187, "lat": 13.748346, "lon": 100.4717891, "tags": {"tourism": "apartment"}}, {"type": "node", "id": 6282555404, "lat": 13.7268121, "lon": 100.495846, "tags": {"amenity": "restaurant", "name:en": "Local Pad Thai"}}, {"type": "node", "id": 6282556686, "lat": 13.7270848, "lon": 100.4954631, "tags": {"amenity": "restaurant", "name:en": "Lots of street food stalls"}}, {"type": "node", "id": 6282633085, "lat": 13.7267877, "lon": 100.4945242, "tags": {"amenity": "cafe", "name:en": "Moma\u2019s Bubble Tea Bar"}}, {"type": "node", "id": 6282633185, "lat": 13.7267078, "lon": 100.4942426, "tags": {"amenity": "cafe", "carryout": "only", "name:en": "Rin Rin Bubble Tea", "takeaway": "only", "takeout": "only", "toilets": "no"}}, {"type": "node", "id": 6282633285, "lat": 13.7269691, "lon": 100.4953352, "tags": {"amenity": "restaurant", "name:en": "Sticky rice mango lady stall"}}, {"type": "node", "id": 6282634785, "lat": 13.7267402, "lon": 100.4938058, "tags": {"amenity": "cafe", "cuisine": "coffee;coffee_shop;cheesecake", "description": "Average cup 60\u0e3f; cozy", "internet_access": "wlan", "internet_access:fee": "customers", "name": "Carousel Coffee", "name:en": "Carousel Coffee", "outdoor_seating": "no", "payment:cash": "yes", "takeaway": "yes", "toilets": "yes"}}, {"type": "node", "id": 6282644188, "lat": 13.7315631, "lon": 100.4936114, "tags": {"amenity": "restaurant", "name:en": "Lots of street food stalls"}}, {"type": "node", "id": 6283665685, "lat": 13.7254101, "lon": 100.495358, "tags": {"amenity": "restaurant", "name:en": "Lots of street food stalls"}}, {"type": "node", "id": 6304972389, "lat": 13.726515, "lon": 100.4909767, "tags": {"amenity": "restaurant", "name:en": "Local Thai Food"}}, {"type": "node", "id": 6304972390, "lat": 13.7263504, "lon": 100.4939746, "tags": {"amenity": "restaurant"}}, {"type": "node", "id": 6322455985, "lat": 13.7266107, "lon": 100.4902597, "tags": {"amenity": "restaurant", "name:en": "Lots of street foods stalls"}}, {"type": "node", "id": 6324494585, "lat": 13.726653, "lon": 100.4952876, "tags": {"amenity": "restaurant", "name:en": "Local Noodle Fish Balls"}}, {"type": "node", "id": 6331235385, "lat": 13.7446994, "lon": 100.4922187, "tags": {"amenity": "restaurant", "cuisine": "thai", "name:en": "Food Route", "opening_hours": "Tu-Sa 10:00-16:00", "phone": "02-622-1921"}}, {"type": "node", "id": 6338208285, "lat": 13.7269775, "lon": 100.4948808, "tags": {"amenity": "cafe", "brand": "Starbucks", "brand:wikidata": "Q37158", "cuisine": "coffee_shop", "name": "Starbucks", "name:en": "Starbucks", "official_name": "Starbucks Coffee", "takeaway": "yes"}}, {"type": "node", "id": 6388662085, "lat": 13.7318655, "lon": 100.463411, "tags": {"amenity": "cafe", "name:en": "Mango Sticky Rice 60B"}}, {"type": "node", "id": 6393851485, "lat": 13.749331, "lon": 100.4700285, "tags": {"amenity": "restaurant", "cuisine": "thai", "name:en": "Delicious restaurant next to WarmShower"}}, {"type": "node", "id": 6407176806, "lat": 13.7451147, "lon": 100.4911408, "tags": {"addr:city": "\u0e01\u0e23\u0e38\u0e07\u0e40\u0e17\u0e1e\u0e21\u0e2b\u0e32\u0e19\u0e04\u0e23", "addr:district": "\u0e1e\u0e23\u0e30\u0e19\u0e04\u0e23", "addr:housenumber": "57-61", "addr:place": "\u0e17\u0e48\u0e32\u0e40\u0e15\u0e35\u0e22\u0e19", "addr:postcode": "10200", "addr:province": "\u0e01\u0e23\u0e38\u0e07\u0e40\u0e17\u0e1e\u0e21\u0e2b\u0e32\u0e19\u0e04\u0e23", "addr:street": "\u0e16\u0e19\u0e19\u0e21\u0e2b\u0e32\u0e23\u0e32\u0e0a", "addr:subdistrict": "\u0e1e\u0e23\u0e30\u0e1a\u0e23\u0e21\u0e21\u0e2b\u0e32\u0e23\u0e32\u0e0a\u0e27\u0e31\u0e07", "email": "info@innaday.com", "internet_access": "yes", "name": "INN A DAY", "phone": "+6622210577", "rooms": "9", "tourism": "hotel", "website": "https://www.innaday.com/"}}, {"type": "node", "id": 6435459285, "lat": 13.736335, "lon": 100.4982003, "tags": {"amenity": "restaurant", "name:en": "Amazing cheap and clean street food"}}, {"type": "node", "id": 6444786093, "lat": 13.7433482, "lon": 100.4868804, "tags": {"amenity": "restaurant", "cuisine": "oriental", "name:en": "Khao Moo Thod"}}, {"type": "node", "id": 6472164004, "lat": 13.7184531, "lon": 100.4542439, "tags": {"addr:city": "\u0e1a\u0e32\u0e07\u0e2b\u0e27\u0e49\u0e32", "addr:housenumber": "25 \u0e40\u0e1e\u0e25\u0e34\u0e19\u0e1e\u0e25\u0e32\u0e0b\u0e48\u0e32 \u0e0a\u0e31\u0e49\u0e19 2", "addr:postcode": "10160", "addr:street": "\u0e16\u0e19\u0e19\u0e40\u0e1e\u0e0a\u0e23\u0e40\u0e01\u0e29\u0e21", "amenity": "cafe", "name": "Why? Co-funning Space (Cafe and Board Games)", "outdoor_seating": "no", "phone": "+66942511963", "website": "https://web.facebook.com/boardgamewhy/"}}, {"type": "node", "id": 6491659785, "lat": 13.7403613, "lon": 100.4840543, "tags": {"addr:housenumber": "268", "addr:postcode": "10600", "addr:street": "\u0e16\u0e19\u0e19\u0e2d\u0e34\u0e2a\u0e23\u0e20\u0e32\u0e1e", "name": "\u0e28\u0e23\u0e35\u0e2d\u0e23\u0e38\u0e13\u0e40\u0e23\u0e49\u0e19\u0e0b\u0e34\u0e40\u0e14\u0e49\u0e19\u0e0b\u0e4c", "tourism": "apartment"}}, {"type": "node", "id": 6548672685, "lat": 13.7431481, "lon": 100.4768143, "tags": {"name": "Sivalai Place", "tourism": "hotel"}}, {"type": "node", "id": 6576406712, "lat": 13.7438261, "lon": 100.4930457, "tags": {"amenity": "cafe", "name:en": "River books Cafe"}}, {"type": "node", "id": 6597090687, "lat": 13.7178602, "lon": 100.4787322, "tags": {"name": "Rembrandt", "tourism": "hotel"}}, {"type": "node", "id": 6734863523, "lat": 13.7267167, "lon": 100.4984434, "tags": {"name": "\u0e1a\u0e49\u0e32\u0e19\u0e01\u0e31\u0e19\u0e15\u0e4c\u0e23\u0e31\u0e0a\u0e15\u0e4c\u200b (Baan Kanthut)", "tourism": "apartment"}}, {"type": "node", "id": 6735095037, "lat": 13.7335716, "lon": 100.4909724, "tags": {"amenity": "cafe", "carryout": "yes", "cuisine": "coffee;cake", "description": "Average cup 60\u0e3f; good amount of seating, some with power outlets", "internet_access": "wlan", "internet_access:fee": "customers", "name": "Moods Coffee", "payment:cash": "yes", "takeaway": "yes", "takeout": "yes", "toilets": "yes"}}, {"type": "node", "id": 6735172922, "lat": 13.7275894, "lon": 100.4997415, "tags": {"amenity": "restaurant", "name": "\u0e2d\u0e32\u0e2b\u0e32\u0e23\u200b\u0e15\u0e32\u0e21\u0e2a\u0e31\u0e48\u0e07\u0e04\u0e23\u0e31\u0e27\u0e1b\u0e49\u0e32\u0e19\u0e32\u0e07"}}, {"type": "node", "id": 6745618685, "lat": 13.7481165, "lon": 100.497751, "tags": {"amenity": "restaurant"}}, {"type": "node", "id": 6746147787, "lat": 13.7276544, "lon": 100.4933937, "tags": {"amenity": "restaurant", "name:en": "Local Thai restaurant"}}, {"type": "node", "id": 6746152585, "lat": 13.7282709, "lon": 100.4935764, "tags": {"amenity": "restaurant", "name:en": "Local Thai restaurant"}}, {"type": "node", "id": 6746152785, "lat": 13.7281757, "lon": 100.4935583, "tags": {"amenity": "restaurant", "name:en": "Delipizza"}}, {"type": "node", "id": 6888391085, "lat": 13.748578, "lon": 100.4979332, "tags": {"addr:housenumber": "125", "addr:postcode": "10200", "addr:street": "\u0e16\u0e19\u0e19\u0e40\u0e1f\u0e37\u0e48\u0e2d\u0e07\u0e19\u0e04\u0e23", "amenity": "cafe", "check_date": "2024-11-07", "contact:facebook": "https://www.facebook.com/alicecafebkk/", "cuisine": "thai;tea;italian;pasta;coffee_shop;cake;seafood;sandwich;local", "diet:vegan": "yes", "internet_access": "wlan", "name": "Alice Cafe", "opening_hours": "Mo-Su 08:00-17:00", "outdoor_seating": "no", "payment:cash": "yes", "payment:credit_cards": "yes", "payment:debit_cards": "yes", "phone": "+66 2 622 3635", "wheelchair": "no"}}, {"type": "node", "id": 6942407918, "lat": 13.7460366, "lon": 100.499758, "tags": {"addr:postcode": "10200", "amenity": "cafe", "brand": "\u0e04\u0e32\u0e40\u0e1f\u0e48 \u0e2d\u0e40\u0e21\u0e0b\u0e2d\u0e19", "brand:en": "Caf\u00e9 Amazon", "brand:th": "\u0e04\u0e32\u0e40\u0e1f\u0e48 \u0e2d\u0e40\u0e21\u0e0b\u0e2d\u0e19", "brand:wikidata": "Q43247503", "brand:wikipedia": "en:Caf\u00e9 Amazon", "cuisine": "coffee_shop", "internet_access": "wlan", "name": "\u0e04\u0e32\u0e40\u0e1f\u0e48 \u0e2d\u0e40\u0e21\u0e0b\u0e2d\u0e19", "name:en": "Caf\u00e9 Amazon", "name:th": "\u0e04\u0e32\u0e40\u0e1f\u0e48 \u0e2d\u0e40\u0e21\u0e0b\u0e2d\u0e19", "takeaway": "yes"}}, {"type": "node", "id": 6946994143, "lat": 13.7269222, "lon": 100.4947949, "tags": {"amenity": "restaurant", "carryout": "yes", "cuisine": "noodles;Thai", "level": "-1", "name": "\u0e1a\u0e30\u0e2b\u0e21\u0e35\u0e44\u0e01\u0e48\u0e01\u0e23\u0e2d\u0e1a\u200b \u0e25\u0e32\u0e14\u0e2b\u0e0d\u0e49\u0e32\u200b", "name:en": "Bamii Gai Grop Latya", "takeaway": "yes", "takeout": "yes"}}, {"type": "node", "id": 6965560248, "lat": 13.7264418, "lon": 100.4942669, "tags": {"amenity": "cafe", "cuisine": "coffee;coffee_shop", "description": "Cheap and expensive treats; average drink 80\u0e3f; free unlimited wifi, but not many power outlets. Has coworking too, but requires a minimum purchase and in only open on the weekends.", "internet_access": "wlan", "internet_access:fee": "customers", "name": "Siam Ratana Bakehouse", "payment:cash": "yes", "toilets": "yes"}}, {"type": "node", "id": 7049071785, "lat": 13.7464307, "lon": 100.4912649, "tags": {"name:en": "Beware of lucky or black budha scammers!", "tourism": "information"}}, {"type": "node", "id": 7072267488, "lat": 13.7324839, "lon": 100.495018, "tags": {"addr:housenumber": "256", "addr:street": "Prajadhipok Rd", "amenity": "restaurant", "name": "Archie", "opening_hours": "Mo-Fr 11:00-14:00,17:00-22:00; Sa,Su 11:00-22:00", "phone": "6620021233"}}, {"type": "node", "id": 7088196985, "lat": 13.7395273, "lon": 100.4976226, "tags": {"name:en": "Sunset viewpoint", "name:es": "Atardecer", "tourism": "viewpoint"}}, {"type": "node", "id": 7100638393, "lat": 13.7451258, "lon": 100.4919011, "tags": {"amenity": "restaurant", "name:en": "Chai Chaun Chim"}}, {"type": "node", "id": 7108469386, "lat": 13.7446434, "lon": 100.4992624, "tags": {"amenity": "cafe", "cuisine": "sushi", "name:en": "Ani Sushi", "name:ru": "Ani Sushi - \u043e\u0431\u0430\u043b\u0434\u0435\u043d\u043d\u044b\u0435 \u0441\u0443\u0448\u0438, \u0426\u0435\u043d\u0430 \u043e\u0442 10 \u0434\u043e 20 \u0431\u0430\u0442 \u0437\u0430 \u0448\u0442. \u041c\u043d\u043e\u0433\u043e \u0440\u044b\u0431\u044b", "opening_hours": "Mo-Su 10:00-01:00", "phone": "0924989229"}}, {"type": "node", "id": 7114238086, "lat": 13.7466454, "lon": 100.4980922, "tags": {"amenity": "restaurant"}}, {"type": "node", "id": 7119084785, "lat": 13.7112811, "lon": 100.4990458, "tags": {"amenity": "restaurant", "contact:facebook": "https://www.facebook.com/sutunthip/", "contact:phone": "+66 2 8624238", "cuisine": "chinese;thai", "diet:vegan": "only", "name": "Vegetarian Restaurant", "name:de": "Veganes Restaurant", "name:en": "Sutunthip Vegan Restaurant", "name:th": "\u0e23\u0e49\u0e32\u0e19\u0e2d\u0e32\u0e2b\u0e32\u0e23\u0e21\u0e31\u0e07\u0e2a\u0e27\u0e34\u0e23\u0e31\u0e15\u0e34", "opening_hours": "Mo-Su 10:00-21:30"}}, {"type": "node", "id": 7119386486, "lat": 13.7481082, "lon": 100.4999633, "tags": {"amenity": "restaurant", "name:en": "Street food stalls"}}, {"type": "node", "id": 7119413885, "lat": 13.7483408, "lon": 100.4978165, "tags": {"amenity": "restaurant", "name:en": "Street food stalls with seats by the canal"}}, {"type": "node", "id": 7121019985, "lat": 13.7297291, "lon": 100.4982464, "tags": {"amenity": "restaurant", "cuisine": "thai", "name": "Veggie J", "name:de": "Veganes Restaurant", "name:en": "Vegan Restaurant", "opening_hours": "Mo-Su 08:00-18:00"}}, {"type": "node", "id": 7132484943, "lat": 13.7334869, "lon": 100.4906456, "tags": {"amenity": "restaurant", "description": "\u0e23\u0e49\u0e32\u0e19\u0e2d\u0e32\u0e2b\u0e32\u0e23\u200b\u0e15\u0e32\u0e21\u0e2a\u0e31\u0e48\u0e07", "description:en": "Made-to-order food", "description:lo": "\u0eae\u0ec9\u0eb2\u0e99\u0ead\u0eb2\u0eab\u0eb2\u0e99\u200b\u0e95\u0eb2\u0ea1\u0ea5\u0ebb\u0e94\u0ec0\u0e82\u0eb1\u0e99", "description:th": "\u0e23\u0e49\u0e32\u0e19\u0e2d\u0e32\u0e2b\u0e32\u0e23\u200b\u0e15\u0e32\u0e21\u0e2a\u0e31\u0e48\u0e07", "name": "\u0e23\u0e49\u0e32\u0e19\u0e19\u0e49\u0e32\u0e42\u0e19\u0e15", "name:en": "Uncle Note's restaurant", "name:lo": "\u0eae\u0ec9\u0eb2\u0e99\u0e99\u0ec9\u0eb2\u0ec2\u0e99\u0e94", "name:th": "\u0e23\u0e49\u0e32\u0e19\u0e19\u0e49\u0e32\u0e42\u0e19\u0e15", "phone": "+660815877611"}}, {"type": "node", "id": 7226467985, "lat": 13.7442618, "lon": 100.4917791, "tags": {"name:de": "Riva Arun", "name:en": "Riva Arun", "tourism": "hotel"}}, {"type": "node", "id": 7273838299, "lat": 13.7452891, "lon": 100.4861325, "tags": {"amenity": "cafe", "name": "Flatbread"}}, {"type": "node", "id": 7298889785, "lat": 13.744277, "lon": 100.4969515, "tags": {"amenity": "restaurant", "name:de": "Thai Street Food Restaurant", "name:en": "Thai Street Food Restaurant"}}, {"type": "node", "id": 7317194550, "lat": 13.7472319, "lon": 100.4936439, "tags": {"artwork_type": "sculpture", "image": "https://images.mapillary.com/dw6EJlLvGccbhJahEzTuZA/thumb-2048.jpg", "mapillary": "5505812176156974", "tourism": "artwork"}}, {"type": "node", "id": 7317194567, "lat": 13.7472935, "lon": 100.4934899, "tags": {"artwork_type": "sculpture", "image": "https://images.mapillary.com/RYDMFkvAu42Df118Tr19tg/thumb-2048.jpg", "mapillary": "494199775115219", "material": "stone", "tourism": "artwork"}}, {"type": "node", "id": 7317194568, "lat": 13.7473142, "lon": 100.4935509, "tags": {"artwork_type": "sculpture", "image": "https://images.mapillary.com/mNvTUeu0ksPTCxDa9wXKaw/thumb-2048.jpg", "mapillary": "186163340054045", "material": "stone", "tourism": "artwork"}}, {"type": "node", "id": 7318830361, "lat": 13.7471441, "lon": 100.493289, "tags": {"artwork_type": "sculpture", "image": "https://images.mapillary.com/UgJxAtCGZEWxv_RYb8lwGg/thumb-2048.jpg", "mapillary": "928600257993779", "tourism": "artwork"}}, {"type": "node", "id": 7318830363, "lat": 13.7471996, "lon": 100.4931371, "tags": {"artwork_type": "sculpture", "image": "https://images.mapillary.com/Ay3oUaqro4-OhFIkfvxAzw/thumb-2048.jpg", "mapillary": "181783523829231", "material": "stone", "tourism": "artwork"}}, {"type": "node", "id": 7318830364, "lat": 13.7471824, "lon": 100.4930871, "tags": {"artwork_type": "sculpture", "image": "https://images.mapillary.com/cIdbw76A9MyXJ8X4kxrS1A/thumb-2048.jpg", "mapillary": "957073051785928", "material": "stone", "tourism": "artwork"}}, {"type": "node", "id": 7318830368, "lat": 13.7470731, "lon": 100.4927297, "tags": {"artwork_type": "sculpture", "image": "https://images.mapillary.com/P3tgd2yrtjSzbXy2l9qbYg/thumb-2048.jpg", "mapillary": "284223780098167", "material": "stone", "tourism": "artwork"}}, {"type": "node", "id": 7318830369, "lat": 13.7470559, "lon": 100.4926797, "tags": {"artwork_type": "sculpture", "image": "https://images.mapillary.com/P3tgd2yrtjSzbXy2l9qbYg/thumb-2048.jpg", "mapillary": "284223780098167", "material": "stone", "tourism": "artwork"}}, {"type": "node", "id": 7318831572, "lat": 13.7467748, "lon": 100.4918815, "tags": {"artwork_type": "sculpture", "image": "https://images.mapillary.com/ij9xV4AYGP5QHx0Rze7OZw/thumb-2048.jpg", "mapillary": "300606364899675", "material": "stone", "tourism": "artwork"}}, {"type": "node", "id": 7318831573, "lat": 13.7467868, "lon": 100.4919205, "tags": {"artwork_type": "sculpture", "image": "https://images.mapillary.com/ajtjAlbEKGUYOp7CqPeNUQ/thumb-2048.jpg", "mapillary": "4293406350683699", "material": "stone", "tourism": "artwork"}}, {"type": "node", "id": 7318831574, "lat": 13.746506, "lon": 100.4916817, "tags": {"artwork_type": "sculpture", "covered": "yes", "description": "https://photos.app.goo.gl/gDPasxgaiDeNv2Eb7", "image": "https://images.mapillary.com/KHAxHILwzecAg28MOsyrzw/thumb-2048.jpg", "level": "0", "mapillary": "https://www.mapillary.com/map/im/KHAxHILwzecAg28MOsyrzw", "name": "\u0e1e\u0e23\u0e30\u0e1e\u0e38\u0e17\u0e18\u0e44\u0e2a\u0e22\u0e32\u0e2a\u0e19\u0e4c;\u0e27\u0e31\u0e14\u0e42\u0e1e\u0e18\u0e34\u0e4c", "name:cs": "Le\u017e\u00edc\u00ed Buddha", "name:de": "liegender Buddha", "name:en": "Reclining Buddha", "name:es": "Buda reclinado", "name:ja": "\u30ef\u30c3\u30c8\uff65\u30dd\u30fc", "name:ko": "\uc653 \ud3ec", "name:pl": "Le\u017c\u0105cy Budda", "name:ru": "\u0425\u0440\u0430\u043c \u043b\u0435\u0436\u0430\u0449\u0435\u0433\u043e \u0411\u0443\u0434\u0434\u044b", "name:zh": "\u81e5\u4f5b\u5bfa", "tourism": "artwork", "url": "https://www.youtube.com/watch?v=qWj4Rrlvehg&feature=youtu.be"}}, {"type": "node", "id": 7319234885, "lat": 13.7466743, "lon": 100.491523, "tags": {"artwork_type": "sculpture", "image": "https://images.mapillary.com/0mWHkDux7QvMMiHIWQKSig/thumb-2048.jpg", "mapillary": "720861185538105", "material": "stone", "tourism": "artwork"}}, {"type": "node", "id": 7319234886, "lat": 13.7466863, "lon": 100.491562, "tags": {"artwork_type": "sculpture", "image": "https://images.mapillary.com/0mWHkDux7QvMMiHIWQKSig/thumb-2048.jpg", "mapillary": "720861185538105", "material": "stone", "tourism": "artwork"}}, {"type": "node", "id": 7319234895, "lat": 13.746633, "lon": 100.4923239, "tags": {"artwork_type": "sculpture", "image": "https://images.mapillary.com/WYkK0raqfopFvN7A1ky06A/thumb-2048.jpg", "mapillary": "139546578169539", "material": "stone", "tourism": "artwork"}}, {"type": "node", "id": 7319234896, "lat": 13.7465943, "lon": 100.4923374, "tags": {"artwork_type": "sculpture", "image": "https://images.mapillary.com/w1DLFt3zpFRYBqfJQUKwmg/thumb-2048.jpg", "mapillary": "308113680801156", "material": "stone", "tourism": "artwork"}}, {"type": "node", "id": 7319234897, "lat": 13.7466387, "lon": 100.4923444, "tags": {"artwork_type": "sculpture", "material": "stone", "tourism": "artwork"}}, {"type": "node", "id": 7319234898, "lat": 13.7465994, "lon": 100.4923546, "tags": {"artwork_type": "sculpture", "material": "stone", "tourism": "artwork"}}, {"type": "node", "id": 7319234955, "lat": 13.7459645, "lon": 100.4927489, "tags": {"artwork_type": "sculpture", "image": "https://images.mapillary.com/UquRBxzNEia2ebIW5biP-g/thumb-2048.jpg", "mapillary": "981048402679377", "tourism": "artwork"}}, {"type": "node", "id": 7319234993, "lat": 13.7462145, "lon": 100.4936464, "tags": {"artwork_type": "architecture", "tourism": "artwork"}}, {"type": "node", "id": 7319234995, "lat": 13.7461995, "lon": 100.4935895, "tags": {"artwork_type": "architecture", "tourism": "artwork"}}, {"type": "node", "id": 7319234996, "lat": 13.7461788, "lon": 100.4935293, "tags": {"artwork_type": "architecture", "tourism": "artwork"}}, {"type": "node", "id": 7319234997, "lat": 13.7460725, "lon": 100.493162, "tags": {"artwork_type": "architecture", "tourism": "artwork"}}, {"type": "node", "id": 7319234998, "lat": 13.7460931, "lon": 100.4932222, "tags": {"artwork_type": "architecture", "image": "https://images.mapillary.com/6-2jQbMopyKRnSAQlAggKQ/thumb-2048.jpg", "mapillary": "373956567349416", "tourism": "artwork"}}, {"type": "node", "id": 7319234999, "lat": 13.7461081, "lon": 100.493279, "tags": {"artwork_type": "architecture", "image": "https://images.mapillary.com/I0MFLcKw3OLKV6zT3XnmCw/thumb-2048.jpg", "mapillary": "995590361184537", "tourism": "artwork"}}, {"type": "node", "id": 7319235000, "lat": 13.7468644, "lon": 100.4929008, "tags": {"artwork_type": "architecture", "tourism": "artwork"}}, {"type": "node", "id": 7319235001, "lat": 13.746885, "lon": 100.4929609, "tags": {"artwork_type": "architecture", "tourism": "artwork"}}, {"type": "node", "id": 7319235002, "lat": 13.7469, "lon": 100.4930178, "tags": {"artwork_type": "architecture", "tourism": "artwork"}}, {"type": "node", "id": 7319235003, "lat": 13.7469654, "lon": 100.4932805, "tags": {"artwork_type": "architecture", "tourism": "artwork"}}, {"type": "node", "id": 7319235004, "lat": 13.746986, "lon": 100.4933407, "tags": {"artwork_type": "architecture", "tourism": "artwork"}}, {"type": "node", "id": 7319235005, "lat": 13.747001, "lon": 100.4933975, "tags": {"artwork_type": "architecture", "tourism": "artwork"}}, {"type": "node", "id": 7319235006, "lat": 13.7467866, "lon": 100.4937311, "tags": {"artwork_type": "architecture", "image": "https://images.mapillary.com/7Cv7ormpvhJbyDqHXKtzVA/thumb-2048.jpg", "mapillary": "296532942018752", "tourism": "artwork"}}, {"type": "node", "id": 7319235007, "lat": 13.7468543, "lon": 100.4937119, "tags": {"artwork_type": "architecture", "image": "https://images.mapillary.com/7Cv7ormpvhJbyDqHXKtzVA/thumb-2048.jpg", "mapillary": "296532942018752", "tourism": "artwork"}}, {"type": "node", "id": 7319235008, "lat": 13.7462869, "lon": 100.4928187, "tags": {"artwork_type": "architecture", "tourism": "artwork"}}, {"type": "node", "id": 7319235009, "lat": 13.7462191, "lon": 100.4928379, "tags": {"artwork_type": "architecture", "tourism": "artwork"}}, {"type": "node", "id": 7320261719, "lat": 13.7463142, "lon": 100.4933432, "tags": {"artwork_type": "sculpture", "image": "https://images.mapillary.com/BybChBed4KulzsNVgbzlvw/thumb-2048.jpg", "mapillary": "4101610969861969", "tourism": "artwork"}}, {"type": "node", "id": 7320261723, "lat": 13.7463052, "lon": 100.4931902, "tags": {"artwork_type": "sculpture", "image": "https://images.mapillary.com/kiJwj81jJWCfA8vTosAfBg/thumb-2048.jpg", "mapillary": "512132813258977", "tourism": "artwork"}}, {"type": "node", "id": 7320261724, "lat": 13.7463145, "lon": 100.493218, "tags": {"artwork_type": "sculpture", "image": "https://images.mapillary.com/kiJwj81jJWCfA8vTosAfBg/thumb-2048.jpg", "mapillary": "512132813258977", "tourism": "artwork"}}, {"type": "node", "id": 7320261729, "lat": 13.746665, "lon": 100.4937041, "tags": {"artwork_type": "sculpture", "covered": "yes", "image": "https://images.mapillary.com/aVVy2FO3oE9YF5c77hu5bA/thumb-2048.jpg", "mapillary": "324061292519735", "tourism": "artwork"}}, {"type": "node", "id": 7320261734, "lat": 13.7466781, "lon": 100.4937537, "tags": {"artwork_type": "sculpture", "image": "https://images.mapillary.com/S5X9ZPiSqhD_w9fPg40bNQ/thumb-2048.jpg", "mapillary": "825215728084032", "tourism": "artwork"}}, {"type": "node", "id": 7320261735, "lat": 13.7467029, "lon": 100.492528, "tags": {"artwork_type": "sculpture", "image": "https://images.mapillary.com/ik6g7sSH6acqmgNuKqUEcg/thumb-2048.jpg", "mapillary": "768063300536646", "tourism": "artwork"}}, {"type": "node", "id": 7320261736, "lat": 13.7465501, "lon": 100.4922309, "tags": {"image": "https://images.mapillary.com/1z9aLVazzkKf1NmKZL2HlA/thumb-2048.jpg", "information": "map", "map_size": "site", "map_type": "information", "mapillary": "181850667051137", "name": "\u0e41\u0e1c\u0e19\u0e1c\u0e31\u0e07\u0e27\u0e31\u0e14\u0e42\u0e1e\u0e18\u0e34\u0e4c", "name:en": "Wat Pho directoty", "name:th": "\u0e41\u0e1c\u0e19\u0e1c\u0e31\u0e07\u0e27\u0e31\u0e14\u0e42\u0e1e\u0e18\u0e34\u0e4c", "tourism": "information"}}, {"type": "node", "id": 7320261771, "lat": 13.7450979, "lon": 100.4920964, "tags": {"artwork_type": "graffiti", "image": "https://images.mapillary.com/MFMFUy57048DGLzKeqXcqA/thumb-2048.jpg", "mapillary": "823293654969504", "tourism": "artwork"}}, {"type": "node", "id": 7320552301, "lat": 13.7418727, "lon": 100.4952276, "tags": {"historic": "wayside_shrine", "image": "https://images.mapillary.com/Tk-Nfl5__6CgJqNUXUCMtw/thumb-2048.jpg", "mapillary": "761669617865091"}}, {"type": "node", "id": 7320629386, "lat": 13.7413616, "lon": 100.4946518, "tags": {"tourism": "viewpoint"}}, {"type": "node", "id": 7326499476, "lat": 13.7497911, "lon": 100.496189, "tags": {"image": "https://images.mapillary.com/j9bC9Vad_Jp7aZgYGNvbDg/thumb-2048.jpg", "information": "board", "mapillary": "335072384644775", "name": "Pig Memorial", "tourism": "information"}}, {"type": "node", "id": 7326500289, "lat": 13.7497351, "lon": 100.4962234, "tags": {"information": "board", "name:en": "Pi Kun Bridge", "tourism": "information"}}, {"type": "node", "id": 7326500290, "lat": 13.7496996, "lon": 100.4962219, "tags": {"image": "https://images.mapillary.com/4e1Cma-3WU5_0ZSl2abmHg/thumb-2048.jpg", "information": "board", "mapillary": "493972982017789", "name:en": "Khlong Khu Mueang Doem (Old city moat)", "tourism": "information"}}, {"type": "node", "id": 7326500451, "lat": 13.7495934, "lon": 100.4968402, "tags": {"historic": "memorial", "image": "https://images.mapillary.com/nKzfRPdARpFLL5IR65hTPw/thumb-2048.jpg", "mapillary": "216887283304235", "memorial": "grave"}}, {"type": "node", "id": 7326815052, "lat": 13.7493647, "lon": 100.4975557, "tags": {"artwork_type": "statue", "image": "https://upload.wikimedia.org/wikipedia/commons/1/1f/\u0e27\u0e31\u0e14\u0e23\u0e32\u0e0a\u0e1a\u0e1e\u0e34\u0e18\u0e2a\u0e16\u0e34\u0e15\u0e21\u0e2b\u0e32\u0e2a\u0e35\u0e21\u0e32\u0e23\u0e32\u0e21\u0e23\u0e32\u0e0a\u0e27\u0e23\u0e27\u0e34\u0e2b\u0e32\u0e23_\u0e40\u0e02\u0e15\u0e1e\u0e23\u0e30\u0e19\u0e04\u0e23_\u0e01\u0e23\u0e38\u0e07\u0e40\u0e17\u0e1e\u0e21\u0e2b\u0e32\u0e19\u0e04\u0e23_%284%29.jpg", "mapillary": "1596257623913666", "name": "\u0e1e\u0e23\u0e30\u0e1a\u0e23\u0e21\u0e23\u0e39\u0e1b\u0e1e\u0e23\u0e30\u0e1a\u0e32\u0e17\u0e2a\u0e21\u0e40\u0e14\u0e47\u0e08\u0e1e\u0e23\u0e30\u0e08\u0e38\u0e25\u0e08\u0e2d\u0e21\u0e40\u0e01\u0e25\u0e49\u0e32\u0e40\u0e08\u0e49\u0e32\u0e2d\u0e22\u0e39\u0e48\u0e2b\u0e31\u0e27", "name:en": "Statue of King Chulalongkorn", "name:th": "\u0e1e\u0e23\u0e30\u0e1a\u0e23\u0e21\u0e23\u0e39\u0e1b\u0e1e\u0e23\u0e30\u0e1a\u0e32\u0e17\u0e2a\u0e21\u0e40\u0e14\u0e47\u0e08\u0e1e\u0e23\u0e30\u0e08\u0e38\u0e25\u0e08\u0e2d\u0e21\u0e40\u0e01\u0e25\u0e49\u0e32\u0e40\u0e08\u0e49\u0e32\u0e2d\u0e22\u0e39\u0e48\u0e2b\u0e31\u0e27", "subject:wikidata": "Q158861", "subject:wikipedia": "en:Chulalongkorn", "tourism": "artwork"}}, {"type": "node", "id": 7326872619, "lat": 13.7491683, "lon": 100.4970688, "tags": {"artwork_type": "sculpture", "image": "https://images.mapillary.com/rgWI47OCE1FS3uhrnyGIog/thumb-2048.jpg", "mapillary": "2696658527301579", "tourism": "artwork"}}, {"type": "node", "id": 7326872628, "lat": 13.749131, "lon": 100.4970697, "tags": {"artwork_type": "sculpture", "image": "https://images.mapillary.com/Kye0lGhF3TeDT5F573M7CQ/thumb-2048.jpg", "mapillary": "1119097985231596", "tourism": "artwork"}}, {"type": "node", "id": 7326872796, "lat": 13.7493135, "lon": 100.4966527, "tags": {"historic": "tomb", "image": "https://upload.wikimedia.org/wikipedia/commons/9/9c/Noble_Consort_Yoi_Mausoleum_\u0e2d\u0e19\u0e38\u0e2a\u0e32\u0e27\u0e23\u0e35\u0e22\u0e4c\u0e40\u0e08\u0e49\u0e32\u0e08\u0e2d\u0e21\u0e21\u0e32\u0e23\u0e14\u0e32\u0e22\u0e49\u0e2d\u0e22_%282025%29_-_img_04.jpg", "mapillary": "872045343525572", "memorial": "grave", "name": "\u0e2d\u0e19\u0e38\u0e2a\u0e32\u0e27\u0e23\u0e35\u0e22\u0e4c\u0e40\u0e08\u0e49\u0e32\u0e08\u0e2d\u0e21\u0e21\u0e32\u0e23\u0e14\u0e32\u0e22\u0e49\u0e2d\u0e22", "name:en": "Chao Chom Manda Yoi Monument", "name:th": "\u0e2d\u0e19\u0e38\u0e2a\u0e32\u0e27\u0e23\u0e35\u0e22\u0e4c\u0e40\u0e08\u0e49\u0e32\u0e08\u0e2d\u0e21\u0e21\u0e32\u0e23\u0e14\u0e32\u0e22\u0e49\u0e2d\u0e22"}}, {"type": "node", "id": 7326872801, "lat": 13.7490006, "lon": 100.4970346, "tags": {"image": "https://images.mapillary.com/B1Rw9wOtiyMpcpkK3cLT2g/thumb-2048.jpg", "information": "board", "mapillary": "528749041824429", "tourism": "information"}}, {"type": "node", "id": 7326872814, "lat": 13.7488562, "lon": 100.4971266, "tags": {"image": "https://images.mapillary.com/e_zewQeucAcPCzm9_qCFZg/thumb-2048.jpg", "information": "board", "mapillary": "485467092773753", "tourism": "information"}}, {"type": "node", "id": 7327888314, "lat": 13.7488066, "lon": 100.4970672, "tags": {"historic": "memorial", "image": "https://upload.wikimedia.org/wikipedia/commons/f/f7/Jinavara_Sirivaddhana_Memorial_\u0e2d\u0e19\u0e38\u0e2a\u0e32\u0e27\u0e23\u0e35\u0e22\u0e4c\u0e01\u0e23\u0e21\u0e2b\u0e25\u0e27\u0e07\u0e0a\u0e34\u0e19\u0e27\u0e23\u0e2a\u0e34\u0e23\u0e34\u0e27\u0e31\u0e12\u0e19\u0e4c_\u0e27\u0e31\u0e14\u0e23\u0e32\u0e0a\u0e1a\u0e1e\u0e34\u0e18_%282025%29_-_img_02.jpg", "mapillary": "382229933038735", "name": "\u0e2d\u0e19\u0e38\u0e2a\u0e32\u0e27\u0e23\u0e35\u0e22\u0e4c\u0e01\u0e23\u0e21\u0e2b\u0e25\u0e27\u0e07\u0e0a\u0e34\u0e19\u0e27\u0e23\u0e2a\u0e34\u0e23\u0e34\u0e27\u0e31\u0e12\u0e19\u0e4c \u0e27\u0e31\u0e14\u0e23\u0e32\u0e0a\u0e1a\u0e1e\u0e34\u0e18", "name:en": "Jinavara Sirivaddhana Memorial", "name:th": "\u0e2d\u0e19\u0e38\u0e2a\u0e32\u0e27\u0e23\u0e35\u0e22\u0e4c\u0e01\u0e23\u0e21\u0e2b\u0e25\u0e27\u0e07\u0e0a\u0e34\u0e19\u0e27\u0e23\u0e2a\u0e34\u0e23\u0e34\u0e27\u0e31\u0e12\u0e19\u0e4c \u0e27\u0e31\u0e14\u0e23\u0e32\u0e0a\u0e1a\u0e1e\u0e34\u0e18", "source": "https://archaeology.sac.or.th/archaeology/706", "subject:wikidata": "Q13017922", "wikimedia_commons": "Category:Jinavara Sirivaddhana Memorial, Wat Ratchabophit"}}, {"type": "node", "id": 7328131696, "lat": 13.7488107, "lon": 100.4973451, "tags": {"artwork_type": "sculpture", "image": "https://images.mapillary.com/aIIYULIE5rhUYo4f_VmJuA/thumb-2048.jpg", "mapillary": "520827558942720", "tourism": "artwork"}}, {"type": "node", "id": 7328131724, "lat": 13.7486882, "lon": 100.4966836, "tags": {"alt_name:en": "Chhatr-jayanussarana 2480", "historic": "tomb", "image": "https://upload.wikimedia.org/wikipedia/commons/6/61/Chhatr-jayanussarana_2480_\u0e09\u0e31\u0e15\u0e23\u0e0a\u0e22\u0e32\u0e19\u0e38\u0e2a\u0e2a\u0e23\u0e13_\u0e52\u0e54\u0e58\u0e50_%282025%29_-_img_08.jpg", "mapillary": "778710766368026", "memorial": "obelisk", "name": "\u0e09\u0e31\u0e15\u0e23\u0e0a\u0e22\u0e32\u0e19\u0e38\u0e2a\u0e2a\u0e23\u0e13 \u0e52\u0e54\u0e58\u0e50", "name:en": "Chatchayanuson 2480", "name:th": "\u0e09\u0e31\u0e15\u0e23\u0e0a\u0e22\u0e32\u0e19\u0e38\u0e2a\u0e23\u0e13\u0e4c 2480", "wikidata": "Q134086997"}}, {"type": "node", "id": 7328132089, "lat": 13.7484782, "lon": 100.4965689, "tags": {"image": "https://images.mapillary.com/DFrj7cz-ea8hTv_7KIUKow/thumb-2048.jpg", "information": "board", "mapillary": "250975603432726", "name": "Khlong Lot Wat Ratchabophit", "tourism": "information"}}, {"type": "node", "id": 7328842801, "lat": 13.7494691, "lon": 100.4955362, "tags": {"artwork_type": "sculpture", "image": "https://images.mapillary.com/56vA07xfOKOitKBZCMOATw/thumb-2048.jpg", "mapillary": "467548357683853", "tourism": "artwork"}}, {"type": "node", "id": 7677211785, "lat": 13.7440368, "lon": 100.4918309, "tags": {"amenity": "restaurant", "name:en": "Chom Arun Resraurant"}}, {"type": "node", "id": 7684218550, "lat": 13.7425852, "lon": 100.4976862, "tags": {"artwork_type": "statue", "name": "\u0e1e\u0e23\u0e30\u0e22\u0e23\u0e21\u0e23\u0e39\u0e1b\u0e1e\u0e23\u0e30\u0e1a\u0e32\u0e17\u0e2a\u0e21\u0e40\u0e14\u0e47\u0e08\u0e1e\u0e23\u0e30\u0e08\u0e38\u0e25\u0e08\u0e2d\u0e21\u0e40\u0e01\u0e25\u0e49\u0e32\u0e40\u0e08\u0e49\u0e32\u0e2d\u0e22\u0e39\u0e48\u0e2b\u0e31\u0e27", "name:en": "Rama V Statue", "tourism": "artwork"}}, {"type": "node", "id": 7733185485, "lat": 13.7449474, "lon": 100.492078, "tags": {"addr:street": "Thanon Mahathat", "amenity": "restaurant", "cuisine": "coffee_shop", "internet_access": "wlan", "name:en": "Pink Rabbit Cake Shop"}}, {"type": "node", "id": 7737340673, "lat": 13.7391046, "lon": 100.4985819, "tags": {"name": "\u0e2a\u0e27\u0e19\u0e25\u0e2d\u0e22\u0e1f\u0e49\u0e32\u0e40\u0e08\u0e49\u0e32\u0e1e\u0e23\u0e30\u0e22\u0e32", "tourism": "viewpoint"}}, {"type": "node", "id": 7996334614, "lat": 13.7220279, "lon": 100.4599545, "tags": {"amenity": "restaurant", "diet:vegetarian": "yes", "name": "Vegetarian food also", "opening_hours": "Th-Tu 11:00-18:00; We off"}}, {"type": "node", "id": 8041953788, "lat": 13.745022, "lon": 100.4995102, "tags": {"amenity": "restaurant", "name:fr": "pad Thai super bon"}}, {"type": "node", "id": 8120240943, "lat": 13.739243, "lon": 100.4931062, "tags": {"amenity": "restaurant", "description": "Very local authentic Thai/Portuguese food in a traditional house", "name": "\u0e1a\u0e49\u0e32\u0e19\u0e2a\u0e01\u0e38\u0e25\u0e17\u0e2d\u0e07", "name:en": "Baan Sakulthong", "phone": "0626055665"}}, {"type": "node", "id": 8272916949, "lat": 13.7072219, "lon": 100.4923111, "tags": {"amenity": "cafe", "description": "Tiny coffee shop and bakery with home made specialties", "name": "Tikky Baker", "opening_hours": "Mo-Su 08:00-19:00", "phone": "06-4598-2262", "website": "https://m.facebook.com/ButterPecanByNat"}}, {"type": "node", "id": 9383217217, "lat": 13.7211584, "lon": 100.4894117, "tags": {"internet_access": "wlan", "name:en": "Beautiful souls", "tourism": "hostel"}}, {"type": "node", "id": 9394462017, "lat": 13.7211238, "lon": 100.4894466, "tags": {"internet_access": "wlan", "name": "Beautiful Souls", "tourism": "hostel"}}, {"type": "node", "id": 9462574717, "lat": 13.7443673, "lon": 100.4919858, "tags": {"name:en": "The Royal ThaTien Village", "tourism": "hotel"}}, {"type": "node", "id": 9465287517, "lat": 13.7445939, "lon": 100.492145, "tags": {"name:en": "The Royal ThaTien Village", "tourism": "hotel"}}, {"type": "node", "id": 9599444682, "lat": 13.7380611, "lon": 100.4854787, "tags": {"addr:city": "\u0e41\u0e02\u0e27\u0e07\u0e27\u0e31\u0e14\u0e2d\u0e23\u0e38\u0e13", "addr:postcode": "10600", "addr:street": "\u0e16\u0e19\u0e19\u0e2d\u0e34\u0e2a\u0e23\u0e20\u0e32\u0e1e", "email": "kasayapi.reservation@gmail.com", "internet_access": "yes", "internet_access:fee": "customers", "name": "Kasayapi Hotel", "phone": "+66 2 891 1191", "rooms": "12", "tourism": "hotel", "website": "http://kasayapi.com/"}}, {"type": "node", "id": 9666206917, "lat": 13.7261273, "lon": 100.4982873, "tags": {"addr:housenumber": "321", "addr:postcode": "10600", "addr:street": "\u0e16\u0e19\u0e19\u0e40\u0e08\u0e23\u0e34\u0e0d\u0e23\u0e31\u0e16", "amenity": "restaurant", "cuisine": "fine_dining", "name": "35 Dry Aged Beef", "opening_hours": "Mo-Fr 12:00-21:00; Sa 12:00-21:00", "phone": "0899226671", "website": "https://www.35beef.com/"}}, {"type": "node", "id": 9924792693, "lat": 13.7389277, "lon": 100.4545936, "tags": {"amenity": "restaurant", "name": "\u0e15\u0e32\u0e21 \u0e2a\u0e31\u0e48\u0e07\u0e08\u0e23\u0e31\u0e0d13"}}, {"type": "node", "id": 9924821555, "lat": 13.7389173, "lon": 100.4545761, "tags": {"amenity": "restaurant", "name": "\u0e04\u0e2d\u0e1f\u0e1f\u0e35\u0e48 \u0e1a\u0e32\u0e22 \u0e40\u0e15\u0e47\u0e19\u0e17\u0e4c"}}, {"type": "node", "id": 10146692011, "lat": 13.7174411, "lon": 100.4775628, "tags": {"addr:city": "\u0e41\u0e02\u0e27\u0e07\u0e15\u0e25\u0e32\u0e14\u0e1e\u0e25\u0e39", "addr:housenumber": "4", "addr:postcode": "10600", "addr:street": "\u0e16\u0e19\u0e19\u0e23\u0e31\u0e0a\u0e14\u0e32\u0e20\u0e34\u0e40\u0e29\u0e01", "amenity": "restaurant", "name": "\u0e42\u0e0a\u0e04\u0e14\u0e35\u0e15\u0e34\u0e48\u0e21\u0e0b\u0e33 \u0e2a\u0e32\u0e02\u0e32\u0e17\u0e48\u0e32\u0e1e\u0e23\u0e30", "opening_hours": "24/7", "phone": "028915051", "website": "https://www.chokdeedimsum.com/"}}, {"type": "node", "id": 10245742209, "lat": 13.7202549, "lon": 100.4959011, "tags": {"addr:housenumber": "45", "addr:postcode": "10600", "internet_access": "wlan", "name:en": "Station8 Hostel", "tourism": "hostel"}}, {"type": "node", "id": 10310141389, "lat": 13.7456375, "lon": 100.491136, "tags": {"amenity": "restaurant", "check_date:diet:vegetarian": "2023-01-06", "diet:vegan": "no", "diet:vegetarian": "yes", "indoor_seating": "yes", "name": "Home Cafe Tha Tien", "opening_hours": "Mo-Sa 10:30-19:00", "outdoor_seating": "no", "wifi": "yes"}}, {"type": "node", "id": 10538698062, "lat": 13.7283558, "lon": 100.4940473, "tags": {"amenity": "cafe", "cuisine": "coffee_shop", "drink:espresso": "served", "drink:filter_coffee": "served", "name": "Gu Slow Bar Coffee", "opening_hours": "We-Mo 08:00-18:00", "takeaway": "yes"}}, {"type": "node", "id": 10542328910, "lat": 13.7153831, "lon": 100.4628895, "tags": {"amenity": "restaurant", "name": "\u0e40 \u0e02\u0e35 \u0e22 \u0e07", "name:en": "K H I A N G"}}, {"type": "node", "id": 10542328911, "lat": 13.7154432, "lon": 100.4628753, "tags": {"amenity": "restaurant", "name": "SALAD FACTORY"}}, {"type": "node", "id": 10542328913, "lat": 13.7155431, "lon": 100.4628436, "tags": {"amenity": "restaurant", "name": "\u0e14\u0e34\u0e40\u0e2d\u0e47\u0e21\u0e44\u0e1e\u0e23\u0e4c"}}, {"type": "node", "id": 10542328926, "lat": 13.7159974, "lon": 100.4626824, "tags": {"amenity": "restaurant", "cuisine": "noodle", "name": "RAMEN OZAWA"}}, {"type": "node", "id": 10542328927, "lat": 13.7159965, "lon": 100.4627396, "tags": {"amenity": "restaurant", "name": "\u0e2a\u0e49\u0e21\u0e15\u0e33 \u0e22\u0e33"}}, {"type": "node", "id": 10542328928, "lat": 13.715996, "lon": 100.4627864, "tags": {"amenity": "restaurant", "cuisine": "noodle", "name": "\u0e40\u0e15\u0e35\u0e4b\u0e22\u0e27\u0e2b\u0e21\u0e39 \u0e40\u0e15\u0e35\u0e4b\u0e22\u0e27\u0e40\u0e19\u0e37\u0e49\u0e2d"}}, {"type": "node", "id": 10672074342, "lat": 13.7051589, "lon": 100.4906208, "tags": {"amenity": "restaurant", "brand": "Sizzler", "brand:wikidata": "Q1848822", "cuisine": "steak_house", "name": "Sizzler"}}, {"type": "node", "id": 10672074344, "lat": 13.7054533, "lon": 100.4909856, "tags": {"amenity": "restaurant", "cuisine": "noodle", "name": "\u0e42\u0e01\u0e2d\u0e49\u0e27\u0e19"}}, {"type": "node", "id": 10672074345, "lat": 13.7054755, "lon": 100.4909588, "tags": {"amenity": "restaurant", "cuisine": "japanese", "name": "Yayoi"}}, {"type": "node", "id": 10672074346, "lat": 13.7055068, "lon": 100.4908837, "tags": {"amenity": "restaurant", "brand": "MK Restaurants", "brand:wikidata": "Q62075359", "cuisine": "thai", "name": "MK Restaurants"}}, {"type": "node", "id": 10672074347, "lat": 13.7054155, "lon": 100.4910473, "tags": {"amenity": "restaurant", "cuisine": "sushi", "name": "Sushu Hiro"}}, {"type": "node", "id": 10705709305, "lat": 13.7441833, "lon": 100.4926755, "tags": {"addr:street": "Maha Rat Rd, Phra Borom Maha Ratchawang, Phra Nakhon, Bangkok 10200, \u0422\u0430\u0438\u043b\u0430\u043d\u0434", "amenity": "cafe", "cuisine": "breakfast", "internet_access": "wlan", "name": "Elefin Coffee", "name:en": "Elefin Coffee", "phone": "+66 2 622 1115", "website": "http://elefincoffee.com"}}, {"type": "node", "id": 10729838705, "lat": 13.7200882, "lon": 100.470677, "tags": {"name:en": "Bridge Between Temples", "tourism": "viewpoint"}}, {"type": "node", "id": 10768096105, "lat": 13.7199538, "lon": 100.4738014, "tags": {"amenity": "cafe", "name:en": "Trok Ta Lat Phu"}}, {"type": "node", "id": 10925639147, "lat": 13.7263698, "lon": 100.4913385, "tags": {"internet_access": "wlan", "internet_access:fee": "no", "name": "HOUSE MODE", "phone": "028900096", "tourism": "hotel"}}, {"type": "node", "id": 10925662013, "lat": 13.7264036, "lon": 100.4913359, "tags": {"amenity": "cafe", "cuisine": "coffee_shop", "internet_access": "yes", "internet_access:fee": "no", "name": "MODE COFFEEHOUSE"}}, {"type": "node", "id": 10991230205, "lat": 13.7245186, "lon": 100.495094, "tags": {"tourism": "hotel"}}, {"type": "node", "id": 11019838906, "lat": 13.7194813, "lon": 100.4724999, "tags": {"amenity": "cafe", "name:en": "Masonia Cafe", "opening_hours": "Mo,Th,Tu,Su,Sa,Fr 09:00-17:00"}}, {"type": "node", "id": 11039642612, "lat": 13.7449383, "lon": 100.4911625, "tags": {"amenity": "restaurant", "name:nl": "View Arun"}}, {"type": "node", "id": 11049564606, "lat": 13.7268642, "lon": 100.4960972, "tags": {"addr:city": "\u0e04\u0e25\u0e2d\u0e07\u0e2a\u0e32\u0e19", "addr:housenumber": "220", "addr:postcode": "10600", "addr:street": "\u0e04\u0e25\u0e2d\u0e07\u0e2a\u0e32\u0e19", "amenity": "restaurant", "contact:facebook": "https://www.facebook.com/ayeefriedrice", "cuisine": "chinese;asian", "name": "\u0e2d\u0e32\u0e2d\u0e35\u0e49\u0e02\u0e49\u0e32\u0e27\u0e1c\u0e31\u0e14\u0e1b\u0e39 \u963f\u59e8\u7092\u98ef \u0e2a\u0e32\u0e02\u0e32\u0e27\u0e07\u0e40\u0e27\u0e35\u0e22\u0e19\u0e43\u0e2b\u0e0d\u0e48", "opening_hours": "Mo-Su 10:00-21:00", "phone": "0819969450", "website": "https://www.facebook.com/ayeefriedrice"}}, {"type": "node", "id": 11065232996, "lat": 13.7443431, "lon": 100.4942708, "tags": {"artwork_type": "installation", "tourism": "artwork"}}, {"type": "node", "id": 11183012057, "lat": 13.745099, "lon": 100.4840787, "tags": {"artwork_type": "statue", "tourism": "artwork"}}, {"type": "node", "id": 11183012062, "lat": 13.745288, "lon": 100.4839332, "tags": {"artwork_type": "statue", "tourism": "artwork"}}, {"type": "node", "id": 11183012127, "lat": 13.7454392, "lon": 100.4838821, "tags": {"artwork_type": "statue", "tourism": "artwork"}}, {"type": "node", "id": 11183012128, "lat": 13.7459751, "lon": 100.4834969, "tags": {"artwork_type": "statue", "tourism": "artwork"}}, {"type": "node", "id": 11201737621, "lat": 13.7457978, "lon": 100.483655, "tags": {"artwork_type": "statue", "tourism": "artwork"}}, {"type": "node", "id": 11204201938, "lat": 13.7328575, "lon": 100.4619995, "tags": {"artwork_type": "statue", "tourism": "artwork"}}, {"type": "node", "id": 11204201987, "lat": 13.7326274, "lon": 100.4619265, "tags": {"artwork_type": "statue", "tourism": "artwork"}}, {"type": "node", "id": 11204202165, "lat": 13.7326809, "lon": 100.4625319, "tags": {"artwork_type": "statue", "tourism": "artwork"}}, {"type": "node", "id": 11337308275, "lat": 13.7484202, "lon": 100.4899082, "tags": {"name:en": "Navy wives association", "tourism": "information"}}, {"type": "node", "id": 11378645811, "lat": 13.7200692, "lon": 100.4709127, "tags": {"name:en": "Big Buddha", "tourism": "attraction"}}, {"type": "node", "id": 11378645819, "lat": 13.7208146, "lon": 100.4708475, "tags": {"level": "5", "tourism": "viewpoint"}}, {"type": "node", "id": 11397408369, "lat": 13.7098057, "lon": 100.4504946, "tags": {"addr:housenumber": "148/61", "addr:street": "Metropark Satorn", "internet_access": "wlan", "name:ru": "\u041c\u0435\u0442\u0440\u043e \u043f\u0430\u0440\u043a", "tourism": "apartment"}}, {"type": "node", "id": 11462983486, "lat": 13.7450797, "lon": 100.4863888, "tags": {"amenity": "cafe", "name": "\u0e2d\u0e23\u0e38\u0e13"}}, {"type": "node", "id": 11510249969, "lat": 13.7391345, "lon": 100.4849976, "tags": {"amenity": "cafe", "brand": "Starbucks", "brand:wikidata": "Q37158", "cuisine": "coffee_shop", "name": "Starbucks", "name:en": "Starbucks", "official_name": "Starbucks Coffee", "takeaway": "yes"}}, {"type": "node", "id": 11602295770, "lat": 13.7260678, "lon": 100.4592423, "tags": {"addr:housenumber": "97", "addr:postcode": "10160", "addr:street": "\u0e0b\u0e2d\u0e22\u0e40\u0e1e\u0e0a\u0e23\u0e40\u0e01\u0e29\u0e21 28", "internet_access": "wlan", "name:en": "Wild Ones Hostel", "opening_hours": "Mo-Su 08:30-23:30", "tourism": "hostel"}}, {"type": "node", "id": 11670748769, "lat": 13.7453876, "lon": 100.4916696, "tags": {"amenity": "restaurant"}}, {"type": "node", "id": 11690828369, "lat": 13.7306407, "lon": 100.4637256, "tags": {"amenity": "restaurant", "name:en": "Restaurante"}}, {"type": "node", "id": 11760049667, "lat": 13.7140456, "lon": 100.4893084, "tags": {"amenity": "cafe", "name": "Starbucks"}}, {"type": "node", "id": 11770595569, "lat": 13.7050249, "lon": 100.491371, "tags": {"addr:housenumber": "257", "addr:postcode": "10600", "addr:street": "Charoennakorn Road", "int_name": "Avani+ Riverside Bangkok Hotel", "name": "\u0e42\u0e23\u0e07\u0e41\u0e23\u0e21\u0e2d\u0e27\u0e32\u0e19\u0e35 \u0e1e\u0e25\u0e31\u0e2a \u0e23\u0e34\u0e40\u0e27\u0e2d\u0e23\u0e4c\u0e44\u0e0b\u0e14\u0e4c \u0e01\u0e23\u0e38\u0e07\u0e40\u0e17\u0e1e", "name:en": "Avani+ Riverside Bangkok Hotel", "phone": "+66 2 431 9100", "tourism": "hotel", "website": "https://www.avanihotels.com/en/riverside-bangkok"}}, {"type": "node", "id": 11775561611, "lat": 13.7478569, "lon": 100.4989278, "tags": {"amenity": "restaurant"}}, {"type": "node", "id": 11775561612, "lat": 13.7478519, "lon": 100.4990011, "tags": {"amenity": "restaurant"}}, {"type": "node", "id": 11775561636, "lat": 13.7481708, "lon": 100.4990356, "tags": {"amenity": "cafe", "name": "Daddy's Coffee"}}, {"type": "node", "id": 11806216522, "lat": 13.7457964, "lon": 100.4902958, "tags": {"name": "\u0e08\u0e38\u0e14\u0e0a\u0e21\u0e27\u0e34\u0e27\u0e17\u0e48\u0e32\u0e40\u0e15\u0e35\u0e22\u0e19", "name:en": "Tha Tien Viewpoint", "name:th": "\u0e08\u0e38\u0e14\u0e0a\u0e21\u0e27\u0e34\u0e27\u0e17\u0e48\u0e32\u0e40\u0e15\u0e35\u0e22\u0e19", "tourism": "viewpoint"}}, {"type": "node", "id": 11811569598, "lat": 13.7449793, "lon": 100.4911177, "tags": {"addr:housenumber": "87-89", "addr:postcode": "10200", "addr:street": "\u0e16\u0e19\u0e19\u0e21\u0e2b\u0e32\u0e23\u0e32\u0e0a", "name": "ARUN Riverside", "tourism": "hotel"}}, {"type": "node", "id": 11845914069, "lat": 13.7138013, "lon": 100.4778602, "tags": {"name:en": "tha phra open air market", "name:ko": "\ub538\ub78f\ub4e0\ub80c \uc57c\uc2dc\uc7a5", "tourism": "attraction"}}, {"type": "node", "id": 11874493669, "lat": 13.7169077, "lon": 100.4758876, "tags": {"addr:street": "18 Soi Thoet Thai 33, Talat Phlu, Thon Buri, Bangkok 10600", "name:en": "The Matt Sathorn-Thaphra", "tourism": "apartment", "website": "https://akralandandhouse.com/"}}, {"type": "node", "id": 11994752769, "lat": 13.722574, "lon": 100.4961047, "tags": {"addr:street": "Krung Thon Buri 1", "tourism": "apartment"}}, {"type": "node", "id": 12041849969, "lat": 13.7036662, "lon": 100.4850753, "tags": {"addr:postcode": "10600", "addr:street": "\u0e0b\u0e2d\u0e22\u0e2a\u0e21\u0e40\u0e14\u0e47\u0e08\u0e1e\u0e23\u0e30\u0e40\u0e08\u0e49\u0e32\u0e15\u0e32\u0e01\u0e2a\u0e34\u0e19 34", "amenity": "restaurant", "cuisine": "thai", "name": "Kor Chun Huad", "opening_hours": "Mo-Su 16:00-01:30"}}, {"type": "node", "id": 12114182101, "lat": 13.7487428, "lon": 100.4991489, "tags": {"internet_access": "wlan", "name": "Ti Thong Hostel", "tourism": "hostel"}}, {"type": "node", "id": 12146461701, "lat": 13.7232876, "lon": 100.4814236, "tags": {"amenity": "cafe", "name": "Suriya Coffee"}}, {"type": "node", "id": 12146548812, "lat": 13.7480385, "lon": 100.4905407, "tags": {"castle_type": "palace", "historic": "castle", "name": "\u0e15\u0e33\u0e2b\u0e19\u0e31\u0e01\u0e1e\u0e23\u0e30\u0e2d\u0e07\u0e04\u0e4c\u0e40\u0e08\u0e49\u0e32\u0e40\u0e17\u0e27\u0e35\u0e27\u0e34\u0e44\u0e25\u0e22\u0e27\u0e23\u0e23\u0e13", "name:en": "Villa of Princess Devi Vilaivan", "name:th": "\u0e15\u0e33\u0e2b\u0e19\u0e31\u0e01\u0e1e\u0e23\u0e30\u0e2d\u0e07\u0e04\u0e4c\u0e40\u0e08\u0e49\u0e32\u0e40\u0e17\u0e27\u0e35\u0e27\u0e34\u0e44\u0e25\u0e22\u0e27\u0e23\u0e23\u0e13"}}, {"type": "node", "id": 12146548813, "lat": 13.7480552, "lon": 100.4907328, "tags": {"castle_type": "palace", "historic": "castle", "name": "\u0e15\u0e33\u0e2b\u0e19\u0e31\u0e01\u0e1e\u0e23\u0e30\u0e2d\u0e07\u0e04\u0e4c\u0e40\u0e08\u0e49\u0e32\u0e2a\u0e38\u0e19\u0e17\u0e23\u0e35\u0e19\u0e32\u0e0f", "name:en": "Villa of Princess Sutrinart", "name:th": "\u0e15\u0e33\u0e2b\u0e19\u0e31\u0e01\u0e1e\u0e23\u0e30\u0e2d\u0e07\u0e04\u0e4c\u0e40\u0e08\u0e49\u0e32\u0e2a\u0e38\u0e19\u0e17\u0e23\u0e35\u0e19\u0e32\u0e0f"}}, {"type": "node", "id": 12146548815, "lat": 13.7480729, "lon": 100.4909065, "tags": {"castle_type": "palace", "historic": "castle", "name": "\u0e15\u0e33\u0e2b\u0e19\u0e31\u0e01\u0e1e\u0e23\u0e30\u0e2d\u0e07\u0e04\u0e4c\u0e40\u0e08\u0e49\u0e32\u0e40\u0e09\u0e34\u0e14\u0e42\u0e09\u0e21", "name:en": "Villa of Princess Cherdchom", "name:th": "\u0e15\u0e33\u0e2b\u0e19\u0e31\u0e01\u0e1e\u0e23\u0e30\u0e2d\u0e07\u0e04\u0e4c\u0e40\u0e08\u0e49\u0e32\u0e40\u0e09\u0e34\u0e14\u0e42\u0e09\u0e21"}}, {"type": "node", "id": 12229268601, "lat": 13.746495, "lon": 100.4908518, "tags": {"amenity": "cafe", "name": "\u0e44\u0e2d\u0e40\u0e22\u0e47\u0e19", "name:en": "Ice Yen", "name:th": "\u0e44\u0e2d\u0e40\u0e22\u0e47\u0e19"}}, {"type": "node", "id": 12254718741, "lat": 13.7088619, "lon": 100.4868607, "tags": {"amenity": "restaurant", "cuisine": "noodle", "diet:local": "yes", "diet:noodle": "yes", "diet:pork": "yes", "name": "\u0e40\u0e23\u0e37\u0e2d\u0e07\u0e42\u0e20\u0e0a\u0e19\u0e32"}}, {"type": "node", "id": 12324890123, "lat": 13.7484315, "lon": 100.4979106, "tags": {"amenity": "cafe", "check_date": "2024-11-07", "name": "Yakthai Cafe"}}, {"type": "node", "id": 12324890124, "lat": 13.7484444, "lon": 100.4979453, "tags": {"check_date": "2024-11-07", "name": "Yakthai Poshtel", "tourism": "hotel"}}, {"type": "node", "id": 12366307672, "lat": 13.7007874, "lon": 100.4972073, "tags": {"amenity": "school", "name": "\u0e42\u0e23\u0e07\u0e40\u0e23\u0e35\u0e22\u0e19\u0e27\u0e31\u0e14\u0e25\u0e32\u0e14\u0e1a\u0e31\u0e27\u0e02\u0e32\u0e27", "religion": "buddhist"}}, {"type": "node", "id": 12428813620, "lat": 13.7419908, "lon": 100.4828608, "tags": {"amenity": "cafe", "name": "Issara Cafe", "opening_hours": "Mo-Su 10:00-18:00"}}, {"type": "node", "id": 12428813854, "lat": 13.7286745, "lon": 100.4706506, "tags": {"name": "\u0e17\u0e47\u0e2d\u0e1b\u0e40\u0e17\u0e25 \u0e17\u0e48\u0e32\u0e1e\u0e23\u0e30", "name:en": "Toptel Thaphra", "tourism": "hotel"}}, {"type": "node", "id": 12428814631, "lat": 13.7283348, "lon": 100.4706404, "tags": {"amenity": "cafe", "name:en": "Nil Cafe", "opening_hours": "Tu-Fr 07:30-17:00; Sa-Su 09:00-17:00"}}, {"type": "node", "id": 12432276104, "lat": 13.7319485, "lon": 100.4628767, "tags": {"amenity": "cafe"}}, {"type": "node", "id": 12432290303, "lat": 13.7325409, "lon": 100.4626195, "tags": {"tourism": "information"}}, {"type": "node", "id": 12432291002, "lat": 13.7310766, "lon": 100.463408, "tags": {"amenity": "restaurant", "name": "Phuengsin House Cafe & Restaurant"}}, {"type": "node", "id": 12432308604, "lat": 13.7265838, "lon": 100.4609702, "tags": {"amenity": "restaurant", "name": "Ongsa de green"}}, {"type": "node", "id": 12432327004, "lat": 13.7226311, "lon": 100.4607265, "tags": {"amenity": "restaurant", "name": "Lot of food stalls"}}, {"type": "node", "id": 12432328703, "lat": 13.7228549, "lon": 100.4609817, "tags": {"amenity": "cafe", "name": "Sync Cafe", "opening_hours": "Mo-Su 08:00-18:00"}}, {"type": "node", "id": 12432328804, "lat": 13.7233236, "lon": 100.461097, "tags": {"amenity": "cafe", "opening_hours": "Mo-Su 06:00-15:00"}}, {"type": "node", "id": 12432520802, "lat": 13.7234672, "lon": 100.4632902, "tags": {"amenity": "cafe", "brand": "\u0e04\u0e32\u0e40\u0e1f\u0e48 \u0e2d\u0e40\u0e21\u0e0b\u0e2d\u0e19", "brand:en": "Caf\u00e9 Amazon", "brand:th": "\u0e04\u0e32\u0e40\u0e1f\u0e48 \u0e2d\u0e40\u0e21\u0e0b\u0e2d\u0e19", "brand:wikidata": "Q43247503", "cuisine": "coffee_shop", "name": "\u0e04\u0e32\u0e40\u0e1f\u0e48 \u0e2d\u0e40\u0e21\u0e0b\u0e2d\u0e19", "name:en": "Caf\u00e9 Amazon", "name:th": "\u0e04\u0e32\u0e40\u0e1f\u0e48 \u0e2d\u0e40\u0e21\u0e0b\u0e2d\u0e19", "takeaway": "yes"}}, {"type": "node", "id": 12432696501, "lat": 13.7244711, "lon": 100.464632, "tags": {"amenity": "cafe", "name": "1000 Coffee"}}, {"type": "node", "id": 12433747701, "lat": 13.7294537, "lon": 100.4732892, "tags": {"amenity": "cafe", "name": "Topgro Coffee"}}, {"type": "node", "id": 12433747801, "lat": 13.7292602, "lon": 100.4731555, "tags": {"historic": "wayside_shrine"}}, {"type": "node", "id": 12442803774, "lat": 13.7031766, "lon": 100.4915164, "tags": {"addr:district": "\u0e18\u0e19\u0e1a\u0e38\u0e23\u0e35", "addr:postcode": "10600", "addr:province": "\u0e01\u0e23\u0e38\u0e07\u0e40\u0e17\u0e1e\u0e2f", "addr:street": "\u0e16\u0e19\u0e19\u0e40\u0e08\u0e23\u0e34\u0e0d\u0e19\u0e04\u0e23", "addr:subdistrict": "\u0e2a\u0e33\u0e40\u0e2b\u0e23\u0e48", "amenity": "cafe", "cuisine": "coffee_shop;dessert", "internet_access": "yes", "name": "Siam Charoen Nakhon"}}, {"type": "node", "id": 12443490102, "lat": 13.7494337, "lon": 100.49945, "tags": {"amenity": "cafe", "brand": "\u0e04\u0e32\u0e40\u0e1f\u0e48 \u0e2d\u0e40\u0e21\u0e0b\u0e2d\u0e19", "brand:en": "Caf\u00e9 Amazon", "brand:th": "\u0e04\u0e32\u0e40\u0e1f\u0e48 \u0e2d\u0e40\u0e21\u0e0b\u0e2d\u0e19", "brand:wikidata": "Q43247503", "cuisine": "coffee_shop", "name": "\u0e04\u0e32\u0e40\u0e1f\u0e48 \u0e2d\u0e40\u0e21\u0e0b\u0e2d\u0e19", "name:en": "Caf\u00e9 Amazon", "name:th": "\u0e04\u0e32\u0e40\u0e1f\u0e48 \u0e2d\u0e40\u0e21\u0e0b\u0e2d\u0e19", "opening_hours": "Mo-Fr 06:00-18:00; Sa 06:00-15:00", "takeaway": "yes"}}, {"type": "node", "id": 12443759402, "lat": 13.7432889, "lon": 100.4990706, "tags": {"amenity": "cafe", "name": "\u0e41\u0e21\u0e48\u0e2a\u0e21\u0e43\u0e08\u0e04\u0e32\u0e40\u0e1f\u0e48", "name:en": "Mae somjai cafe", "name:th": "\u0e41\u0e21\u0e48\u0e2a\u0e21\u0e43\u0e08\u0e04\u0e32\u0e40\u0e1f\u0e48"}}, {"type": "node", "id": 12443787201, "lat": 13.7451367, "lon": 100.4993293, "tags": {"amenity": "restaurant", "contact:instagram": "kemkon_plant", "contact:line": "kemkon", "cuisine": "breakfast;burger;italian", "diet:vegan": "yes", "diet:vegetarian": "yes", "internet_access": "wlan", "name": "\u0e40\u0e02\u0e49\u0e21-\u0e02\u0e49\u0e19 \u0e1e\u0e32\u0e2b\u0e38\u0e23\u0e31\u0e14", "name:en": "Kem-Kon Pahurat", "opening_hours": "Mo-Su 10:00-22:00", "website": "https://www.kem-kon.com"}}, {"type": "node", "id": 12443981401, "lat": 13.7289199, "lon": 100.4725598, "tags": {"amenity": "cafe", "name": "Cat cafe"}}, {"type": "node", "id": 12460516901, "lat": 13.7380258, "lon": 100.4982527, "tags": {"amenity": "cafe", "name": "Anunta Cafe & Bistro"}}, {"type": "node", "id": 12468600835, "lat": 13.7492703, "lon": 100.4793864, "tags": {"historic": "monument", "name": "\u0e1e\u0e23\u0e30\u0e2d\u0e19\u0e38\u0e2a\u0e32\u0e27\u0e23\u0e35\u0e22\u0e4c \u0e01\u0e23\u0e21\u0e2b\u0e25\u0e27\u0e07\u0e0a\u0e38\u0e21\u0e1e\u0e23", "name:en": "Abhakara Kiartivongse monument", "name:th": "\u0e1e\u0e23\u0e30\u0e2d\u0e19\u0e38\u0e2a\u0e32\u0e27\u0e23\u0e35\u0e22\u0e4c \u0e01\u0e23\u0e21\u0e2b\u0e25\u0e27\u0e07\u0e0a\u0e38\u0e21\u0e1e\u0e23"}}, {"type": "node", "id": 12495527301, "lat": 13.7281415, "lon": 100.4519202, "tags": {"addr:postcode": "10160", "addr:street": "11 \u0e0b\u0e2d\u0e22\u0e23\u0e32\u0e0a\u0e1e\u0e24\u0e29\u0e29\u0e4c 5", "contact:facebook": "DODEECAFE", "internet_access": "wlan", "name": "ABSTheCafe hostel", "phone": "+66 65 932 1108", "tourism": "hostel"}}, {"type": "node", "id": 12509850647, "lat": 13.7230343, "lon": 100.4809559, "tags": {"amenity": "marketplace"}}, {"type": "node", "id": 12509850682, "lat": 13.7115245, "lon": 100.475631, "tags": {"amenity": "school", "name": "\u0e42\u0e23\u0e07\u0e40\u0e23\u0e35\u0e22\u0e19\u0e27\u0e31\u0e14\u0e1a\u0e32\u0e07\u0e2a\u0e30\u0e41\u0e01\u0e43\u0e19", "religion": "buddhist"}}, {"type": "node", "id": 12526550268, "lat": 13.746229, "lon": 100.4986399, "tags": {"amenity": "place_of_worship", "denomination": "mahayana", "name": "\u0e27\u0e31\u0e14\u0e17\u0e34\u0e1e\u0e22\u0e27\u0e32\u0e23\u0e35\u0e27\u0e34\u0e2b\u0e32\u0e23", "name:en": "Wat Dibayavari Vihara", "name:th": "\u0e27\u0e31\u0e14\u0e17\u0e34\u0e1e\u0e22\u0e27\u0e32\u0e23\u0e35\u0e27\u0e34\u0e2b\u0e32\u0e23", "religion": "buddhist", "wikidata": "Q55642646", "wikimedia_commons": "Category:Wat Dibayavari Vihara", "wikipedia": "th:\u0e27\u0e31\u0e14\u0e17\u0e34\u0e1e\u0e22\u0e27\u0e32\u0e23\u0e35\u0e27\u0e34\u0e2b\u0e32\u0e23"}}, {"type": "node", "id": 12571382601, "lat": 13.7174253, "lon": 100.4799029, "tags": {"amenity": "restaurant", "cuisine": "thai", "name": "\u0e23\u0e49\u0e32\u0e19\u0e15\u0e31\u0e27\u0e01\u0e25\u0e21\u0e02\u0e49\u0e32\u0e27\u0e01\u0e30\u0e40\u0e1e\u0e23\u0e32", "name:en": "Tua Klom Khao Kaphrao"}}, {"type": "node", "id": 12581598301, "lat": 13.7457109, "lon": 100.4999732, "tags": {"addr:postcode": "10200", "addr:street": "\u0e16\u0e19\u0e19\u0e1a\u0e39\u0e23\u0e1e\u0e32", "amenity": "cafe", "name": "Black Canyon", "opening_hours": "Mo-Su 09:00-18:00"}}, {"type": "node", "id": 12586898303, "lat": 13.7489702, "lon": 100.4991703, "tags": {"amenity": "cafe", "cuisine": "coffee_shop", "name": "Chef Ming Cafe"}}, {"type": "node", "id": 12594045002, "lat": 13.7446229, "lon": 100.486136, "tags": {"amenity": "restaurant", "name": "\u0e01\u0e4b\u0e27\u0e22\u0e40\u0e15\u0e35\u0e4b\u0e22\u0e27\u0e40\u0e23\u0e37\u0e2d\u0e2d\u0e22\u0e38\u0e18\u0e22\u0e32 \u0e40\u0e19\u0e37\u0e49\u0e2d - \u0e2b\u0e21\u0e39 (\u0e14\u0e27\u0e07\u0e19\u0e20\u0e32)", "name:en": "Ayutthaya Boat Noodle (Beef - Pork)"}}, {"type": "node", "id": 12594049201, "lat": 13.7449927, "lon": 100.4865334, "tags": {"addr:housenumber": "273-275", "addr:postcode": "10600", "addr:street": "\u0e16\u0e19\u0e19\u0e27\u0e31\u0e07\u0e40\u0e14\u0e34\u0e21", "amenity": "restaurant", "name": "\u0e23\u0e49\u0e32\u0e19\u0e21\u0e38\u0e48\u0e22\u0e2b\u0e25\u0e35", "name:en": "Mui Lee Chicken and Rice"}}, {"type": "node", "id": 12594528301, "lat": 13.7229512, "lon": 100.4956015, "tags": {"amenity": "restaurant", "name:en": "Original Thai Holy Basil"}}, {"type": "node", "id": 12633769019, "lat": 13.7262381, "lon": 100.4934596, "tags": {"historic": "memorial", "memorial": "plaque"}}, {"type": "node", "id": 12633769020, "lat": 13.7262316, "lon": 100.4934905, "tags": {"historic": "memorial", "memorial": "plaque"}}, {"type": "node", "id": 12633769021, "lat": 13.7262101, "lon": 100.4935744, "tags": {"historic": "memorial", "memorial": "plaque"}}, {"type": "node", "id": 12633769022, "lat": 13.7262042, "lon": 100.4935992, "tags": {"historic": "memorial", "memorial": "plaque"}}, {"type": "node", "id": 12633769023, "lat": 13.7261051, "lon": 100.4935596, "tags": {"historic": "memorial", "memorial": "plaque"}}, {"type": "node", "id": 12633769024, "lat": 13.7261096, "lon": 100.4935361, "tags": {"historic": "memorial", "memorial": "plaque"}}, {"type": "node", "id": 12633769025, "lat": 13.7261455, "lon": 100.4934582, "tags": {"historic": "memorial", "memorial": "plaque"}}, {"type": "node", "id": 12633769026, "lat": 13.7261494, "lon": 100.4934341, "tags": {"historic": "memorial", "memorial": "plaque"}}, {"type": "node", "id": 12633769027, "lat": 13.7261768, "lon": 100.4933239, "tags": {"historic": "memorial", "memorial": "plaque"}}, {"type": "node", "id": 12633769028, "lat": 13.7261853, "lon": 100.4932951, "tags": {"historic": "memorial", "memorial": "plaque"}}, {"type": "node", "id": 12633769029, "lat": 13.7262871, "lon": 100.4933333, "tags": {"historic": "memorial", "memorial": "plaque"}}, {"type": "node", "id": 12633769030, "lat": 13.726274, "lon": 100.4933615, "tags": {"historic": "memorial", "memorial": "plaque"}}, {"type": "node", "id": 12633769031, "lat": 13.7263053, "lon": 100.4931178, "tags": {"historic": "memorial", "memorial": "plaque"}}, {"type": "node", "id": 12633769032, "lat": 13.7263008, "lon": 100.4930903, "tags": {"historic": "memorial", "memorial": "plaque"}}, {"type": "node", "id": 12633769033, "lat": 13.7263282, "lon": 100.493101, "tags": {"historic": "memorial", "memorial": "plaque"}}, {"type": "node", "id": 12645411669, "lat": 13.7207245, "lon": 100.4768818, "tags": {"addr:postcode": "10600", "amenity": "restaurant", "check_date": "2025-04-02", "contact:facebook": "https://www.facebook.com/J.AengFood", "email": "j.aengfood@gmail.com", "name": "\u0e01\u0e23\u0e30\u0e40\u0e1e\u0e32\u0e30\u0e1b\u0e25\u0e32\u0e40\u0e08\u0e4a\u0e40\u0e2d\u0e47\u0e07 \u0e15\u0e25\u0e32\u0e14\u0e1e\u0e25\u0e39", "name:en": "J.Aeng Fish maw soup", "name:th": "\u0e01\u0e23\u0e30\u0e40\u0e1e\u0e32\u0e30\u0e1b\u0e25\u0e32\u0e40\u0e08\u0e4a\u0e40\u0e2d\u0e47\u0e07 \u0e15\u0e25\u0e32\u0e14\u0e1e\u0e25\u0e39", "payment:cash": "yes", "phone": "0819267040"}}, {"type": "node", "id": 12645513299, "lat": 13.7376943, "lon": 100.4948862, "tags": {"addr:district": "\u0e40\u0e02\u0e15\u0e18\u0e19\u0e1a\u0e38\u0e23\u0e35", "addr:housenumber": "126", "addr:place": "\u0e0a\u0e38\u0e21\u0e0a\u0e19\u0e27\u0e31\u0e14\u0e1b\u0e23\u0e30\u0e22\u0e38\u0e23\u0e27\u0e07\u0e28\u0e4c", "addr:postcode": "10600", "addr:province": "\u0e01\u0e23\u0e38\u0e07\u0e40\u0e17\u0e1e\u0e21\u0e2b\u0e32\u0e19\u0e04\u0e23", "addr:street": "\u0e16\u0e19\u0e19\u0e2d\u0e23\u0e38\u0e13\u0e2d\u0e21\u0e23\u0e34\u0e19\u0e17\u0e23\u0e4c", "amenity": "restaurant", "check_date": "2025-09-26", "check_date:currency:XBT": "2025-09-26", "contact:email": "naun.mooping@gmail.com", "contact:facebook": "https://www.facebook.com/naunmooping", "contact:line": "https://lin.ee/mimbogI", "cuisine": "thai", "currency:XBT": "yes", "diet:pork": "yes", "name": "\u0e19\u0e27\u0e25\u0e2b\u0e21\u0e39\u0e1b\u0e34\u0e49\u0e07", "opening_hours": "Mo 07:00-12:00; We-Th 07:00-12:00; Sa-Su 07:00-12:00; ", "payment:cash": "yes", "payment:lightning": "yes", "payment:lightning_contactless": "yes", "payment:onchain": "no", "phone": "+66 82 698 2355"}}, {"type": "node", "id": 12710226400, "lat": 13.7198267, "lon": 100.4713308, "tags": {"name:en": "Reclining Buddha", "tourism": "attraction"}}, {"type": "node", "id": 12710231554, "lat": 13.7208475, "lon": 100.4707653, "tags": {"level": "5", "name:en": "Glass Pagoda", "tourism": "attraction"}}, {"type": "node", "id": 12715346335, "lat": 13.7110403, "lon": 100.4703965, "tags": {"historic": "wayside_shrine"}}, {"type": "node", "id": 12766306335, "lat": 13.7438334, "lon": 100.4882385, "tags": {"amenity": "place_of_worship", "denomination": "theravada", "name": "\u0e1e\u0e23\u0e30\u0e27\u0e34\u0e2b\u0e32\u0e23", "religion": "buddhist"}}, {"type": "node", "id": 12766306336, "lat": 13.7443556, "lon": 100.4880707, "tags": {"amenity": "place_of_worship", "denomination": "theravada", "name": "\u0e42\u0e1a\u0e2a\u0e16\u0e4c\u0e27\u0e31\u0e14\u0e2d\u0e23\u0e38\u0e13\u0e2f", "religion": "buddhist"}}, {"type": "node", "id": 12788180347, "lat": 13.7487908, "lon": 100.4975117, "tags": {"historic": "memorial", "name": "\u0e41\u0e19\u0e38\u0e2a\u0e32\u0e27\u0e23\u0e35\u0e22\u0e4c\u0e1e\u0e23\u0e30\u0e2d\u0e07\u0e04\u0e4c\u0e40\u0e08\u0e49\u0e32\u0e2d\u0e23\u0e38\u0e13\u0e19\u0e34\u0e20\u0e32\u0e04\u0e38\u0e13\u0e32\u0e01\u0e23", "name:en": "Arunnibhagunakorn Memorial", "name:th": "\u0e2d\u0e19\u0e38\u0e2a\u0e32\u0e27\u0e23\u0e35\u0e22\u0e4c\u0e1e\u0e23\u0e30\u0e2d\u0e07\u0e04\u0e4c\u0e40\u0e08\u0e49\u0e32\u0e2d\u0e23\u0e38\u0e13\u0e19\u0e34\u0e20\u0e32\u0e04\u0e38\u0e13\u0e32\u0e01\u0e23", "source": "https://archaeology.sac.or.th/archaeology/706", "subject:wikidata": "Q13017727"}}, {"type": "node", "id": 12799680884, "lat": 13.7425699, "lon": 100.4977918, "tags": {"artwork_type": "statue", "material": "metal", "name": "\u0e2d\u0e19\u0e38\u0e2a\u0e32\u0e27\u0e23\u0e35\u0e22\u0e4c\u0e04\u0e23\u0e39\u0e17\u0e27\u0e35 \u0e0a\u0e31\u0e22\u0e40\u0e08\u0e23\u0e34\u0e0d", "name:en": "Teacher Thawi Chaicharoen monument", "tourism": "artwork"}}, {"type": "node", "id": 12800326346, "lat": 13.7427826, "lon": 100.4940145, "tags": {"artwork_type": "statue", "name": "\u0e1e\u0e23\u0e30\u0e1a\u0e23\u0e21\u0e23\u0e32\u0e0a\u0e34\u0e19\u0e22\u0e32\u0e19\u0e38\u0e2a\u0e32\u0e27\u0e23\u0e35\u0e22\u0e4c", "name:th": "\u0e1e\u0e23\u0e30\u0e1a\u0e23\u0e21\u0e23\u0e32\u0e0a\u0e34\u0e19\u0e22\u0e32\u0e19\u0e38\u0e2a\u0e32\u0e27\u0e23\u0e35\u0e22\u0e4c", "tourism": "artwork"}}, {"type": "node", "id": 12855201062, "lat": 13.7285628, "lon": 100.4781718, "tags": {"amenity": "restaurant", "name": "\u0e0a\u0e32\u0e22\u0e41\u0e01\u0e4a\u0e07"}}, {"type": "node", "id": 12915497488, "lat": 13.7495816, "lon": 100.4992409, "tags": {"amenity": "marketplace", "name": "\u0e15\u0e25\u0e32\u0e14\u0e15\u0e23\u0e2d\u0e01\u0e2b\u0e21\u0e49\u0e2d", "name:en": "Trok Mor Morning Market", "opening_hours": "Mo-Su 05:00-10:00"}}, {"type": "node", "id": 12959286769, "lat": 13.7450523, "lon": 100.4910817, "tags": {"amenity": "restaurant", "name": "TYME Restaurant"}}, {"type": "node", "id": 13074420148, "lat": 13.7314204, "lon": 100.4619413, "tags": {"amenity": "school", "name": "\u0e42\u0e23\u0e07\u0e40\u0e23\u0e35\u0e22\u0e19\u0e2a\u0e38\u0e18\u0e23\u0e23\u0e21\u0e28\u0e36\u0e01\u0e29\u0e32", "name:th": "\u0e42\u0e23\u0e07\u0e40\u0e23\u0e35\u0e22\u0e19\u0e2a\u0e38\u0e18\u0e23\u0e23\u0e21\u0e28\u0e36\u0e01\u0e29\u0e32", "religion": "buddhist"}}, {"type": "node", "id": 13243192544, "lat": 13.7128167, "lon": 100.4674531, "tags": {"check_date": "2025-10-18", "name:en": "The Quarter Wutthakat", "tourism": "hotel"}}, {"type": "node", "id": 13247061972, "lat": 13.7132741, "lon": 100.4675217, "tags": {"amenity": "cafe", "brand:wikidata": "Q43247503", "check_date": "2025-10-20", "cuisine": "coffee_shop", "name": "\u0e04\u0e32\u0e40\u0e1f\u0e48 \u0e2d\u0e40\u0e21\u0e0b\u0e2d\u0e19", "name:en": "Caf\u00e9 Amazon"}}, {"type": "node", "id": 13247061973, "lat": 13.7128372, "lon": 100.4673706, "tags": {"amenity": "restaurant", "check_date": "2025-10-21", "cuisine": "steak_house", "name:en": "Steak Factory"}}, {"type": "node", "id": 13247061975, "lat": 13.71286, "lon": 100.4675541, "tags": {"alt_name": "12:30 cafe", "amenity": "cafe", "check_date": "2025-10-21", "name:en": "Thingamabobs cafe"}}, {"type": "node", "id": 13247061977, "lat": 13.7128872, "lon": 100.4672419, "tags": {"amenity": "restaurant", "check_date": "2025-10-21"}}, {"type": "node", "id": 13308023614, "lat": 13.7467945, "lon": 100.4921034, "tags": {"amenity": "cafe", "brand": "\u0e04\u0e32\u0e40\u0e1f\u0e48 \u0e2d\u0e40\u0e21\u0e0b\u0e2d\u0e19", "brand:en": "Caf\u00e9 Amazon", "brand:th": "\u0e04\u0e32\u0e40\u0e1f\u0e48 \u0e2d\u0e40\u0e21\u0e0b\u0e2d\u0e19", "brand:wikidata": "Q43247503", "cuisine": "coffee_shop", "name": "\u0e04\u0e32\u0e40\u0e1f\u0e48 \u0e2d\u0e40\u0e21\u0e0b\u0e2d\u0e19", "name:en": "Caf\u00e9 Amazon", "name:th": "\u0e04\u0e32\u0e40\u0e1f\u0e48 \u0e2d\u0e40\u0e21\u0e0b\u0e2d\u0e19", "takeaway": "yes"}}, {"type": "way", "id": 23481741, "nodes": [11163375433, 11763530238, 13081259611, 254295951, 11163480447, 11163480421, 254295952, 11163375445, 11163691310, 11163375446, 4856285025, 249403543, 11163691309, 4856273236, 254295956, 254295955, 249403539, 254295953, 11163375431, 9416043528, 11163375437, 11163375475, 254301356, 11163375433], "tags": {"addr:city": "\u0e01\u0e23\u0e38\u0e07\u0e40\u0e17\u0e1e\u0e21\u0e2b\u0e32\u0e19\u0e04\u0e23", "addr:country": "TH", "addr:housenumber": "158", "addr:postcode": "10600", "addr:street": "Thanon Wang Doem", "alt_name:de": "Tempel der Morgenr\u00f6te", "alt_name:en": "Temple of the Dawn", "alt_name:ja": "\u30ef\u30c3\u30c8\u30fb\u30a2\u30eb\u30f3\u30e9\u30fc\u30c1\u30e3\u30ef\u30e9\u30fc\u30e9\u30fc\u30e0", "alt_name:ko": "\uc653 \uc544\ub8ec", "alt_name:ru": "\u0425\u0440\u0430\u043c \u0443\u0442\u0440\u0435\u043d\u043d\u0435\u0439 \u0437\u0430\u0440\u0438", "alt_name:th": "\u0e27\u0e31\u0e14\u0e2d\u0e23\u0e38\u0e13;\u0e27\u0e31\u0e14\u0e41\u0e08\u0e49\u0e07", "alt_name:zh": "\u9ece\u660e\u5bfa", "amenity": "place_of_worship", "denomination": "thai_mahanikaya", "landuse": "religious", "name": "\u0e27\u0e31\u0e14\u0e2d\u0e23\u0e38\u0e13", "name:de": "Wat Arun", "name:en": "Wat Arun", "name:es": "Templo del Amanecer", "name:he": "\u05de\u05e7\u05d3\u05e9 \u05d4\u05e9\u05d7\u05e8", "name:ja": "\u30ef\u30c3\u30c8\uff65\u30a2\u30eb\u30f3", "name:ko": "\uc544\ub8ec \uc0ac\uc6d0", "name:nl": "Wat Arun", "name:pt": "Wat Arun", "name:ru": "\u0412\u0430\u0442 \u0410\u0440\u0443\u043d", "name:th": "\u0e27\u0e31\u0e14\u0e2d\u0e23\u0e38\u0e13", "name:vi": "Ch\u00f9a B\u00ecnh Minh - Bangkok", "name:zh": "\u912d\u738b\u5edf", "official_name": "\u0e27\u0e31\u0e14\u0e2d\u0e23\u0e38\u0e13\u0e23\u0e32\u0e0a\u0e27\u0e23\u0e32\u0e23\u0e32\u0e21\u0e23\u0e32\u0e0a\u0e27\u0e23\u0e21\u0e2b\u0e32\u0e27\u0e34\u0e2b\u0e32\u0e23", "official_name:en": "Wat Arun Ratchawararam Ratchaworamahawihan", "official_name:ko": "\uc544\ub8ec \ub78f\ucc28\uc640\ub77c\ub78c \ub78f\ucc28\uc6cc\ub78c\uc544\ub77c\uc704\ud55c \uc0ac\uc6d0", "official_name:th": "\u0e27\u0e31\u0e14\u0e2d\u0e23\u0e38\u0e13\u0e23\u0e32\u0e0a\u0e27\u0e23\u0e32\u0e23\u0e32\u0e21\u0e23\u0e32\u0e0a\u0e27\u0e23\u0e21\u0e2b\u0e32\u0e27\u0e34\u0e2b\u0e32\u0e23", "opening_hours": "Mo-Su 08:30-18:00", "religion": "buddhist", "short_name": "\u0e27\u0e31\u0e14\u0e2d\u0e23\u0e38\u0e13\u0e23\u0e32\u0e0a\u0e27\u0e23\u0e32\u0e23\u0e32\u0e21", "tourism": "attraction", "website": "http://www.bangkok.com/attraction-temple/wat-arun.htm", "wikidata": "Q724970", "wikimedia_commons": "Category:Wat Arun", "wikipedia": "th:\u0e27\u0e31\u0e14\u0e2d\u0e23\u0e38\u0e13\u0e23\u0e32\u0e0a\u0e27\u0e23\u0e32\u0e23\u0e32\u0e21\u0e23\u0e32\u0e0a\u0e27\u0e23\u0e21\u0e2b\u0e32\u0e27\u0e34\u0e2b\u0e32\u0e23", "wikipedia:en": "Wat Arun"}}, {"type": "way", "id": 23482280, "nodes": [254301319, 10560861163, 254301320, 254301321, 10560861173, 254301323, 254301319], "tags": {"amenity": "place_of_worship", "building": "yes", "name": "\u0e42\u0e1a\u0e2a\u0e16\u0e4c\u0e19\u0e49\u0e2d\u0e22", "name:th": "\u0e42\u0e1a\u0e2a\u0e16\u0e4c\u0e19\u0e49\u0e2d\u0e22", "religion": "buddhist"}}, {"type": "way", "id": 23482281, "nodes": [254301327, 10560861174, 254301325, 254301328, 10560861158, 254301324, 254301327], "tags": {"amenity": "place_of_worship", "building": "yes", "name": "\u0e27\u0e34\u0e2b\u0e32\u0e23\u0e19\u0e49\u0e2d\u0e22", "name:en": "Viharn Noi", "name:th": "\u0e27\u0e34\u0e2b\u0e32\u0e23\u0e19\u0e49\u0e2d\u0e22", "religion": "buddhist"}},