{"version": 0.6, "generator": "Overpass API 0.7.62.8 e802775f", "osm3s": {"timestamp_osm_base": "2025-11-20T03:21:27Z", "copyright": "The data included in this document is from www.openstreetmap.org. The data is made available under ODbL."}, "elements": [{"type": "node", "id": 1490308670, "lat": 13.7910655, "lon": 100.6731679, "tags": {"addr:housenumber": "4/226", "addr:postcode": "10240", "addr:street": "Seri Thai 57 Soi 11", "amenity": "restaurant", "cuisine": "japanese;fusion;sushi", "name": "Nakata Sushi"}}, {"type": "node", "id": 1688415187, "lat": 13.7637709, "lon": 100.6768227, "tags": {"amenity": "restaurant", "cuisine": "international", "name": "Daddy Do Lake View", "opening_hours": "Mo-Su 11:00-22:00"}}, {"type": "node", "id": 2131098720, "lat": 13.7710597, "lon": 100.6800997, "tags": {"amenity": "restaurant"}}, {"type": "node", "id": 3222724755, "lat": 13.7971286, "lon": 100.650711, "tags": {"amenity": "restaurant", "capacity": "10", "cuisine": "\u0e2d\u0e32\u0e2b\u0e32\u0e23\u0e15\u0e32\u0e21\u0e2a\u0e31\u0e48\u0e07", "name": "\u0e1b\u0e49\u0e32\u0e2b\u0e19\u0e48\u0e2d\u0e22 \u0e2d\u0e32\u0e2b\u0e32\u0e23\u0e15\u0e32\u0e21\u0e2a\u0e31\u0e48\u0e07", "opening_hours": "\u0e17\u0e38\u0e01\u0e27\u0e31\u0e19 7.00 - 19.00", "smoking": "isolated"}}, {"type": "node", "id": 3222991384, "lat": 13.7976123, "lon": 100.6503366, "tags": {"addr:city": "\u0e01\u0e23\u0e38\u0e07\u0e40\u0e17\u0e1e\u0e21\u0e2b\u0e32\u0e19\u0e04\u0e23", "addr:housenumber": "75/6", "addr:postcode": "10240", "addr:street": "\u0e0b\u0e2d\u0e22\u0e19\u0e27\u0e21\u0e34\u0e19\u0e17\u0e23\u0e4c 52", "amenity": "restaurant", "capacity": "10", "cuisine": "noodle", "name": "\u0e01\u0e4b\u0e27\u0e22\u0e40\u0e15\u0e35\u0e4b\u0e22\u0e27\u0e2d\u0e32\u0e42\u0e01\u0e23\u0e2a\u0e40\u0e14\u0e47\u0e14", "note": "\u0e02\u0e32\u0e22\u0e16\u0e39\u0e01\u0e21\u0e32\u0e01\u0e46 \u0e15\u0e49\u0e2d\u0e07\u0e25\u0e2d\u0e07", "opening_hours": "\u0e08\u0e31\u0e19\u0e17\u0e23\u0e4c - \u0e28\u0e38\u0e01\u0e23\u0e4c 7.00 - 15.00", "phone": "+66802070727", "smoking": "no", "wheelchair": "no"}}, {"type": "node", "id": 3225257517, "lat": 13.7975944, "lon": 100.6503505, "tags": {"amenity": "cafe", "name": "\u0e23\u0e49\u0e32\u0e19\u0e01\u0e32\u0e41\u0e1f\u0e40\u0e1e\u0e47\u0e0d"}}, {"type": "node", "id": 3225258039, "lat": 13.7975918, "lon": 100.6502841, "tags": {"amenity": "restaurant", "name": "\u0e23\u0e49\u0e32\u0e19\u0e02\u0e32\u0e22\u0e2d\u0e32\u0e2b\u0e32\u0e23\u0e15\u0e32\u0e21\u0e2a\u0e31\u0e48\u0e07"}}, {"type": "node", "id": 3488544761, "lat": 13.7757236, "lon": 100.6689981, "tags": {"amenity": "cafe", "brand": "Starbucks", "brand:wikidata": "Q37158", "cuisine": "coffee_shop", "name": "Starbucks", "name:en": "Starbucks", "official_name": "Starbucks Coffee", "takeaway": "yes", "website": "www.starbuckscard.in.th"}}, {"type": "node", "id": 3488544762, "lat": 13.7763096, "lon": 100.6735285, "tags": {"amenity": "cafe", "brand": "Starbucks", "brand:wikidata": "Q37158", "cuisine": "coffee_shop", "name": "Starbucks", "name:en": "Starbucks", "official_name": "Starbucks Coffee", "takeaway": "yes", "website": "www.starbuckscard.in.th"}}, {"type": "node", "id": 4122563741, "lat": 13.7721147, "lon": 100.6595461, "tags": {"amenity": "restaurant", "cuisine": "regional"}}, {"type": "node", "id": 4333980589, "lat": 13.7649576, "lon": 100.6523946, "tags": {"name": "Airplane Graveyard", "tourism": "attraction", "website": "https://airplanegraveyardbangkok.com/"}}, {"type": "node", "id": 4550429179, "lat": 13.7765377, "lon": 100.6758617, "tags": {"amenity": "restaurant", "level": "0", "name": "Murrah House", "outdoor_seating": "yes", "smoking": "outside", "takeaway": "yes"}}, {"type": "node", "id": 4574236990, "lat": 13.7659004, "lon": 100.6534926, "tags": {"addr:street": "\u0e16\u0e19\u0e19\u0e23\u0e32\u0e21\u0e04\u0e33\u0e41\u0e2b\u0e07", "name": "\u0e2b\u0e49\u0e2d\u0e07\u0e19\u0e2d\u0e19\u0e41\u0e2d\u0e19\u0e15\u0e35\u0e49\u0e01\u0e31\u0e1a\u0e41\u0e2a\u0e15\u0e21\u0e1b\u0e4c", "name:th": "\u0e2b\u0e49\u0e2d\u0e07\u0e19\u0e2d\u0e19\u0e41\u0e2d\u0e19\u0e15\u0e35\u0e49\u0e01\u0e31\u0e1a\u0e41\u0e2a\u0e15\u0e21\u0e1b\u0e4c", "tourism": "hostel"}}, {"type": "node", "id": 4574256589, "lat": 13.7659212, "lon": 100.6535068, "tags": {"addr:street": "\u0e16\u0e19\u0e19\u0e23\u0e32\u0e21\u0e04\u0e33\u0e41\u0e2b\u0e07", "name": "\u0e2b\u0e49\u0e2d\u0e07\u0e19\u0e2d\u0e19\u0e41\u0e2d\u0e19\u0e15\u0e35\u0e49\u0e01\u0e31\u0e1a\u0e41\u0e2a\u0e04\u0e21\u0e1b\u0e4c", "name:th": "\u0e2b\u0e49\u0e2d\u0e07\u0e19\u0e2d\u0e19\u0e41\u0e2d\u0e19\u0e15\u0e35\u0e49\u0e01\u0e31\u0e1a\u0e41\u0e2a\u0e04\u0e21\u0e1b\u0e4c", "tourism": "hostel"}}, {"type": "node", "id": 4693387996, "lat": 13.7725912, "lon": 100.6588626, "tags": {"amenity": "place_of_worship", "denomination": "thai_mahanikaya", "name": "\u0e27\u0e31\u0e14\u0e1e\u0e34\u0e0a\u0e31\u0e22", "name:en": "Wat Phichai", "name:th": "\u0e27\u0e31\u0e14\u0e1e\u0e34\u0e0a\u0e31\u0e22", "religion": "buddhist", "wikidata": "Q99542757", "wikipedia": "th:\u0e27\u0e31\u0e14\u0e1e\u0e34\u0e0a\u0e31\u0e22 (\u0e01\u0e23\u0e38\u0e07\u0e40\u0e17\u0e1e\u0e21\u0e2b\u0e32\u0e19\u0e04\u0e23)"}}, {"type": "node", "id": 4706970089, "lat": 13.7838684, "lon": 100.6682268, "tags": {"amenity": "cafe"}}, {"type": "node", "id": 4781228523, "lat": 13.7799437, "lon": 100.6507738, "tags": {"amenity": "cafe"}}, {"type": "node", "id": 4793291808, "lat": 13.7708223, "lon": 100.6567937, "tags": {"denomination": "theravada", "historic": "wayside_shrine", "name": "Poonsin Wayside Shrine", "name:th": "\u0e28\u0e32\u0e25\u0e1e\u0e23\u0e30\u0e1e\u0e23\u0e2b\u0e21"}}, {"type": "node", "id": 4793381535, "lat": 13.7696726, "lon": 100.6621777, "tags": {"amenity": "cafe", "brand": "\u0e04\u0e32\u0e40\u0e1f\u0e48 \u0e2d\u0e40\u0e21\u0e0b\u0e2d\u0e19", "brand:en": "Caf\u00e9 Amazon", "brand:th": "\u0e04\u0e32\u0e40\u0e1f\u0e48 \u0e2d\u0e40\u0e21\u0e0b\u0e2d\u0e19", "brand:wikidata": "Q43247503", "cuisine": "coffee_shop", "name": "\u0e04\u0e32\u0e40\u0e1f\u0e48 \u0e2d\u0e40\u0e21\u0e0b\u0e2d\u0e19", "name:en": "Caf\u00e9 Amazon", "name:th": "\u0e04\u0e32\u0e40\u0e1f\u0e48 \u0e2d\u0e40\u0e21\u0e0b\u0e2d\u0e19", "opening_hours": "06:00-21:00", "takeaway": "yes"}}, {"type": "node", "id": 4798111958, "lat": 13.7704642, "lon": 100.6585737, "tags": {"amenity": "restaurant", "name": "MK Restaurant", "name:th": "\u0e40\u0e2d\u0e47\u0e21\u0e40\u0e04 \u0e2a\u0e38\u0e01\u0e35\u0e49"}}, {"type": "node", "id": 4807927441, "lat": 13.7681681, "lon": 100.6588772, "tags": {"historic": "wayside_shrine"}}, {"type": "node", "id": 4807927442, "lat": 13.7694128, "lon": 100.6602801, "tags": {"historic": "wayside_shrine"}}, {"type": "node", "id": 4861043541, "lat": 13.7906674, "lon": 100.6733782, "tags": {"amenity": "cafe", "name": "The Nine Corner"}}, {"type": "node", "id": 5566900321, "lat": 13.7665459, "lon": 100.6509642, "tags": {"name:fr": "Acc\u00e8s aux avions (50 bahts au SDF sur les lieux pas plus)", "opening_hours": "24/7", "tourism": "attraction"}}, {"type": "node", "id": 5976025285, "lat": 13.7691323, "lon": 100.6773371, "tags": {"amenity": "restaurant", "name": "Maan Muang"}}, {"type": "node", "id": 6089229320, "lat": 13.7703722, "lon": 100.6544291, "tags": {"amenity": "restaurant", "cuisine": "coffee_shop;thai", "name": "\u0e42\u0e23\u0e07\u0e2d\u0e32\u0e2b\u0e32\u0e23"}}, {"type": "node", "id": 6089230396, "lat": 13.770008, "lon": 100.6523302, "tags": {"amenity": "cafe", "name": "Bangkapi Coffee & Me"}}, {"type": "node", "id": 6089234858, "lat": 13.7717498, "lon": 100.65413, "tags": {"leisure": "park", "name": "\u0e15\u0e32\u0e15\u0e49\u0e32\u0e40\u0e2d\u0e07"}}, {"type": "node", "id": 6872571337, "lat": 13.7754894, "lon": 100.6689221, "tags": {"amenity": "restaurant", "cuisine": "international;cafe", "name": "S&P"}}, {"type": "node", "id": 6959377850, "lat": 13.7689001, "lon": 100.6545996, "tags": {"amenity": "cafe", "cuisine": "coffee_shop", "name": "\u0e04\u0e32\u0e40\u0e1f\u0e48\u0e19\u0e34\u0e14\u0e49\u0e32"}}, {"type": "node", "id": 10250021027, "lat": 13.7904656, "lon": 100.6789536, "tags": {"amenity": "cafe", "name": "Once Upon a Tree Cafe"}}, {"type": "node", "id": 10289591715, "lat": 13.7807463, "lon": 100.6686478, "tags": {"amenity": "cafe", "name": "Deli Cafe"}}, {"type": "node", "id": 10296207949, "lat": 13.7877015, "lon": 100.6785394, "tags": {"amenity": "restaurant", "cuisine": "asian", "name": "\u0e27\u0e23\u0e32\u0e20\u0e23\u0e13\u0e4c \u0e0b\u0e32\u0e25\u0e32\u0e40\u0e1b\u0e32"}}, {"type": "node", "id": 10296207962, "lat": 13.7875211, "lon": 100.6781252, "tags": {"amenity": "restaurant", "name": "Black Canyon"}}, {"type": "node", "id": 10296207966, "lat": 13.7883199, "lon": 100.677891, "tags": {"artwork_type": "statue", "name": "PTT Statue", "tourism": "artwork"}}, {"type": "node", "id": 10296253500, "lat": 13.7911707, "lon": 100.6731492, "tags": {"amenity": "cafe", "name": "Coffee Bee"}}, {"type": "node", "id": 10296253501, "lat": 13.7913004, "lon": 100.6730069, "tags": {"amenity": "cafe", "name": "Me-D Coffee"}}, {"type": "node", "id": 10297904770, "lat": 13.786719, "lon": 100.6750212, "tags": {"amenity": "cafe", "name": "Marmo Nero"}}, {"type": "node", "id": 12279532655, "lat": 13.7572554, "lon": 100.696533, "tags": {"alt_name": "\u0e27\u0e31\u0e14\u0e23\u0e32\u0e0a\u0e42\u0e22\u0e18\u0e32", "alt_name:en": "Wat Ratchayotha", "alt_name:th": "\u0e27\u0e31\u0e14\u0e23\u0e32\u0e0a\u0e42\u0e22\u0e18\u0e32", "amenity": "place_of_worship", "denomination": "thai_mahanikaya", "name": "\u0e27\u0e31\u0e14\u0e25\u0e32\u0e14\u0e1a\u0e31\u0e27\u0e02\u0e32\u0e27", "name:en": "Wat Lat Bua Khao", "name:th": "\u0e27\u0e31\u0e14\u0e25\u0e32\u0e14\u0e1a\u0e31\u0e27\u0e02\u0e32\u0e27", "religion": "buddhist", "wikidata": "Q99373472", "wikipedia": "th:\u0e27\u0e31\u0e14\u0e25\u0e32\u0e14\u0e1a\u0e31\u0e27\u0e02\u0e32\u0e27 (\u0e23\u0e32\u0e0a\u0e42\u0e22\u0e18\u0e32)"}}, {"type": "node", "id": 12506419405, "lat": 13.7888371, "lon": 100.6955842, "tags": {"amenity": "cafe"}}, {"type": "node", "id": 12506419701, "lat": 13.7898136, "lon": 100.6962686, "tags": {"amenity": "cafe"}}, {"type": "node", "id": 12506419702, "lat": 13.7882836, "lon": 100.6945498, "tags": {"amenity": "cafe", "name": "Kin-ni Dee"}}, {"type": "node", "id": 12506479101, "lat": 13.7882492, "lon": 100.6923896, "tags": {"amenity": "cafe"}}, {"type": "node", "id": 12506853803, "lat": 13.7734093, "lon": 100.6538793, "tags": {"historic": "wayside_shrine"}}, {"type": "node", "id": 12506856505, "lat": 13.7739966, "lon": 100.6506236, "tags": {"amenity": "cafe"}}, {"type": "node", "id": 12506856602, "lat": 13.7732603, "lon": 100.6539371, "tags": {"amenity": "cafe"}}, {"type": "node", "id": 12506856603, "lat": 13.7732011, "lon": 100.6536876, "tags": {"amenity": "cafe"}}, {"type": "node", "id": 12506856604, "lat": 13.7730846, "lon": 100.6532294, "tags": {"amenity": "cafe"}}, {"type": "node", "id": 12506856606, "lat": 13.7732825, "lon": 100.6509875, "tags": {"amenity": "cafe"}}, {"type": "node", "id": 12506856702, "lat": 13.773092, "lon": 100.6512872, "tags": {"amenity": "cafe"}}, {"type": "node", "id": 12508922101, "lat": 13.7806121, "lon": 100.6746303, "tags": {"amenity": "cafe", "name": "Tuen Ma Chong", "opening_hours": "Tu-Fr 14:00-22:00; Sa-Su 08:00-22:00"}}, {"type": "node", "id": 12508970901, "lat": 13.7838726, "lon": 100.6736072, "tags": {"amenity": "cafe"}}, {"type": "node", "id": 12508983801, "lat": 13.7851261, "lon": 100.6737845, "tags": {"amenity": "cafe"}}, {"type": "node", "id": 12509050304, "lat": 13.7898886, "lon": 100.6734079, "tags": {"amenity": "cafe"}}, {"type": "node", "id": 12509050305, "lat": 13.7902689, "lon": 100.6733639, "tags": {"amenity": "cafe"}}, {"type": "node", "id": 12509057001, "lat": 13.7924158, "lon": 100.6719135, "tags": {"amenity": "cafe"}}, {"type": "node", "id": 12509160301, "lat": 13.7868503, "lon": 100.6748597, "tags": {"amenity": "cafe"}}, {"type": "node", "id": 12520485801, "lat": 13.7866802, "lon": 100.6861586, "tags": {"amenity": "cafe", "name": "Indy Rest"}}, {"type": "node", "id": 12606896301, "lat": 13.7708191, "lon": 100.6793846, "tags": {"historic": "wayside_shrine"}}, {"type": "node", "id": 12606896302, "lat": 13.7718503, "lon": 100.6810464, "tags": {"amenity": "cafe"}}, {"type": "node", "id": 12606912702, "lat": 13.7751205, "lon": 100.6763553, "tags": {"amenity": "cafe"}}, {"type": "node", "id": 12615322101, "lat": 13.7814366, "lon": 100.6694265, "tags": {"amenity": "cafe", "name": "Amazon"}}, {"type": "node", "id": 12615353701, "lat": 13.7826333, "lon": 100.6684139, "tags": {"amenity": "cafe"}}, {"type": "node", "id": 12615425801, "lat": 13.7827988, "lon": 100.6723874, "tags": {"amenity": "cafe"}}, {"type": "node", "id": 12615446301, "lat": 13.7809173, "lon": 100.6700859, "tags": {"amenity": "cafe"}}, {"type": "node", "id": 12618164702, "lat": 13.7771748, "lon": 100.6723852, "tags": {"amenity": "cafe", "name": "Song Heng"}}, {"type": "node", "id": 12618164802, "lat": 13.7771678, "lon": 100.6723977, "tags": {"amenity": "cafe", "name": "Chaixi Plus"}}, {"type": "node", "id": 12618165002, "lat": 13.7773596, "lon": 100.6724677, "tags": {"amenity": "cafe", "name": "Amazon"}}, {"type": "node", "id": 12618165201, "lat": 13.7772215, "lon": 100.6726569, "tags": {"amenity": "cafe"}}, {"type": "node", "id": 12618166702, "lat": 13.7771467, "lon": 100.6727329, "tags": {"amenity": "cafe", "cuisine": "korean", "name": "Kao Kao"}}, {"type": "node", "id": 12618240201, "lat": 13.774139, "lon": 100.6672148, "tags": {"amenity": "cafe", "brand": "Starbucks", "brand:wikidata": "Q37158", "cuisine": "coffee_shop", "name": "Starbucks", "official_name": "Starbucks Coffee", "shop": "coffee", "takeaway": "yes"}}, {"type": "node", "id": 12635327534, "lat": 13.7829325, "lon": 100.6704067, "tags": {"artwork_type": "sculpture", "tourism": "artwork"}}, {"type": "node", "id": 12635327537, "lat": 13.7831827, "lon": 100.6705583, "tags": {"tourism": "artwork"}}, {"type": "node", "id": 13063075999, "lat": 13.7579661, "lon": 100.6699061, "tags": {"air_conditioning": "yes", "amenity": "restaurant", "check_date": "2025-08-11", "cuisine": "coffee_shop;thai;italian;pizza;ice_cream;dessert;cake;pasta;salad", "diet:halal": "yes", "name": "Seven Sisters Home Cafe & Halal Cuisine", "opening_hours": "06:30-20:00", "outdoor_seating": "yes", "reservation": "yes", "takeaway": "yes", "wheelchair": "limited"}}, {"type": "node", "id": 13116620791, "lat": 13.7563401, "lon": 100.6514266, "tags": {"historic": "wayside_shrine"}}, {"type": "way", "id": 56297939, "nodes": [706209243, 5365898099, 5365898100, 5365898101, 5365898098, 5365898102, 5370371636, 706209284, 5365898103, 706209295, 5362981298, 5908018607, 706209299, 5908018608, 706209342, 1696386250, 706209352, 706209353, 706209427, 5369358096, 5915491470, 5915491467, 706209449, 5915491468, 5915491469, 706209445, 706209420, 706209378, 706209363, 5369645421, 5365872785, 5365872788, 5371338388, 5365872786, 5365872787, 5365872783, 5369645422, 5369645423, 5365872784, 706209362, 706209364, 706209279, 706209280, 5453060762, 706209281, 706209264, 5373678837, 706209258, 5362981297, 706209255, 706209250, 706209251, 706209252, 5362981295, 706209253, 5362981294, 5373678840, 5362981293, 5362981292, 5362981291, 5362981296, 5362981290, 5373678842, 706209243], "tags": {"addr:street": "\u0e16\u0e19\u0e19\u0e40\u0e2a\u0e23\u0e35\u0e44\u0e17\u0e22", "leisure": "park", "name": "\u0e2a\u0e27\u0e19\u0e40\u0e2a\u0e23\u0e35\u0e44\u0e17\u0e22", "name:en": "Seri Thai Park", "name:th": "\u0e2a\u0e27\u0e19\u0e40\u0e2a\u0e23\u0e35\u0e44\u0e17\u0e22", "opening_hours": "Mo-Su 05:00-21:00", "website": "http://203.155.220.217/office/ppdd/publicpark/thai/2011/park04.asp", "wikidata": "Q13022387", "wikimedia_commons": "Category:Seri Thai Park"}}, {"type": "way", "id": 207441272, "nodes": [2176952156, 11966247716, 2176952165, 2176952181, 2176952198, 2176952243, 2176952241, 2176952245, 2176952244, 350370157, 2176952219, 2176952221, 2176952213, 2176952187, 2176952097, 2176952091, 2176952075, 2176952025, 2176951953, 2176951947, 2176951911, 2176951907, 2176951856, 2176951855, 2176951859, 11256997557, 11256997556, 2176951863, 2176951900, 11256997561, 2176951922, 11256997560, 2176951960, 2176951979, 2176951986, 2176951987, 2176951988, 2176951998, 2176952006, 2176952034, 2176952065, 2176952085, 2176952100, 2176952103, 2176952105, 2176952108, 2176952125, 2176952127, 2176952129, 11966247715, 2176952133, 2176952140, 2176952156], "tags": {"leisure": "park", "name": "\u0e2a\u0e27\u0e19\u0e19\u0e27\u0e21\u0e34\u0e19\u0e17\u0e23\u0e4c\u0e20\u0e34\u0e23\u0e21\u0e22\u0e4c"}}, {"type": "way", "id": 316164903, "nodes": [3222787720, 3222787721, 3222787722, 3222787723, 3222787737, 3222787720], "tags": {"addr:district": "\u0e1a\u0e36\u0e07\u0e01\u0e38\u0e48\u0e21", "addr:postcode": "10240", "addr:province": "\u0e01\u0e23\u0e38\u0e07\u0e40\u0e17\u0e1e\u0e21\u0e2b\u0e32\u0e19\u0e04\u0e23", "addr:subdistrict": "\u0e04\u0e25\u0e2d\u0e07\u0e01\u0e38\u0e48\u0e21", "amenity": "place_of_worship", "building": "yes", "name": "\u0e1e\u0e38\u0e17\u0e18\u0e2a\u0e16\u0e32\u0e19\u0e2a\u0e31\u0e19\u0e15\u0e34\u0e2d\u0e42\u0e28\u0e01", "religion": "buddhist"}}, {"type": "way", "id": 316190224, "nodes": [3223022516, 3223024859, 3223024860, 3223022517, 3223022516], "tags": {"addr:district": "\u0e1a\u0e36\u0e07\u0e01\u0e38\u0e48\u0e21", "addr:postcode": "10240", "addr:province": "\u0e01\u0e23\u0e38\u0e07\u0e40\u0e17\u0e1e\u0e21\u0e2b\u0e32\u0e19\u0e04\u0e23", "addr:subdistrict": "\u0e04\u0e25\u0e2d\u0e07\u0e01\u0e38\u0e48\u0e21", "amenity": "restaurant", "building": "yes", "name": "\u0e23\u0e49\u0e32\u0e19\u0e2b\u0e31\u0e27\u0e43\u0e08\u0e21\u0e31\u0e07\u0e2a\u0e27\u0e34\u0e23\u0e31\u0e15\u0e34", "smoking": "no"}}, {"type": "way", "id": 316190545, "nodes": [3222990356, 3223027357, 3223027358, 3222990357, 3222990356], "tags": {"addr:district": "\u0e1a\u0e36\u0e07\u0e01\u0e38\u0e48\u0e21", "addr:postcode": "10240", "addr:province": "\u0e01\u0e23\u0e38\u0e07\u0e40\u0e17\u0e1e\u0e21\u0e2b\u0e32\u0e19\u0e04\u0e23", "addr:subdistrict": "\u0e04\u0e25\u0e2d\u0e07\u0e01\u0e38\u0e48\u0e21", "amenity": "cafe", "building": "yes", "name": "Love Coffe", "smoking": "no"}}, {"type": "way", "id": 316417663, "nodes": [3223036469, 3225269378, 3225269379, 3223031949, 3223036469], "tags": {"amenity": "restaurant", "building": "yes", "layer": "1", "name": "\u0e01\u0e4b\u0e27\u0e22\u0e40\u0e15\u0e35\u0e4b\u0e22\u0e27\u0e25\u0e39\u0e01\u0e0a\u0e34\u0e49\u0e19\u0e1b\u0e25\u0e32\u0e19\u0e32\u0e22\u0e42\u0e2a\u0e48\u0e22"}}, {"type": "way", "id": 316420741, "nodes": [7941173961, 3225298624, 3225298625, 3225298626, 3225298627, 3225295399, 7941173961], "tags": {"amenity": "marketplace", "building": "yes", "name": "\u0e15\u0e25\u0e32\u0e14\u0e2d\u0e34\u0e19\u0e17\u0e23\u0e32\u0e23\u0e31\u0e01\u0e29\u0e4c"}}, {"type": "way", "id": 390667188, "nodes": [2356833146, 3938258728, 3938258726, 3938258725, 3938258724, 3938258727, 6364373569, 2356833202, 2902806804, 2356833146], "tags": {"amenity": "place_of_worship", "denomination": "thai_mahanikaya", "name": "\u0e27\u0e31\u0e14\u0e28\u0e23\u0e35\u0e1a\u0e38\u0e0d\u0e40\u0e23\u0e37\u0e2d\u0e07", "name:en": "Wat Sri Bun Rueang", "name:th": "\u0e27\u0e31\u0e14\u0e28\u0e23\u0e35\u0e1a\u0e38\u0e0d\u0e40\u0e23\u0e37\u0e2d\u0e07", "old_name": "\u0e27\u0e31\u0e14\u0e17\u0e33\u0e19\u0e1a", "religion": "buddhist", "wikidata": "Q16004371", "wikimedia_commons": "Category:Wat Si Bun Rueang, Bangkok", "wikipedia": "th:\u0e27\u0e31\u0e14\u0e28\u0e23\u0e35\u0e1a\u0e38\u0e0d\u0e40\u0e23\u0e37\u0e2d\u0e07 (\u0e01\u0e23\u0e38\u0e07\u0e40\u0e17\u0e1e\u0e21\u0e2b\u0e32\u0e19\u0e04\u0e23)"}}, {"type": "way", "id": 487320639, "nodes": [4798036884, 4798036885, 4798036886, 4798036887, 8348469640, 4798036888, 4798036889, 4798036890, 4798036891, 4798036892, 4798036893, 4798036894, 4798036895, 4798036896, 4798036897, 4798036884], "tags": {"leisure": "park", "name": "Poonsin Garden", "name:th": "\u0e2a\u0e27\u0e19\u0e2b\u0e22\u0e48\u0e2d\u0e21\u0e1e\u0e39\u0e19\u0e2a\u0e34\u0e19"}}, {"type": "way", "id": 555932084, "nodes": [5363098695, 5363098696, 9605119154, 5363098700, 5363098697, 5363098698, 9605119153, 5363098699, 5363098695], "tags": {"leisure": "park", "name": "\u0e2a\u0e27\u0e19\u0e1b\u0e0f\u0e34\u0e1a\u0e31\u0e15\u0e34\u0e18\u0e23\u0e23\u0e21"}}, {"type": "way", "id": 556614365, "nodes": [5369289840, 5369289841, 5575436824, 5369289842, 5369289843, 5369289844, 5369289845, 5369289846, 5906249252, 5369289847, 5369289848, 5369289840], "tags": {"leisure": "park"}}, {"type": "way", "id": 556775866, "nodes": [5370488675, 5370488676, 5370488677, 5370488678, 5370488675], "tags": {"addr:district": "\u0e1a\u0e36\u0e07\u0e01\u0e38\u0e48\u0e21", "addr:postcode": "10240", "addr:province": "\u0e01\u0e23\u0e38\u0e07\u0e40\u0e17\u0e1e\u0e21\u0e2b\u0e32\u0e19\u0e04\u0e23", "addr:subdistrict": "\u0e04\u0e25\u0e2d\u0e07\u0e01\u0e38\u0e48\u0e21", "amenity": "place_of_worship", "building": "yes", "name": "\u0e28\u0e32\u0e25\u0e1e\u0e23\u0e30\u0e1e\u0e23\u0e2b\u0e21", "religion": "buddhist"}}, {"type": "way", "id": 556777287, "nodes": [5370500154, 5370500155, 5370500159, 5370500157, 5370500158, 5370500156, 5370500154], "tags": {"amenity": "marketplace", "name": "\u0e15\u0e25\u0e32\u0e14\u0e19\u0e31\u0e14\u0e2b\u0e21\u0e39\u0e48\u0e1a\u0e49\u0e32\u0e19\u0e40\u0e2d\u0e37\u0e49\u0e2d\u0e2d\u0e32\u0e17\u0e23"}}, {"type": "way", "id": 556871177, "nodes": [5371366138, 5371366139, 5371366140, 5371366141, 5371366138], "tags": {"addr:district": "\u0e1a\u0e36\u0e07\u0e01\u0e38\u0e48\u0e21", "addr:postcode": "10240", "addr:province": "\u0e01\u0e23\u0e38\u0e07\u0e40\u0e17\u0e1e\u0e21\u0e2b\u0e32\u0e19\u0e04\u0e23", "addr:subdistrict": "\u0e04\u0e25\u0e2d\u0e07\u0e01\u0e38\u0e48\u0e21", "amenity": "marketplace", "building": "yes"}}, {"type": "way", "id": 556871178, "nodes": [5371366142, 5371366143, 5371366144, 5371366145, 5371366146, 5371366147, 5371366142], "tags": {"leisure": "park"}}, {"type": "way", "id": 556963999, "nodes": [5372121728, 5374046854, 5372121729, 5372121730, 5372121731, 5374046855, 5372121728], "tags": {"addr:district": "\u0e1a\u0e36\u0e07\u0e01\u0e38\u0e48\u0e21", "addr:postcode": "10240", "addr:province": "\u0e01\u0e23\u0e38\u0e07\u0e40\u0e17\u0e1e\u0e21\u0e2b\u0e32\u0e19\u0e04\u0e23", "addr:subdistrict": "\u0e04\u0e25\u0e2d\u0e07\u0e01\u0e38\u0e48\u0e21", "amenity": "restaurant", "building": "yes", "name": "\u0e40\u0e1b\u0e49\u0e42\u0e20\u0e0a\u0e19\u0e32"}}, {"type": "way", "id": 556966110, "nodes": [5372135247, 5372135248, 5372135249, 5372135250, 5372135247], "tags": {"amenity": "marketplace"}}, {"type": "way", "id": 557186671, "nodes": [5374046842, 5374046843, 5374046844, 5374046845, 5374046846, 5374046847, 5374046848, 5374046849, 5374046850, 5374046851, 5374046842], "tags": {"addr:district": "\u0e1a\u0e36\u0e07\u0e01\u0e38\u0e48\u0e21", "addr:postcode": "10240", "addr:province": "\u0e01\u0e23\u0e38\u0e07\u0e40\u0e17\u0e1e\u0e21\u0e2b\u0e32\u0e19\u0e04\u0e23", "addr:subdistrict": "\u0e04\u0e25\u0e2d\u0e07\u0e01\u0e38\u0e48\u0e21", "amenity": "restaurant", "building": "yes", "name": "\u0e27\u0e34\u0e42\u0e23\u0e08\u0e19\u0e4c\u0e01\u0e4b\u0e27\u0e22\u0e40\u0e15\u0e35\u0e4b\u0e22\u0e27\u0e40\u0e23\u0e37\u0e2d,\u0e23\u0e49\u0e32\u0e19\u0e27\u0e34\u0e42\u0e23\u0e08\u0e19\u0e4c\u0e42\u0e20\u0e0a\u0e19\u0e32\u0e2b\u0e21\u0e39\u0e48\u0e1a\u0e49\u0e32\u0e19\u0e2a\u0e2b\u0e01\u0e23\u0e13\u0e4c"}}, {"type": "way", "id": 557316380, "nodes": [5375086328, 5375086329, 5375086330, 5375086331, 5375086332, 5375086328], "tags": {"amenity": "marketplace"}}, {"type": "way", "id": 558251517, "nodes": [5382939025, 5382939026, 5382939027, 5382939028, 5382939029, 5382939030, 5382939025], "tags": {"addr:district": "\u0e1a\u0e36\u0e07\u0e01\u0e38\u0e48\u0e21", "addr:postcode": "10240", "addr:province": "\u0e01\u0e23\u0e38\u0e07\u0e40\u0e17\u0e1e\u0e21\u0e2b\u0e32\u0e19\u0e04\u0e23", "addr:subdistrict": "\u0e04\u0e25\u0e2d\u0e07\u0e01\u0e38\u0e48\u0e21", "amenity": "restaurant", "building": "yes"}}, {"type": "way", "id": 558251518, "nodes": [5382939031, 5382939032, 5382939033, 5382939034, 5382939031], "tags": {"addr:district": "\u0e1a\u0e36\u0e07\u0e01\u0e38\u0e48\u0e21", "addr:postcode": "10240", "addr:province": "\u0e01\u0e23\u0e38\u0e07\u0e40\u0e17\u0e1e\u0e21\u0e2b\u0e32\u0e19\u0e04\u0e23", "addr:subdistrict": "\u0e04\u0e25\u0e2d\u0e07\u0e01\u0e38\u0e48\u0e21", "amenity": "restaurant", "building": "yes", "name": "\u0e2d\u0e35\u0e2a\u0e32\u0e19\u0e42\u0e20\u0e0a\u0e19\u0e32"}}, {"type": "way", "id": 558449325, "nodes": [5385294853, 5385294854, 5385294855, 5385294856, 5385294853], "tags": {"addr:district": "\u0e1a\u0e36\u0e07\u0e01\u0e38\u0e48\u0e21", "addr:postcode": "10240", "addr:province": "\u0e01\u0e23\u0e38\u0e07\u0e40\u0e17\u0e1e\u0e21\u0e2b\u0e32\u0e19\u0e04\u0e23", "addr:subdistrict": "\u0e04\u0e25\u0e2d\u0e07\u0e01\u0e38\u0e48\u0e21", "amenity": "restaurant", "building": "yes", "name": "Noodles & Company"}}, {"type": "way", "id": 559372340, "nodes": [5395241961, 5395241962, 5395241963, 5395241964, 5395241961], "tags": {"addr:district": "\u0e1a\u0e36\u0e07\u0e01\u0e38\u0e48\u0e21", "addr:postcode": "10240", "addr:province": "\u0e01\u0e23\u0e38\u0e07\u0e40\u0e17\u0e1e\u0e21\u0e2b\u0e32\u0e19\u0e04\u0e23", "addr:subdistrict": "\u0e04\u0e25\u0e2d\u0e07\u0e01\u0e38\u0e48\u0e21", "building": "yes", "tourism": "apartment"}}, {"type": "way", "id": 562648333, "nodes": [5423926348, 5423926349, 5423926350, 5423926351, 5423926348], "tags": {"addr:district": "\u0e1a\u0e36\u0e07\u0e01\u0e38\u0e48\u0e21", "addr:postcode": "10240", "addr:province": "\u0e01\u0e23\u0e38\u0e07\u0e40\u0e17\u0e1e\u0e21\u0e2b\u0e32\u0e19\u0e04\u0e23", "addr:subdistrict": "\u0e04\u0e25\u0e2d\u0e07\u0e01\u0e38\u0e48\u0e21", "amenity": "cafe", "building": "yes", "name": "Meeboon eatery"}}, {"type": "way", "id": 594043013, "nodes": [1696386009, 5665622839, 5665622840, 5665622841, 1696386009], "tags": {"leisure": "park"}}, {"type": "way", "id": 625892047, "nodes": [5909268414, 5909268415, 5909268416, 5909268417, 5909268414], "tags": {"addr:district": "\u0e04\u0e31\u0e19\u0e19\u0e32\u0e22\u0e32\u0e27", "addr:postcode": "10230", "addr:province": "\u0e01\u0e23\u0e38\u0e07\u0e40\u0e17\u0e1e\u0e21\u0e2b\u0e32\u0e19\u0e04\u0e23", "addr:subdistrict": "\u0e23\u0e32\u0e21\u0e2d\u0e34\u0e19\u0e17\u0e23\u0e32", "amenity": "restaurant", "building": "yes", "cuisine": "thai;seafood", "name": "\u0e04\u0e23\u0e31\u0e27\u0e2b\u0e19\u0e31\u0e07\u0e15\u0e30\u0e25\u0e38\u0e07 \u0e0a\u0e21\u0e08\u0e31\u0e19\u0e17\u0e23\u0e4c \u0e0b\u0e35\u0e1f\u0e39\u0e4a\u0e14"}}, {"type": "way", "id": 626652154, "nodes": [5915974155, 5915974156, 5915974157, 5915974158, 5915974159, 5915974160, 5915974155], "tags": {"addr:district": "\u0e04\u0e31\u0e19\u0e19\u0e32\u0e22\u0e32\u0e27", "addr:postcode": "10230", "addr:province": "\u0e01\u0e23\u0e38\u0e07\u0e40\u0e17\u0e1e\u0e21\u0e2b\u0e32\u0e19\u0e04\u0e23", "addr:subdistrict": "\u0e04\u0e31\u0e19\u0e19\u0e32\u0e22\u0e32\u0e27", "amenity": "place_of_worship", "building": "yes", "religion": "buddhist"}}, {"type": "way", "id": 641762607, "nodes": [6043192383, 6043192384, 6043199085, 6043199086, 6043192382, 6043192383], "tags": {"addr:district": "\u0e1a\u0e32\u0e07\u0e01\u0e30\u0e1b\u0e34", "addr:postcode": "10240", "addr:province": "\u0e01\u0e23\u0e38\u0e07\u0e40\u0e17\u0e1e\u0e21\u0e2b\u0e32\u0e19\u0e04\u0e23", "addr:subdistrict": "\u0e04\u0e25\u0e2d\u0e07\u0e08\u0e31\u0e48\u0e19", "amenity": "cafe", "building": "yes", "name": "\u0e23\u0e49\u0e32\u0e19\u0e01\u0e32\u0e41\u0e1f"}}, {"type": "way", "id": 648623730, "nodes": [6089230390, 6089230391, 6089230392, 6089230393, 6089230390], "tags": {"leisure": "park", "name": "Nulek Park"}}, {"type": "way", "id": 711245105, "nodes": [6687167033, 6687167034, 6687167035, 6687167036, 6687167037, 6687167038, 6687167033], "tags": {"addr:district": "\u0e1a\u0e32\u0e07\u0e01\u0e30\u0e1b\u0e34", "addr:postcode": "10240", "addr:province": "\u0e01\u0e23\u0e38\u0e07\u0e40\u0e17\u0e1e\u0e21\u0e2b\u0e32\u0e19\u0e04\u0e23", "addr:street": "Ramkhamhaeng 119", "addr:subdistrict": "\u0e2b\u0e31\u0e27\u0e2b\u0e21\u0e32\u0e01", "amenity": "restaurant", "building": "yes", "name": "RAISSTA"}}, {"type": "way", "id": 766507129, "nodes": [7158945128, 3535460615, 3535460610, 3535460609, 3535460608, 7158945129, 7158945130, 7158945131, 7158945132, 1825011932, 1825011930, 1825011938, 1825011924, 1825011941, 7158945133, 7158945128], "tags": {"leisure": "park", "name": "\u0e25\u0e32\u0e19\u0e01\u0e35\u0e2c\u0e32\u0e1e\u0e31\u0e12\u0e19\u0e4c", "opening_hours": "06:00-21:00"}}, {"type": "way", "id": 1120694743, "nodes": [10250021010, 10250021011, 10250021012, 10250021015, 10250021014, 10250021013, 10250021010], "tags": {"addr:district": "\u0e04\u0e31\u0e19\u0e19\u0e32\u0e22\u0e32\u0e27", "addr:postcode": "10230", "addr:province": "\u0e01\u0e23\u0e38\u0e07\u0e40\u0e17\u0e1e\u0e21\u0e2b\u0e32\u0e19\u0e04\u0e23", "addr:subdistrict": "\u0e23\u0e32\u0e21\u0e2d\u0e34\u0e19\u0e17\u0e23\u0e32", "amenity": "restaurant", "building": "yes", "cuisine": "thai;seafood"}}, {"type": "way", "id": 1120694744, "nodes": [10250021016, 10250021017, 10250021018, 10250021019, 10250021016], "tags": {"addr:district": "\u0e04\u0e31\u0e19\u0e19\u0e32\u0e22\u0e32\u0e27", "addr:postcode": "10230", "addr:province": "\u0e01\u0e23\u0e38\u0e07\u0e40\u0e17\u0e1e\u0e21\u0e2b\u0e32\u0e19\u0e04\u0e23", "addr:subdistrict": "\u0e23\u0e32\u0e21\u0e2d\u0e34\u0e19\u0e17\u0e23\u0e32", "amenity": "restaurant", "building": "yes", "cuisine": "thai;seafood"}}, {"type": "way", "id": 1120694748, "nodes": [10250021047, 10250021048, 10250021049, 10250021050, 10250021051, 10250021052, 10250021053, 10250021054, 10250021055, 10250021056, 10250021057, 10250021058, 10250021059, 10250021060, 10250021061, 10250021062, 10250021047], "tags": {"addr:district": "\u0e04\u0e31\u0e19\u0e19\u0e32\u0e22\u0e32\u0e27", "addr:postcode": "10230", "addr:province": "\u0e01\u0e23\u0e38\u0e07\u0e40\u0e17\u0e1e\u0e21\u0e2b\u0e32\u0e19\u0e04\u0e23", "addr:subdistrict": "\u0e23\u0e32\u0e21\u0e2d\u0e34\u0e19\u0e17\u0e23\u0e32", "amenity": "cafe", "building": "yes", "name": "\u0e23\u0e49\u0e32\u0e19 T aonly ka"}}, {"type": "way", "id": 1120923252, "nodes": [10252368549, 10252368550, 10252368551, 10252368552, 10252368549], "tags": {"addr:district": "\u0e1a\u0e36\u0e07\u0e01\u0e38\u0e48\u0e21", "addr:postcode": "10240", "addr:province": "\u0e01\u0e23\u0e38\u0e07\u0e40\u0e17\u0e1e\u0e21\u0e2b\u0e32\u0e19\u0e04\u0e23", "addr:subdistrict": "\u0e04\u0e25\u0e2d\u0e07\u0e01\u0e38\u0e48\u0e21", "amenity": "restaurant", "building": "house", "name": "\u0e40\u0e19\u0e37\u0e49\u0e2d\u0e22\u0e48\u0e32\u0e07 \u0e40\u0e2e\u0e35\u0e22\u0e42\u0e15\u0e4b \u0e42\u0e04\u0e02\u0e38\u0e19"}}, {"type": "way", "id": 1120925348, "nodes": [10252383781, 10252383782, 10252383783, 10252383784, 10252383781], "tags": {"addr:district": "\u0e1a\u0e36\u0e07\u0e01\u0e38\u0e48\u0e21", "addr:postcode": "10240", "addr:province": "\u0e01\u0e23\u0e38\u0e07\u0e40\u0e17\u0e1e\u0e21\u0e2b\u0e32\u0e19\u0e04\u0e23", "addr:subdistrict": "\u0e04\u0e25\u0e2d\u0e07\u0e01\u0e38\u0e48\u0e21", "amenity": "restaurant", "building": "yes", "name": "\u0e40\u0e19\u0e37\u0e49\u0e2d\u0e22\u0e48\u0e32\u0e07 \u0e40\u0e2e\u0e35\u0e22\u0e42\u0e15\u0e4b \u0e42\u0e04\u0e02\u0e38\u0e19"}}, {"type": "way", "id": 1121209474, "nodes": [10255512846, 10255512847, 10255512848, 10255512849, 10255512850, 10255512851, 10255512852, 10255512853, 10255512854, 10255512855, 10255512846], "tags": {"amenity": "marketplace"}}, {"type": "way", "id": 1121687450, "nodes": [10259399955, 10259399956, 10259399957, 10259399958, 10259399959, 10259399960, 10259399955], "tags": {"addr:district": "\u0e2a\u0e30\u0e1e\u0e32\u0e19\u0e2a\u0e39\u0e07", "addr:postcode": "10240", "addr:province": "\u0e01\u0e23\u0e38\u0e07\u0e40\u0e17\u0e1e\u0e21\u0e2b\u0e32\u0e19\u0e04\u0e23", "addr:subdistrict": "\u0e2a\u0e30\u0e1e\u0e32\u0e19\u0e2a\u0e39\u0e07", "amenity": "cafe", "building": "yes", "cuisine": "coffee_shop", "name": "\u0e40\u0e14\u0e25\u0e35\u0e48\u0e04\u0e32\u0e41\u0e1f"}}, {"type": "way", "id": 1123529179, "nodes": [10274918738, 10274918739, 10274918740, 10274918741, 10274918738], "tags": {"addr:district": "\u0e2a\u0e30\u0e1e\u0e32\u0e19\u0e2a\u0e39\u0e07", "addr:postcode": "10240", "addr:province": "\u0e01\u0e23\u0e38\u0e07\u0e40\u0e17\u0e1e\u0e21\u0e2b\u0e32\u0e19\u0e04\u0e23", "addr:subdistrict": "\u0e2a\u0e30\u0e1e\u0e32\u0e19\u0e2a\u0e39\u0e07", "amenity": "cafe", "building": "yes", "name": "Ascot Cafe"}}, {"type": "way", "id": 1124893956, "nodes": [10286818886, 10286818887, 10286818888, 10286818889, 10286818886], "tags": {"addr:district": "\u0e1a\u0e36\u0e07\u0e01\u0e38\u0e48\u0e21", "addr:postcode": "10240", "addr:province": "\u0e01\u0e23\u0e38\u0e07\u0e40\u0e17\u0e1e\u0e21\u0e2b\u0e32\u0e19\u0e04\u0e23", "addr:subdistrict": "\u0e04\u0e25\u0e2d\u0e07\u0e01\u0e38\u0e48\u0e21", "amenity": "restaurant", "building": "yes", "name": "\u0e04\u0e23\u0e31\u0e27\u0e2a\u0e32\u0e22\u0e18\u0e32\u0e23"}}, {"type": "way", "id": 1125969178, "nodes": [10296207935, 10296207936, 10296207937, 10296207938, 10296207939, 10296207940, 10296207935], "tags": {"addr:district": "\u0e04\u0e31\u0e19\u0e19\u0e32\u0e22\u0e32\u0e27", "addr:postcode": "10230", "addr:province": "\u0e01\u0e23\u0e38\u0e07\u0e40\u0e17\u0e1e\u0e21\u0e2b\u0e32\u0e19\u0e04\u0e23", "addr:subdistrict": "\u0e23\u0e32\u0e21\u0e2d\u0e34\u0e19\u0e17\u0e23\u0e32", "amenity": "cafe", "brand": "\u0e04\u0e32\u0e40\u0e1f\u0e48 \u0e2d\u0e40\u0e21\u0e0b\u0e2d\u0e19", "brand:en": "Caf\u00e9 Amazon", "brand:th": "\u0e04\u0e32\u0e40\u0e1f\u0e48 \u0e2d\u0e40\u0e21\u0e0b\u0e2d\u0e19", "brand:wikidata": "Q43247503", "building": "yes", "cuisine": "coffee_shop", "name": "\u0e04\u0e32\u0e40\u0e1f\u0e48 \u0e2d\u0e40\u0e21\u0e0b\u0e2d\u0e19", "name:en": "Caf\u00e9 Amazon", "name:th": "\u0e04\u0e32\u0e40\u0e1f\u0e48 \u0e2d\u0e40\u0e21\u0e0b\u0e2d\u0e19", "takeaway": "yes"}}, {"type": "way", "id": 1125969180, "nodes": [10296207951, 10296207952, 10296207953, 10296207954, 10296207955, 10296207956, 10296207957, 10296207958, 10296207959, 10296207960, 10296207951], "tags": {"addr:district": "\u0e04\u0e31\u0e19\u0e19\u0e32\u0e22\u0e32\u0e27", "addr:postcode": "10230", "addr:province": "\u0e01\u0e23\u0e38\u0e07\u0e40\u0e17\u0e1e\u0e21\u0e2b\u0e32\u0e19\u0e04\u0e23", "addr:subdistrict": "\u0e23\u0e32\u0e21\u0e2d\u0e34\u0e19\u0e17\u0e23\u0e32", "amenity": "restaurant", "building": "yes"}}, {"type": "way", "id": 1125979572, "nodes": [10296301662, 10296301663, 10296301664, 10296301665, 10296301666, 10296301667, 10296301662], "tags": {"amenity": "marketplace"}}, {"type": "way", "id": 1157864379, "nodes": [10768039763, 10768039764, 10768039765, 10768039766, 10768039763], "tags": {"addr:city": "\u0e41\u0e02\u0e27\u0e07\u0e17\u0e31\u0e1a\u0e0a\u0e49\u0e32\u0e07", "addr:housenumber": "18/1 \u0e1b\u0e15\u0e17.\u0e28\u0e23\u0e35\u0e19\u0e04\u0e23\u0e34\u0e19\u0e17\u0e23\u0e4c - \u0e23\u0e48\u0e21\u0e40\u0e01\u0e25\u0e49\u0e32", "addr:postcode": "10250", "addr:street": "\u0e28\u0e23\u0e35\u0e19\u0e04\u0e23\u0e34\u0e19\u0e17\u0e23\u0e4c - \u0e23\u0e48\u0e21\u0e40\u0e01\u0e25\u0e49\u0e32", "amenity": "restaurant", "building": "yes", "cuisine": "\u0e02\u0e49\u0e32\u0e27\u0e23\u0e32\u0e14\u0e41\u0e01\u0e07;thai", "name": "\u0e0a\u0e2d\u0e1a\u0e41\u0e01\u0e07 \u0e02\u0e49\u0e32\u0e27\u0e17\u0e35\u0e48\u0e0a\u0e2d\u0e1a\u0e41\u0e01\u0e07\u0e17\u0e35\u0e48\u0e43\u0e0a\u0e48", "opening_hours": "07:00-21:00", "phone": "0842574399", "website": "https://linktr.ee/chobgaeng"}}, {"type": "way", "id": 1157864728, "nodes": [10768057554, 10768057555, 10768057556, 10768057557, 10768057554], "tags": {"addr:city": "\u0e41\u0e02\u0e27\u0e07\u0e17\u0e31\u0e1a\u0e0a\u0e49\u0e32\u0e07", "addr:housenumber": "1/11 \u0e42\u0e04\u0e23\u0e07\u0e01\u0e32\u0e23 The Station", "addr:postcode": "10250", "addr:street": "\u0e28\u0e23\u0e35\u0e19\u0e04\u0e23\u0e34\u0e19\u0e17\u0e23\u0e4c - \u0e23\u0e48\u0e21\u0e40\u0e01\u0e25\u0e49\u0e32", "amenity": "restaurant", "building": "yes", "cuisine": "\u0e22\u0e33;\u0e01\u0e4b\u0e27\u0e22\u0e40\u0e15\u0e35\u0e4b\u0e22\u0e27\u0e40\u0e23\u0e37\u0e2d;\u0e01\u0e4b\u0e27\u0e22\u0e40\u0e15\u0e35\u0e4b\u0e22\u0e27;\u0e2a\u0e49\u0e21\u0e15\u0e33;\u0e2d\u0e32\u0e2b\u0e32\u0e23\u0e2d\u0e34\u0e35\u0e2a\u0e32\u0e19", "name": "\u0e0a\u0e2d\u0e1a\u0e15\u0e38\u0e4b\u0e19\u0e40\u0e15\u0e35\u0e4b\u0e22\u0e27\u0e40\u0e23\u0e37\u0e2d x \u0e0a\u0e2d\u0e1a\u0e22\u0e33\u0e15\u0e33\u0e41\u0e23\u0e07", "opening_hours": "11:00-21:00", "phone": "0825722699"}}, {"type": "way", "id": 1243122262, "nodes": [11553397946, 11553397947, 11564724382, 11553397948, 11553397949, 11553397946], "tags": {"addr:district": "\u0e1a\u0e36\u0e07\u0e01\u0e38\u0e48\u0e21", "addr:postcode": "10240", "addr:province": "\u0e01\u0e23\u0e38\u0e07\u0e40\u0e17\u0e1e\u0e21\u0e2b\u0e32\u0e19\u0e04\u0e23", "addr:subdistrict": "\u0e04\u0e25\u0e2d\u0e07\u0e01\u0e38\u0e48\u0e21", "amenity": "marketplace", "building": "residential"}}, {"type": "way", "id": 1244115794, "nodes": [11564724371, 11564724372, 11564724373, 11564724374, 11564724371], "tags": {"amenity": "marketplace"}}, {"type": "way", "id": 1244115796, "nodes": [11564724379, 11564724380, 11564724381, 11564724382, 11564724379], "tags": {"amenity": "marketplace"}}, {"type": "way", "id": 1244115816, "nodes": [11564724459, 11564724460, 11564724461, 11564724462, 11564724459], "tags": {"leisure": "park"}}, {"type": "way", "id": 1244115828, "nodes": [11564724507, 11564724508, 11564724509, 11564724510, 11564724511, 11564724512, 11564724507], "tags": {"leisure": "park"}}, {"type": "way", "id": 1252867017, "nodes": [11645591616, 11645591617, 11645591618, 11645591619, 11645591620, 11645591621, 11645591616], "tags": {"leisure": "park"}}, {"type": "way", "id": 1271366547, "nodes": [11806429271, 11806429272, 11806429273, 11806429274, 11806429275, 11806429276, 11806429277, 11806429278, 11806429279, 11806429271], "tags": {"addr:postcode": "10240", "addr:province": "\u0e01\u0e23\u0e38\u0e07\u0e40\u0e17\u0e1e\u0e21\u0e2b\u0e32\u0e19\u0e04\u0e23", "addr:street": "NANTAWAN \u0e1e\u0e23\u0e30\u0e23\u0e32\u0e219 \u0e01\u0e23\u0e38\u0e07\u0e40\u0e17\u0e1e\u0e01\u0e23\u0e35\u0e11\u0e32\u0e15\u0e31\u0e14\u0e43\u0e2b\u0e21\u0e48 Saphan Sung", "leisure": "park", "name": "Park Nantawan krungtep kreetha"}}, {"type": "way", "id": 1394902604, "nodes": [12911944734, 12911944735, 12911944736, 12911895355, 12911895356, 12911895357, 12911895358, 12911944737, 12911944738, 12911944739, 12911944740, 12911944741, 12911944742, 12911944743, 12911944744, 12911944745, 12912030317, 12911944746, 12911944747, 12911944748, 12911944734], "tags": {"leisure": "park"}}, {"type": "way", "id": 1429708149, "nodes": [12912221492, 12912221493, 13142442219, 13142442220, 13142442221, 13142442222, 12912221540, 12912221541, 12912221524, 12912221523, 12912221521, 12912221520, 12912221492], "tags": {"amenity": "marketplace", "name": "\u0e15\u0e25\u0e32\u0e14\u0e40\u0e14\u0e34\u0e19\u0e40\u0e25\u0e48\u0e19\u0e01\u0e23\u0e38\u0e07\u0e40\u0e17\u0e1e\u0e01\u0e23\u0e35\u0e11\u0e32", "name:th": "\u0e15\u0e25\u0e32\u0e14\u0e40\u0e14\u0e34\u0e19\u0e40\u0e25\u0e48\u0e19\u0e01\u0e23\u0e38\u0e07\u0e40\u0e17\u0e1e\u0e01\u0e23\u0e35\u0e11\u0e32"}}, {"type": "node", "id": 7158945129, "lat": 13.7748222, "lon": 100.6499542}, {"type": "node", "id": 2356833146, "lat": 13.7679128, "lon": 100.6524596}, {"type": "node", "id": 2356833202, "lat": 13.7676088, "lon": 100.6520532}, {"type": "node", "id": 2902806804, "lat": 13.7676786, "lon": 100.6521427}, {"type": "node", "id": 3938258724, "lat": 13.7661413, "lon": 100.6519073}, {"type": "node", "id": 3938258725, "lat": 13.7664105, "lon": 100.6523514}, {"type": "node", "id": 3938258726, "lat": 13.7667555, "lon": 100.6520956}, {"type": "node", "id": 3938258727, "lat": 13.7669758, "lon": 100.6512752}, {"type": "node", "id": 3938258728, "lat": 13.7673076, "lon": 100.6529198}, {"type": "node", "id": 4798036884, "lat": 13.7705505, "lon": 100.6563054}, {"type": "node", "id": 4798036885, "lat": 13.7706208, "lon": 100.6564271}, {"type": "node", "id": 4798036886, "lat": 13.7705894, "lon": 100.6564471}, {"type": "node", "id": 4798036887, "lat": 13.7706193, "lon": 100.6565072}, {"type": "node", "id": 4798036888, "lat": 13.7704427, "lon": 100.6565965}, {"type": "node", "id": 4798036889, "lat": 13.7704652, "lon": 100.6566504}, {"type": "node", "id": 4798036895, "lat": 13.7700013, "lon": 100.6566289}, {"type": "node", "id": 4798036896, "lat": 13.7701106, "lon": 100.6565596}, {"type": "node", "id": 4798036897, "lat": 13.7702452, "lon": 100.656501}, {"type": "node", "id": 6043192382, "lat": 13.7688417, "lon": 100.6518094}, {"type": "node", "id": 6043192383, "lat": 13.7688801, "lon": 100.6518489}, {"type": "node", "id": 6043192384, "lat": 13.7688371, "lon": 100.65192}, {"type": "node", "id": 6043199085, "lat": 13.7687642, "lon": 100.6518596}, {"type": "node", "id": 6043199086, "lat": 13.7688202, "lon": 100.6517872}, {"type": "node", "id": 6089230390, "lat": 13.7701344, "lon": 100.655818}, {"type": "node", "id": 6089230391, "lat": 13.7698111, "lon": 100.6553058}, {"type": "node", "id": 6089230392, "lat": 13.7694927, "lon": 100.6555619}, {"type": "node", "id": 6089230393, "lat": 13.7698061, "lon": 100.6560639}, {"type": "node", "id": 6364373569, "lat": 13.7670436, "lon": 100.651357}, {"type": "node", "id": 8348469640, "lat": 13.7704996, "lon": 100.6565677}, {"type": "node", "id": 4798036890, "lat": 13.7700717, "lon": 100.6568492}, {"type": "node", "id": 4798036891, "lat": 13.7700492, "lon": 100.656803}, {"type": "node", "id": 4798036892, "lat": 13.7699131, "lon": 100.6568754}, {"type": "node", "id": 4798036893, "lat": 13.7698906, "lon": 100.6568245}, {"type": "node", "id": 4798036894, "lat": 13.769919, "lon": 100.6567506}, {"type": "node", "id": 6687167033, "lat": 13.7682478, "lon": 100.6583091}, {"type": "node", "id": 6687167034, "lat": 13.7682995, "lon": 100.6584087}, {"type": "node", "id": 6687167035, "lat": 13.7682645, "lon": 100.658431}, {"type": "node", "id": 6687167036, "lat": 13.7683095, "lon": 100.6585134}, {"type": "node", "id": 6687167037, "lat": 13.7682361, "lon": 100.6585271}, {"type": "node", "id": 6687167038, "lat": 13.7681444, "lon": 100.658364}, {"type": "node", "id": 10255512848, "lat": 13.7716769, "lon": 100.6632593}, {"type": "node", "id": 1825011924, "lat": 13.7751789, "lon": 100.6517857}, {"type": "node", "id": 1825011930, "lat": 13.774744, "lon": 100.6502712}, {"type": "node", "id": 1825011932, "lat": 13.7746554, "lon": 100.65029}, {"type": "node", "id": 1825011938, "lat": 13.7750253, "lon": 100.6514219}, {"type": "node", "id": 1825011941, "lat": 13.7758094, "lon": 100.6515801}, {"type": "node", "id": 2176951855, "lat": 13.7755235, "lon": 100.6532441}, {"type": "node", "id": 2176951856, "lat": 13.7755504, "lon": 100.6533306}, {"type": "node", "id": 2176951859, "lat": 13.7758183, "lon": 100.6531546}, {"type": "node", "id": 2176951863, "lat": 13.7762457, "lon": 100.652976}, {"type": "node", "id": 2176951900, "lat": 13.7771994, "lon": 100.6525224}, {"type": "node", "id": 2176951907, "lat": 13.7773934, "lon": 100.6534248}, {"type": "node", "id": 2176951911, "lat": 13.7775601, "lon": 100.6533623}, {"type": "node", "id": 2176951922, "lat": 13.7778447, "lon": 100.6521914}, {"type": "node", "id": 2176951947, "lat": 13.7787636, "lon": 100.6525006}, {"type": "node", "id": 2176951953, "lat": 13.7788793, "lon": 100.6524649}, {"type": "node", "id": 3535460608, "lat": 13.7750352, "lon": 100.650261}, {"type": "node", "id": 3535460609, "lat": 13.7754324, "lon": 100.6507068}, {"type": "node", "id": 3535460610, "lat": 13.7759937, "lon": 100.65146}, {"type": "node", "id": 3535460615, "lat": 13.776552, "lon": 100.6521824}, {"type": "node", "id": 7158945128, "lat": 13.7768102, "lon": 100.6525992}, {"type": "node", "id": 7158945130, "lat": 13.7744187, "lon": 100.6502164}, {"type": "node", "id": 7158945131, "lat": 13.7744701, "lon": 100.650444}, {"type": "node", "id": 7158945132, "lat": 13.7746241, "lon": 100.6503953}, {"type": "node", "id": 7158945133, "lat": 13.7761521, "lon": 100.6529159}, {"type": "node", "id": 11256997556, "lat": 13.7760363, "lon": 100.6530733}, {"type": "node", "id": 11256997557, "lat": 13.7759316, "lon": 100.6531148}, {"type": "node", "id": 11256997560, "lat": 13.7784987, "lon": 100.6518174}, {"type": "node", "id": 11256997561, "lat": 13.7775204, "lon": 100.6523622}, {"type": "node", "id": 10255512846, "lat": 13.7727846, "lon": 100.662791}, {"type": "node", "id": 10255512855, "lat": 13.7728621, "lon": 100.662965}, {"type": "node", "id": 10286818886, "lat": 13.7770117, "lon": 100.6607552}, {"type": "node", "id": 10286818887, "lat": 13.7769309, "lon": 100.6607161}, {"type": "node", "id": 10286818888, "lat": 13.7768874, "lon": 100.6608115}, {"type": "node", "id": 10286818889, "lat": 13.7769682, "lon": 100.6608506}, {"type": "node", "id": 350370157, "lat": 13.7844551, "lon": 100.6482287}, {"type": "node", "id": 2176952034, "lat": 13.7815833, "lon": 100.649712}, {"type": "node", "id": 2176952065, "lat": 13.78255, "lon": 100.6489737}, {"type": "node", "id": 2176952085, "lat": 13.7831654, "lon": 100.6484708}, {"type": "node", "id": 2176952091, "lat": 13.7833851, "lon": 100.6498459}, {"type": "node", "id": 2176952097, "lat": 13.7835663, "lon": 100.649708}, {"type": "node", "id": 2176952100, "lat": 13.7836514, "lon": 100.6480365}, {"type": "node", "id": 2176952103, "lat": 13.7837111, "lon": 100.6480315}, {"type": "node", "id": 2176952105, "lat": 13.7837596, "lon": 100.647984}, {"type": "node", "id": 2176952108, "lat": 13.7837686, "lon": 100.647931}, {"type": "node", "id": 2176952125, "lat": 13.7839478, "lon": 100.6477483}, {"type": "node", "id": 2176952127, "lat": 13.7839636, "lon": 100.647761}, {"type": "node", "id": 2176952129, "lat": 13.7839751, "lon": 100.6477702}, {"type": "node", "id": 2176952133, "lat": 13.783989, "lon": 100.6477813}, {"type": "node", "id": 2176952140, "lat": 13.7840154, "lon": 100.6477775}, {"type": "node", "id": 2176952156, "lat": 13.784099, "lon": 100.6477864}, {"type": "node", "id": 2176952165, "lat": 13.7841266, "lon": 100.647803}, {"type": "node", "id": 2176952181, "lat": 13.7841365, "lon": 100.6477898}, {"type": "node", "id": 2176952187, "lat": 13.7841495, "lon": 100.649408}, {"type": "node", "id": 2176952198, "lat": 13.7841698, "lon": 100.6477457}, {"type": "node", "id": 2176952213, "lat": 13.7842228, "lon": 100.6494072}, {"type": "node", "id": 2176952219, "lat": 13.7842425, "lon": 100.6490008}, {"type": "node", "id": 2176952221, "lat": 13.7842533, "lon": 100.6490428}, {"type": "node", "id": 2176952241, "lat": 13.7844827, "lon": 100.6480662}, {"type": "node", "id": 2176952243, "lat": 13.7845217, "lon": 100.6480022}, {"type": "node", "id": 2176952244, "lat": 13.7845436, "lon": 100.6481492}, {"type": "node", "id": 2176952245, "lat": 13.7845542, "lon": 100.648118}, {"type": "node", "id": 11966247715, "lat": 13.7839833, "lon": 100.6477767}, {"type": "node", "id": 11966247716, "lat": 13.7841141, "lon": 100.6477955}, {"type": "node", "id": 1696386009, "lat": 13.7816049, "lon": 100.6541625}, {"type": "node", "id": 2176951960, "lat": 13.7791397, "lon": 100.6513924}, {"type": "node", "id": 2176951979, "lat": 13.7800367, "lon": 100.6508321}, {"type": "node", "id": 2176951986, "lat": 13.7803547, "lon": 100.6506194}, {"type": "node", "id": 2176951987, "lat": 13.7803692, "lon": 100.6506084}, {"type": "node", "id": 2176951988, "lat": 13.780416, "lon": 100.650573}, {"type": "node", "id": 2176951998, "lat": 13.7805869, "lon": 100.6504437}, {"type": "node", "id": 2176952006, "lat": 13.7806435, "lon": 100.6504009}, {"type": "node", "id": 2176952025, "lat": 13.7814408, "lon": 100.6510742}, {"type": "node", "id": 2176952075, "lat": 13.7829381, "lon": 100.6501902}, {"type": "node", "id": 5665622839, "lat": 13.7817111, "lon": 100.6543658}, {"type": "node", "id": 5665622840, "lat": 13.7820058, "lon": 100.6541852}, {"type": "node", "id": 5665622841, "lat": 13.7819277, "lon": 100.6539772}, {"type": "node", "id": 3222787720, "lat": 13.7967446, "lon": 100.6518776}, {"type": "node", "id": 3222787721, "lat": 13.7968511, "lon": 100.6521359}, {"type": "node", "id": 3222787722, "lat": 13.7966552, "lon": 100.6522386}, {"type": "node", "id": 3222787723, "lat": 13.7965452, "lon": 100.6519696}, {"type": "node", "id": 3222787737, "lat": 13.7966303, "lon": 100.6519303}, {"type": "node", "id": 3222990356, "lat": 13.7978796, "lon": 100.6505263}, {"type": "node", "id": 3222990357, "lat": 13.7977377, "lon": 100.6502825}, {"type": "node", "id": 3223022516, "lat": 13.7973508, "lon": 100.6506302}, {"type": "node", "id": 3223022517, "lat": 13.7972627, "lon": 100.6504941}, {"type": "node", "id": 3223024859, "lat": 13.797391, "lon": 100.6505943}, {"type": "node", "id": 3223024860, "lat": 13.7973322, "lon": 100.6504675}, {"type": "node", "id": 3223027357, "lat": 13.7979115, "lon": 100.6505061}, {"type": "node", "id": 3223027358, "lat": 13.797797, "lon": 100.6502603}, {"type": "node", "id": 3223031949, "lat": 13.79586, "lon": 100.6508554}, {"type": "node", "id": 3223036469, "lat": 13.7957581, "lon": 100.6506526}, {"type": "node", "id": 3225269378, "lat": 13.7958214, "lon": 100.6506209}, {"type": "node", "id": 3225269379, "lat": 13.7959252, "lon": 100.65082}, {"type": "node", "id": 3225295399, "lat": 13.7946637, "lon": 100.6509307}, {"type": "node", "id": 3225298624, "lat": 13.7940731, "lon": 100.6508279}, {"type": "node", "id": 3225298625, "lat": 13.7942142, "lon": 100.6507626}, {"type": "node", "id": 3225298626, "lat": 13.7942725, "lon": 100.6508932}, {"type": "node", "id": 3225298627, "lat": 13.7945876, "lon": 100.6507771}, {"type": "node", "id": 7941173961, "lat": 13.7942054, "lon": 100.6511049}, {"type": "node", "id": 11553397946, "lat": 13.796428, "lon": 100.6511099}, {"type": "node", "id": 11553397947, "lat": 13.7963307, "lon": 100.6511599}, {"type": "node", "id": 11553397948, "lat": 13.796619, "lon": 100.6517286}, {"type": "node", "id": 11553397949, "lat": 13.7967162, "lon": 100.6516713}, {"type": "node", "id": 11564724371, "lat": 13.7962015, "lon": 100.6512233}, {"type": "node", "id": 11564724372, "lat": 13.7961577, "lon": 100.6512451}, {"type": "node", "id": 11564724373, "lat": 13.7964721, "lon": 100.6518834}, {"type": "node", "id": 11564724374, "lat": 13.7965205, "lon": 100.6518569}, {"type": "node", "id": 11564724379, "lat": 13.7963507, "lon": 100.6512515}, {"type": "node", "id": 11564724380, "lat": 13.7963098, "lon": 100.6512733}, {"type": "node", "id": 11564724381, "lat": 13.7964671, "lon": 100.651569}, {"type": "node", "id": 11564724382, "lat": 13.7965224, "lon": 100.651538}, {"type": "node", "id": 11564724510, "lat": 13.7986053, "lon": 100.6526081}, {"type": "node", "id": 11564724511, "lat": 13.7982858, "lon": 100.6524114}, {"type": "node", "id": 11564724512, "lat": 13.798251, "lon": 100.6523899}, {"type": "node", "id": 11564724459, "lat": 13.7994527, "lon": 100.6510631}, {"type": "node", "id": 11564724460, "lat": 13.7995083, "lon": 100.6511561}, {"type": "node", "id": 11564724461, "lat": 13.7989317, "lon": 100.6515817}, {"type": "node", "id": 11564724462, "lat": 13.798838, "lon": 100.6514386}, {"type": "node", "id": 11564724507, "lat": 13.7989074, "lon": 100.6519536}, {"type": "node", "id": 11564724508, "lat": 13.7992061, "lon": 100.6524257}, {"type": "node", "id": 11564724509, "lat": 13.7988484, "lon": 100.6527869}, {"type": "node", "id": 12912221492, "lat": 13.751764, "lon": 100.6740413}, {"type": "node", "id": 12912221493, "lat": 13.7516216, "lon": 100.6740276}, {"type": "node", "id": 12912221520, "lat": 13.7517532, "lon": 100.6740626}, {"type": "node", "id": 12912221521, "lat": 13.7525396, "lon": 100.6744683}, {"type": "node", "id": 12912221524, "lat": 13.7526972, "lon": 100.6747306}, {"type": "node", "id": 12912221540, "lat": 13.7506536, "lon": 100.6753202}, {"type": "node", "id": 12912221541, "lat": 13.7526332, "lon": 100.6747259}, {"type": "node", "id": 13142442219, "lat": 13.7516252, "lon": 100.6739229}, {"type": "node", "id": 13142442220, "lat": 13.7510581, "lon": 100.6738901}, {"type": "node", "id": 13142442221, "lat": 13.7509371, "lon": 100.6743761}, {"type": "node", "id": 13142442222, "lat": 13.7505385, "lon": 100.6742822}, {"type": "node", "id": 10768039763, "lat": 13.7526714, "lon": 100.6869277}, {"type": "node", "id": 10768039764, "lat": 13.7526651, "lon": 100.6869564}, {"type": "node", "id": 10768039765, "lat": 13.7526369, "lon": 100.6869481}, {"type": "node", "id": 10768039766, "lat": 13.7526433, "lon": 100.6869207}, {"type": "node", "id": 10768057556, "lat": 13.7527278, "lon": 100.6873833}, {"type": "node", "id": 10768057557, "lat": 13.7527391, "lon": 100.6873384}, {"type": "node", "id": 12912221523, "lat": 13.7527618, "lon": 100.6745952}, {"type": "node", "id": 10768057554, "lat": 13.7528336, "lon": 100.6873667}, {"type": "node", "id": 10768057555, "lat": 13.7528224, "lon": 100.6874161}, {"type": "node", "id": 11645591616, "lat": 13.7574085, "lon": 100.6840909}, {"type": "node", "id": 11645591617, "lat": 13.7572207, "lon": 100.6848902}, {"type": "node", "id": 11645591618, "lat": 13.7579141, "lon": 100.6846114}, {"type": "node", "id": 11645591619, "lat": 13.7578754, "lon": 100.6845033}, {"type": "node", "id": 11645591620, "lat": 13.757776, "lon": 100.6843497}, {"type": "node", "id": 11645591621, "lat": 13.7576655, "lon": 100.6842303}, {"type": "node", "id": 10274918738, "lat": 13.7622116, "lon": 100.687029}, {"type": "node", "id": 10274918739, "lat": 13.7622286, "lon": 100.6870947}, {"type": "node", "id": 10274918740, "lat": 13.7621686, "lon": 100.6871175}, {"type": "node", "id": 10274918741, "lat": 13.762153, "lon": 100.6870478}, {"type": "node", "id": 10255512847, "lat": 13.7716971, "lon": 100.6633047}, {"type": "node", "id": 10255512849, "lat": 13.7715317, "lon": 100.6633279}, {"type": "node", "id": 10255512850, "lat": 13.7715293, "lon": 100.6633035}, {"type": "node", "id": 10255512851, "lat": 13.7714528, "lon": 100.6633396}, {"type": "node", "id": 10255512852, "lat": 13.7714798, "lon": 100.6634002}, {"type": "node", "id": 10255512853, "lat": 13.7714001, "lon": 100.6634378}, {"type": "node", "id": 10255512854, "lat": 13.7714801, "lon": 100.6636174}, {"type": "node", "id": 10259399955, "lat": 13.7778535, "lon": 100.6730853}, {"type": "node", "id": 10259399956, "lat": 13.7776566, "lon": 100.6731873}, {"type": "node", "id": 10259399957, "lat": 13.7776746, "lon": 100.673224}, {"type": "node", "id": 10259399958, "lat": 13.7776403, "lon": 100.6732418}, {"type": "node", "id": 10259399959, "lat": 13.7776647, "lon": 100.6732918}, {"type": "node", "id": 10259399960, "lat": 13.7778959, "lon": 100.6731721}, {"type": "node", "id": 12911895355, "lat": 13.7704031, "lon": 100.6774593}, {"type": "node", "id": 12911895356, "lat": 13.770296, "lon": 100.6775462}, {"type": "node", "id": 12911895357, "lat": 13.7701791, "lon": 100.6775629}, {"type": "node", "id": 12911895358, "lat": 13.7698803, "lon": 100.6775194}, {"type": "node", "id": 12911944735, "lat": 13.771137, "lon": 100.6772756}, {"type": "node", "id": 12911944736, "lat": 13.7704113, "lon": 100.6772138}, {"type": "node", "id": 12911944737, "lat": 13.7692817, "lon": 100.6775217}, {"type": "node", "id": 12911944738, "lat": 13.7689481, "lon": 100.6796547}, {"type": "node", "id": 12911944739, "lat": 13.7692037, "lon": 100.6796935}, {"type": "node", "id": 12911944740, "lat": 13.7691741, "lon": 100.6799594}, {"type": "node", "id": 12911944741, "lat": 13.770814, "lon": 100.6801515}, {"type": "node", "id": 12911944742, "lat": 13.7708626, "lon": 100.68015}, {"type": "node", "id": 12911944743, "lat": 13.770898, "lon": 100.6801226}, {"type": "node", "id": 12911944744, "lat": 13.7710045, "lon": 100.6790243}, {"type": "node", "id": 12911944745, "lat": 13.7710471, "lon": 100.67893}, {"type": "node", "id": 12911944746, "lat": 13.7715325, "lon": 100.6786209}, {"type": "node", "id": 12911944747, "lat": 13.7723587, "lon": 100.6781276}, {"type": "node", "id": 12912030317, "lat": 13.7711242, "lon": 100.6788809}, {"type": "node", "id": 12911944734, "lat": 13.7725491, "lon": 100.6774513}, {"type": "node", "id": 12911944748, "lat": 13.7726632, "lon": 100.677961}, {"type": "node", "id": 11806429271, "lat": 13.7587002, "lon": 100.690894}, {"type": "node", "id": 11806429272, "lat": 13.7576029, "lon": 100.69142}, {"type": "node", "id": 11806429273, "lat": 13.7576031, "lon": 100.6916159}, {"type": "node", "id": 11806429274, "lat": 13.7576907, "lon": 100.6916216}, {"type": "node", "id": 11806429275, "lat": 13.7577416, "lon": 100.6917347}, {"type": "node", "id": 11806429276, "lat": 13.7582351, "lon": 100.6913648}, {"type": "node", "id": 11806429277, "lat": 13.7586759, "lon": 100.6911087}, {"type": "node", "id": 11806429278, "lat": 13.7588073, "lon": 100.6910469}, {"type": "node", "id": 11806429279, "lat": 13.7587251, "lon": 100.6908783}, {"type": "node", "id": 706209243, "lat": 13.7846488, "lon": 100.6686025}, {"type": "node", "id": 706209250, "lat": 13.7839726, "lon": 100.669816}, {"type": "node", "id": 706209251, "lat": 13.7839174, "lon": 100.6696241}, {"type": "node", "id": 706209252, "lat": 13.7838728, "lon": 100.6694661}, {"type": "node", "id": 706209253, "lat": 13.7837425, "lon": 100.6692016}, {"type": "node", "id": 5362981290, "lat": 13.7846447, "lon": 100.6684053}, {"type": "node", "id": 5362981291, "lat": 13.7846249, "lon": 100.668065}, {"type": "node", "id": 5362981292, "lat": 13.7842506, "lon": 100.6679063}, {"type": "node", "id": 5362981293, "lat": 13.7841654, "lon": 100.6679556}, {"type": "node", "id": 5362981294, "lat": 13.7836694, "lon": 100.6689044}, {"type": "node", "id": 5362981295, "lat": 13.7837901, "lon": 100.6693319}, {"type": "node", "id": 5362981296, "lat": 13.7846474, "lon": 100.6681572}, {"type": "node", "id": 5365898098, "lat": 13.7849173, "lon": 100.6690109}, {"type": "node", "id": 5365898099, "lat": 13.7847578, "lon": 100.6688517}, {"type": "node", "id": 5365898100, "lat": 13.784808, "lon": 100.6688822}, {"type": "node", "id": 5365898101, "lat": 13.7848566, "lon": 100.6688832}, {"type": "node", "id": 5365898102, "lat": 13.7852198, "lon": 100.6696622}, {"type": "node", "id": 5371366138, "lat": 13.7816985, "lon": 100.668842}, {"type": "node", "id": 5371366139, "lat": 13.7818006, "lon": 100.669026}, {"type": "node", "id": 5371366140, "lat": 13.7811185, "lon": 100.6694272}, {"type": "node", "id": 5371366141, "lat": 13.7810165, "lon": 100.6692434}, {"type": "node", "id": 5371366146, "lat": 13.7838879, "lon": 100.6698094}, {"type": "node", "id": 5373678840, "lat": 13.78406, "lon": 100.6681573}, {"type": "node", "id": 5373678842, "lat": 13.7846456, "lon": 100.6684505}, {"type": "node", "id": 706209255, "lat": 13.7843772, "lon": 100.6706745}, {"type": "node", "id": 706209258, "lat": 13.7843546, "lon": 100.6710183}, {"type": "node", "id": 706209264, "lat": 13.7845607, "lon": 100.6714933}, {"type": "node", "id": 706209279, "lat": 13.7849409, "lon": 100.673102}, {"type": "node", "id": 706209280, "lat": 13.7850732, "lon": 100.6727528}, {"type": "node", "id": 706209281, "lat": 13.7847592, "lon": 100.6719756}, {"type": "node", "id": 706209362, "lat": 13.7853597, "lon": 100.6735279}, {"type": "node", "id": 706209364, "lat": 13.785163, "lon": 100.6734576}, {"type": "node", "id": 5362981297, "lat": 13.7844182, "lon": 100.6708566}, {"type": "node", "id": 5365872784, "lat": 13.7854038, "lon": 100.673629}, {"type": "node", "id": 5365898103, "lat": 13.7854784, "lon": 100.6703605}, {"type": "node", "id": 5369645423, "lat": 13.7854173, "lon": 100.6736597}, {"type": "node", "id": 5370371636, "lat": 13.7853742, "lon": 100.6699913}, {"type": "node", "id": 5371366142, "lat": 13.7821996, "lon": 100.6714579}, {"type": "node", "id": 5371366143, "lat": 13.781899, "lon": 100.6709746}, {"type": "node", "id": 5371366144, "lat": 13.7819285, "lon": 100.6708999}, {"type": "node", "id": 5371366145, "lat": 13.7819761, "lon": 100.6708625}, {"type": "node", "id": 5371366147, "lat": 13.7841804, "lon": 100.6703721}, {"type": "node", "id": 5373678837, "lat": 13.7844808, "lon": 100.6713091}, {"type": "node", "id": 5453060762, "lat": 13.7847659, "lon": 100.6719923}, {"type": "node", "id": 5372135247, "lat": 13.7898073, "lon": 100.6685196}, {"type": "node", "id": 5372135248, "lat": 13.7899637, "lon": 100.668787}, {"type": "node", "id": 5372135249, "lat": 13.7901712, "lon": 100.6686585}, {"type": "node", "id": 5372135250, "lat": 13.7900216, "lon": 100.6683912}, {"type": "node", "id": 10252368549, "lat": 13.7876021, "lon": 100.6641444}, {"type": "node", "id": 10252368550, "lat": 13.787644, "lon": 100.6642373}, {"type": "node", "id": 10252368551, "lat": 13.7874411, "lon": 100.6643343}, {"type": "node", "id": 10252368552, "lat": 13.7873993, "lon": 100.6642414}, {"type": "node", "id": 10252383781, "lat": 13.7873524, "lon": 100.6638537}, {"type": "node", "id": 10252383782, "lat": 13.7872546, "lon": 100.6638987}, {"type": "node", "id": 10252383783, "lat": 13.7872944, "lon": 100.6639905}, {"type": "node", "id": 10252383784, "lat": 13.7873923, "lon": 100.6639454}, {"type": "node", "id": 706209284, "lat": 13.7855167, "lon": 100.6703235}, {"type": "node", "id": 706209295, "lat": 13.7855977, "lon": 100.6705993}, {"type": "node", "id": 706209299, "lat": 13.7860533, "lon": 100.671639}, {"type": "node", "id": 706209342, "lat": 13.786371, "lon": 100.6723076}, {"type": "node", "id": 706209352, "lat": 13.7873914, "lon": 100.6729621}, {"type": "node", "id": 706209353, "lat": 13.7877058, "lon": 100.6731558}, {"type": "node", "id": 706209363, "lat": 13.7864378, "lon": 100.6733858}, {"type": "node", "id": 706209378, "lat": 13.7865412, "lon": 100.6735482}, {"type": "node", "id": 706209420, "lat": 13.7870167, "lon": 100.6745987}, {"type": "node", "id": 706209427, "lat": 13.7879671, "lon": 100.6735428}, {"type": "node", "id": 706209445, "lat": 13.7878622, "lon": 100.6743298}, {"type": "node", "id": 706209449, "lat": 13.7889313, "lon": 100.6738677}, {"type": "node", "id": 1696386250, "lat": 13.7867166, "lon": 100.6725534}, {"type": "node", "id": 5362981298, "lat": 13.785727, "lon": 100.6708982}, {"type": "node", "id": 5365872783, "lat": 13.7856076, "lon": 100.6736032}, {"type": "node", "id": 5365872785, "lat": 13.7860788, "lon": 100.6734414}, {"type": "node", "id": 5365872786, "lat": 13.7858105, "lon": 100.6735336}, {"type": "node", "id": 5365872787, "lat": 13.7857228, "lon": 100.6735621}, {"type": "node", "id": 5365872788, "lat": 13.7859579, "lon": 100.6734838}, {"type": "node", "id": 5369289840, "lat": 13.7884269, "lon": 100.6742211}, {"type": "node", "id": 5369289841, "lat": 13.7885369, "lon": 100.6743604}, {"type": "node", "id": 5369289842, "lat": 13.7889926, "lon": 100.6750347}, {"type": "node", "id": 5369289843, "lat": 13.7881968, "lon": 100.6755495}, {"type": "node", "id": 5369289844, "lat": 13.7879955, "lon": 100.6754479}, {"type": "node", "id": 5369289845, "lat": 13.7877349, "lon": 100.6752934}, {"type": "node", "id": 5369289846, "lat": 13.7876164, "lon": 100.6752039}, {"type": "node", "id": 5369289847, "lat": 13.7874151, "lon": 100.6749234}, {"type": "node", "id": 5369289848, "lat": 13.7872295, "lon": 100.6746002}, {"type": "node", "id": 5369358096, "lat": 13.7882589, "lon": 100.6739619}, {"type": "node", "id": 5369645421, "lat": 13.7861992, "lon": 100.6734295}, {"type": "node", "id": 5369645422, "lat": 13.7855242, "lon": 100.6736305}, {"type": "node", "id": 5370488675, "lat": 13.7888146, "lon": 100.6737688}, {"type": "node", "id": 5370488676, "lat": 13.7888594, "lon": 100.6738489}, {"type": "node", "id": 5370488677, "lat": 13.7887637, "lon": 100.6738951}, {"type": "node", "id": 5370488678, "lat": 13.7887248, "lon": 100.6738181}, {"type": "node", "id": 5370500154, "lat": 13.7871885, "lon": 100.6703362}, {"type": "node", "id": 5370500155, "lat": 13.7872752, "lon": 100.6704811}, {"type": "node", "id": 5370500156, "lat": 13.7870598, "lon": 100.6704194}, {"type": "node", "id": 5370500157, "lat": 13.7875013, "lon": 100.6706132}, {"type": "node", "id": 5370500158, "lat": 13.7872494, "lon": 100.6707695}, {"type": "node", "id": 5370500159, "lat": 13.7873976, "lon": 100.6704084}, {"type": "node", "id": 5371338388, "lat": 13.785892, "lon": 100.6735074}, {"type": "node", "id": 5375086328, "lat": 13.7867139, "lon": 100.6705511}, {"type": "node", "id": 5375086329, "lat": 13.7868515, "lon": 100.6707975}, {"type": "node", "id": 5375086330, "lat": 13.7864296, "lon": 100.671041}, {"type": "node", "id": 5375086331, "lat": 13.7863399, "lon": 100.6708622}, {"type": "node", "id": 5375086332, "lat": 13.7863877, "lon": 100.6707236}, {"type": "node", "id": 5395241961, "lat": 13.7886692, "lon": 100.6701993}, {"type": "node", "id": 5395241962, "lat": 13.7885489, "lon": 100.6702701}, {"type": "node", "id": 5395241963, "lat": 13.7888479, "lon": 100.6708116}, {"type": "node", "id": 5395241964, "lat": 13.7889699, "lon": 100.6707373}, {"type": "node", "id": 5575436824, "lat": 13.7887794, "lon": 100.674743}, {"type": "node", "id": 5906249252, "lat": 13.7875628, "lon": 100.6751293}, {"type": "node", "id": 5908018607, "lat": 13.7860081, "lon": 100.6715364}, {"type": "node", "id": 5908018608, "lat": 13.7863336, "lon": 100.6722289}, {"type": "node", "id": 5915491467, "lat": 13.7887921, "lon": 100.6736311}, {"type": "node", "id": 5915491468, "lat": 13.7885793, "lon": 100.6740495}, {"type": "node", "id": 5915491469, "lat": 13.7883285, "lon": 100.6741557}, {"type": "node", "id": 5915491470, "lat": 13.7885164, "lon": 100.6737987}, {"type": "node", "id": 10296301662, "lat": 13.7858113, "lon": 100.675415}, {"type": "node", "id": 10296301663, "lat": 13.7860515, "lon": 100.6752221}, {"type": "node", "id": 10296301664, "lat": 13.7859831, "lon": 100.6751317}, {"type": "node", "id": 10296301665, "lat": 13.786006, "lon": 100.6751133}, {"type": "node", "id": 10296301666, "lat": 13.7861038, "lon": 100.6752425}, {"type": "node", "id": 10296301667, "lat": 13.7858407, "lon": 100.6754539}, {"type": "node", "id": 5909268414, "lat": 13.7896805, "lon": 100.6784142}, {"type": "node", "id": 5909268415, "lat": 13.7896203, "lon": 100.6782688}, {"type": "node", "id": 5909268416, "lat": 13.7897705, "lon": 100.678203}, {"type": "node", "id": 5909268417, "lat": 13.7898306, "lon": 100.6783484}, {"type": "node", "id": 10250021010, "lat": 13.789857, "lon": 100.6783863}, {"type": "node", "id": 10250021011, "lat": 13.7897851, "lon": 100.6781993}, {"type": "node", "id": 10250021012, "lat": 13.7898777, "lon": 100.6781658}, {"type": "node", "id": 10250021013, "lat": 13.7900397, "lon": 100.6783357}, {"type": "node", "id": 10250021014, "lat": 13.7899647, "lon": 100.6781892}, {"type": "node", "id": 10250021015, "lat": 13.7898919, "lon": 100.678212}, {"type": "node", "id": 10250021016, "lat": 13.7900477, "lon": 100.6783392}, {"type": "node", "id": 10250021017, "lat": 13.7899695, "lon": 100.6781622}, {"type": "node", "id": 10250021018, "lat": 13.7900611, "lon": 100.6781192}, {"type": "node", "id": 10250021019, "lat": 13.7901393, "lon": 100.6782963}, {"type": "node", "id": 10250021047, "lat": 13.7898554, "lon": 100.6794134}, {"type": "node", "id": 10250021048, "lat": 13.7897604, "lon": 100.6794757}, {"type": "node", "id": 10250021049, "lat": 13.7896862, "lon": 100.679356}, {"type": "node", "id": 10250021050, "lat": 13.7895052, "lon": 100.6794748}, {"type": "node", "id": 10250021051, "lat": 13.7894814, "lon": 100.6794363}, {"type": "node", "id": 10250021052, "lat": 13.7894509, "lon": 100.6794563}, {"type": "node", "id": 10250021053, "lat": 13.7894781, "lon": 100.6795002}, {"type": "node", "id": 10250021054, "lat": 13.7892781, "lon": 100.6796315}, {"type": "node", "id": 10250021055, "lat": 13.7892157, "lon": 100.6795306}, {"type": "node", "id": 10250021056, "lat": 13.7893608, "lon": 100.6794354}, {"type": "node", "id": 10250021057, "lat": 13.789344, "lon": 100.6794083}, {"type": "node", "id": 10250021058, "lat": 13.7896615, "lon": 100.6792001}, {"type": "node", "id": 10250021059, "lat": 13.7896844, "lon": 100.6792372}, {"type": "node", "id": 10250021060, "lat": 13.7897688, "lon": 100.6791818}, {"type": "node", "id": 10250021061, "lat": 13.7898212, "lon": 100.6792665}, {"type": "node", "id": 10250021062, "lat": 13.7897808, "lon": 100.679293}, {"type": "node", "id": 10296207935, "lat": 13.7878802, "lon": 100.6783906}, {"type": "node", "id": 10296207936, "lat": 13.7877775, "lon": 100.6783655}, {"type": "node", "id": 10296207937, "lat": 13.7877614, "lon": 100.6784353}, {"type": "node", "id": 10296207938, "lat": 13.7878077, "lon": 100.6784467}, {"type": "node", "id": 10296207939, "lat": 13.7877969, "lon": 100.6784933}, {"type": "node", "id": 10296207940, "lat": 13.7878533, "lon": 100.6785071}, {"type": "node", "id": 10296207951, "lat": 13.7876198, "lon": 100.6780062}, {"type": "node", "id": 10296207952, "lat": 13.7875594, "lon": 100.6779605}, {"type": "node", "id": 10296207953, "lat": 13.7874367, "lon": 100.6781325}, {"type": "node", "id": 10296207954, "lat": 13.7875051, "lon": 100.6781842}, {"type": "node", "id": 10296207955, "lat": 13.7875361, "lon": 100.6781813}, {"type": "node", "id": 10296207956, "lat": 13.7875671, "lon": 100.6781378}, {"type": "node", "id": 10296207957, "lat": 13.7875653, "lon": 100.6781}, {"type": "node", "id": 10296207958, "lat": 13.7875812, "lon": 100.67807}, {"type": "node", "id": 10296207959, "lat": 13.7876047, "lon": 100.6780691}, {"type": "node", "id": 10296207960, "lat": 13.7876282, "lon": 100.6780381}, {"type": "node", "id": 5363098695, "lat": 13.7937722, "lon": 100.6690606}, {"type": "node", "id": 5363098698, "lat": 13.7933028, "lon": 100.6697995}, {"type": "node", "id": 5363098699, "lat": 13.7931381, "lon": 100.6692909}, {"type": "node", "id": 5372121728, "lat": 13.7972294, "lon": 100.6695069}, {"type": "node", "id": 5372121729, "lat": 13.7971988, "lon": 100.6695488}, {"type": "node", "id": 5372121730, "lat": 13.7970923, "lon": 100.6695864}, {"type": "node", "id": 5372121731, "lat": 13.7970494, "lon": 100.6694502}, {"type": "node", "id": 5374046854, "lat": 13.79719, "lon": 100.6695199}, {"type": "node", "id": 5374046855, "lat": 13.797195, "lon": 100.6693989}, {"type": "node", "id": 5385294853, "lat": 13.7956605, "lon": 100.6697358}, {"type": "node", "id": 5385294854, "lat": 13.7956719, "lon": 100.669769}, {"type": "node", "id": 5385294855, "lat": 13.7955764, "lon": 100.6698041}, {"type": "node", "id": 5385294856, "lat": 13.795565, "lon": 100.6697709}, {"type": "node", "id": 9605119153, "lat": 13.7930935, "lon": 100.669316}, {"type": "node", "id": 5363098696, "lat": 13.7941947, "lon": 100.6702514}, {"type": "node", "id": 5363098697, "lat": 13.7935755, "lon": 100.6705006}, {"type": "node", "id": 5363098700, "lat": 13.7939662, "lon": 100.6703811}, {"type": "node", "id": 5382939025, "lat": 13.7945697, "lon": 100.6700909}, {"type": "node", "id": 5382939026, "lat": 13.794591, "lon": 100.6701491}, {"type": "node", "id": 5382939027, "lat": 13.7947112, "lon": 100.6701025}, {"type": "node", "id": 5382939028, "lat": 13.7947164, "lon": 100.6701166}, {"type": "node", "id": 5382939029, "lat": 13.7947538, "lon": 100.6701021}, {"type": "node", "id": 5382939030, "lat": 13.7947273, "lon": 100.6700298}, {"type": "node", "id": 5382939031, "lat": 13.7944566, "lon": 100.6700195}, {"type": "node", "id": 5382939032, "lat": 13.7944979, "lon": 100.6701363}, {"type": "node", "id": 5382939033, "lat": 13.7943287, "lon": 100.6701997}, {"type": "node", "id": 5382939034, "lat": 13.7942874, "lon": 100.6700829}, {"type": "node", "id": 9605119154, "lat": 13.7941726, "lon": 100.6703119}, {"type": "node", "id": 5374046842, "lat": 13.7995064, "lon": 100.6684541}, {"type": "node", "id": 5374046843, "lat": 13.7994963, "lon": 100.6684208}, {"type": "node", "id": 5374046844, "lat": 13.7995218, "lon": 100.6684126}, {"type": "node", "id": 5374046845, "lat": 13.7994938, "lon": 100.6683205}, {"type": "node", "id": 5374046846, "lat": 13.7994506, "lon": 100.6683344}, {"type": "node", "id": 5374046847, "lat": 13.7994436, "lon": 100.6683113}, {"type": "node", "id": 5374046848, "lat": 13.799437, "lon": 100.6683134}, {"type": "node", "id": 5374046849, "lat": 13.7994287, "lon": 100.6682862}, {"type": "node", "id": 5374046850, "lat": 13.7992783, "lon": 100.6683347}, {"type": "node", "id": 5374046851, "lat": 13.7993317, "lon": 100.6685104}, {"type": "node", "id": 5423926348, "lat": 13.7988509, "lon": 100.6684876}, {"type": "node", "id": 5423926349, "lat": 13.7988811, "lon": 100.6685865}, {"type": "node", "id": 5423926350, "lat": 13.7988069, "lon": 100.6686105}, {"type": "node", "id": 5423926351, "lat": 13.7987767, "lon": 100.6685117}, {"type": "node", "id": 5915974155, "lat": 13.7960059, "lon": 100.690871}, {"type": "node", "id": 5915974156, "lat": 13.795819, "lon": 100.6909662}, {"type": "node", "id": 5915974157, "lat": 13.7958086, "lon": 100.6910138}, {"type": "node", "id": 5915974158, "lat": 13.7958607, "lon": 100.691042}, {"type": "node", "id": 5915974159, "lat": 13.7960333, "lon": 100.6909568}, {"type": "node", "id": 5915974160, "lat": 13.7960521, "lon": 100.6908945}]}