{"version": 0.6, "generator": "Overpass API 0.7.62.8 e802775f", "osm3s": {"timestamp_osm_base": "2025-11-20T03:22:29Z", "copyright": "The data included in this document is from www.openstreetmap.org. The data is made available under ODbL."}, "elements": [{"type": "node", "id": 742014525, "lat": 13.8018073, "lon": 100.5815635, "tags": {"amenity": "restaurant", "name": "\u0e40\u0e1b\u0e47\u0e14\u0e17\u0e48\u0e32\u0e14\u0e34\u0e19\u0e41\u0e14\u0e07", "name:en": "Ped Tah Din Dang", "name:th": "\u0e40\u0e1b\u0e47\u0e14\u0e17\u0e48\u0e32\u0e14\u0e34\u0e19\u0e41\u0e14\u0e07"}}, {"type": "node", "id": 891242942, "lat": 13.8450988, "lon": 100.567741, "tags": {"name": "KU Home", "tourism": "motel", "wheelchair": "limited"}}, {"type": "node", "id": 891253823, "lat": 13.8477123, "lon": 100.5637517, "tags": {"name": "\u0e2a\u0e33\u0e19\u0e31\u0e01\u0e1e\u0e34\u0e1e\u0e34\u0e18\u0e20\u0e31\u0e13\u0e11\u0e4c\u0e41\u0e25\u0e30\u0e27\u0e31\u0e12\u0e19\u0e18\u0e23\u0e23\u0e21\u0e01\u0e32\u0e23\u0e40\u0e01\u0e29\u0e15\u0e23", "name:en": "Office of Agricultural Museum and Culture", "tourism": "museum"}}, {"type": "node", "id": 891276459, "lat": 13.8421697, "lon": 100.5730707, "tags": {"addr:postcode": "10900", "artwork_type": "statue", "name": "\u0e2d\u0e19\u0e38\u0e2a\u0e32\u0e27\u0e23\u0e35\u0e22\u0e4c\u0e2a\u0e32\u0e21\u0e1a\u0e39\u0e23\u0e1e\u0e32\u0e08\u0e32\u0e23\u0e22\u0e4c", "name:en": "Three Founders of Kasetsart University", "tourism": "artwork"}}, {"type": "node", "id": 893939043, "lat": 13.8434507, "lon": 100.5624468, "tags": {"amenity": "place_of_worship", "name": "The Royal Vibhavadi Condominium", "tourism": "apartment"}}, {"type": "node", "id": 898410434, "lat": 13.8459913, "lon": 100.5687077, "tags": {"amenity": "cafe", "name": "Cafe dot Com", "wheelchair": "limited"}}, {"type": "node", "id": 939955124, "lat": 13.8190637, "lon": 100.5923155, "tags": {"addr:housename": "Java cafe", "addr:postcode": "10900", "addr:province": "\u0e01\u0e23\u0e38\u0e07\u0e40\u0e17\u0e1e\u0e21\u0e2b\u0e32\u0e19\u0e04\u0e23", "addr:street": "\u0e16\u0e19\u0e19\u0e25\u0e32\u0e14\u0e1e\u0e23\u0e49\u0e32\u0e27\u0e27\u0e31\u0e07\u0e2b\u0e34\u0e19", "amenity": "cafe", "cuisine": "Coffee", "internet_access": "yes", "name": "Java Cafe House"}}, {"type": "node", "id": 1095803064, "lat": 13.8454256, "lon": 100.5670856, "tags": {"amenity": "cafe"}}, {"type": "node", "id": 1096398823, "lat": 13.8452903, "lon": 100.569208, "tags": {"addr:postcode": "10900", "amenity": "cafe", "name": "Anna\u2019s Coffee", "wheelchair": "limited"}}, {"type": "node", "id": 1199636791, "lat": 13.840355, "lon": 100.598128, "tags": {"amenity": "restaurant", "name": "\u0e28\u0e34\u0e23\u0e34\u0e27\u0e23\u0e23\u0e13 \u0e2b\u0e2d\u0e22\u0e17\u0e2d\u0e14-\u0e1c\u0e31\u0e14\u0e44\u0e17\u0e22", "name:en": "Siri Wan Hoi Thot - Phat Thai", "name:th": "\u0e28\u0e34\u0e23\u0e34\u0e27\u0e23\u0e23\u0e13 \u0e2b\u0e2d\u0e22\u0e17\u0e2d\u0e14-\u0e1c\u0e31\u0e14\u0e44\u0e17\u0e22"}}, {"type": "node", "id": 1374579876, "lat": 13.845135, "lon": 100.5676468, "tags": {"amenity": "cafe"}}, {"type": "node", "id": 1374585057, "lat": 13.842545, "lon": 100.5756015, "tags": {"name": "\u0e2a\u0e16\u0e32\u0e19\u0e41\u0e2a\u0e14\u0e07\u0e1e\u0e31\u0e19\u0e18\u0e38\u0e4c\u0e2a\u0e31\u0e15\u0e27\u0e4c\u0e19\u0e49\u0e33\u0e08\u0e37\u0e14 \u0e40\u0e01\u0e29\u0e15\u0e23\u0e01\u0e25\u0e32\u0e07", "tourism": "museum"}}, {"type": "node", "id": 1374591730, "lat": 13.8442795, "lon": 100.5691042, "tags": {"amenity": "cafe", "name": "\u0e21\u0e48\u0e32\u0e1e\u0e23"}}, {"type": "node", "id": 1374624662, "lat": 13.8427882, "lon": 100.570694, "tags": {"amenity": "cafe", "name": "\u0e23\u0e49\u0e32\u0e19\u0e01\u0e32\u0e41\u0e1f\u0e17\u0e35\u0e48\u0e2d\u0e32\u0e04\u0e32\u0e23\u0e08\u0e2d\u0e01\u0e23\u0e16\u0e1b\u0e23\u0e30\u0e15\u0e391", "wheelchair": "yes"}}, {"type": "node", "id": 1374630615, "lat": 13.8459386, "lon": 100.5653474, "tags": {"amenity": "cafe", "name": "Coffee World", "wheelchair": "yes"}}, {"type": "node", "id": 1374630761, "lat": 13.8491394, "lon": 100.5717459, "tags": {"amenity": "restaurant", "name": "\u0e1a\u0e32\u0e23\u0e4c soil", "wheelchair": "no"}}, {"type": "node", "id": 1374631533, "lat": 13.8440998, "lon": 100.5701162, "tags": {"amenity": "restaurant", "name": "\u0e23\u0e49\u0e32\u0e19\u0e20\u0e39\u0e21\u0e34\u0e43\u0e08"}}, {"type": "node", "id": 1374643158, "lat": 13.8436597, "lon": 100.5710405, "tags": {"amenity": "restaurant", "cuisine": "thai", "name": "\u0e2b\u0e49\u0e2d\u0e07\u0e2d\u0e32\u0e2b\u0e32\u0e23\u0e41\u0e01\u0e49\u0e27\u0e40\u0e01\u0e29\u0e15\u0e23"}}, {"type": "node", "id": 1374644031, "lat": 13.8438498, "lon": 100.5706848, "tags": {"amenity": "restaurant", "name": "\u0e23\u0e49\u0e32\u0e19\u0e2d\u0e32\u0e2b\u0e32\u0e23"}}, {"type": "node", "id": 1374644770, "lat": 13.8433442, "lon": 100.5713133, "tags": {"amenity": "cafe"}}, {"type": "node", "id": 1374648065, "lat": 13.8450869, "lon": 100.5766117, "tags": {"historic": "monument"}}, {"type": "node", "id": 1374746784, "lat": 13.8409383, "lon": 100.5754932, "tags": {"addr:postcode": "10900", "artwork_type": "sculpture", "mapillary": "https://www.mapillary.com/app/user/kisayaha?lat=13.840831350548044&lng=100.5756678433163&z=17&pKey=7QJ59EBFPR7a1hmHCBIQFw&feedItem=user-1nzlGB8Qn_X8dVGHwOQZCg-activity-user-1nzlGB8Qn_X8dVGHwOQZCg-publishing_done-image%3A1552261689858", "name": "\u0e1e\u0e23\u0e30\u0e1e\u0e34\u0e23\u0e38\u0e13\u0e17\u0e23\u0e07\u0e19\u0e32\u0e04", "name:en": "Varuna Riding Naga", "tourism": "artwork"}}, {"type": "node", "id": 1374904132, "lat": 13.8462565, "lon": 100.5762156, "tags": {"amenity": "restaurant", "name": "\u0e23\u0e49\u0e32\u0e19\u0e01\u0e4b\u0e27\u0e22\u0e40\u0e15\u0e35\u0e4b\u0e22\u0e27\u0e42\u0e01\u0e2b\u0e27\u0e34\u0e25"}}, {"type": "node", "id": 1374904165, "lat": 13.8460794, "lon": 100.576634, "tags": {"name": "\u0e42\u0e04\u0e23\u0e07\u0e01\u0e32\u0e23\u0e2b\u0e32\u0e1a\u0e49\u0e32\u0e19\u0e43\u0e2b\u0e21\u0e48\u0e43\u0e2b\u0e49\u0e2a\u0e38\u0e19\u0e31\u0e02\u0e08\u0e23\u0e08\u0e31\u0e14", "tourism": "guest_house"}}, {"type": "node", "id": 1524659674, "lat": 13.8457725, "lon": 100.5663888, "tags": {"name": "\u0e2b\u0e2d\u0e1b\u0e23\u0e30\u0e27\u0e31\u0e15\u0e34\u0e2f", "tourism": "museum"}}, {"type": "node", "id": 1534921847, "lat": 13.8481932, "lon": 100.582884, "tags": {"addr:street": "Phaholyothin 44", "name": "\u0e1a\u0e49\u0e32\u0e19\u0e40\u0e09\u0e25\u0e35\u0e22\u0e07\u0e2d\u0e1e\u0e32\u0e17\u0e23\u0e4c\u0e40\u0e21\u0e19\u0e15\u0e4c", "name:en": "Balcony Home", "name:th": "\u0e1a\u0e49\u0e32\u0e19\u0e40\u0e09\u0e25\u0e35\u0e22\u0e07\u0e2d\u0e1e\u0e32\u0e17\u0e23\u0e4c\u0e40\u0e21\u0e19\u0e15\u0e4c", "tourism": "hotel"}}, {"type": "node", "id": 1597519195, "lat": 13.8483117, "lon": 100.5666558, "tags": {"amenity": "cafe", "cuisine": "coffee_shop", "name": "Cafe 2 All"}}, {"type": "node", "id": 1597519236, "lat": 13.8433243, "lon": 100.5679317, "tags": {"amenity": "restaurant", "cuisine": "steak", "name": "Jeffer"}}, {"type": "node", "id": 1597519254, "lat": 13.8398027, "lon": 100.573719, "tags": {"amenity": "restaurant", "cuisine": "steak", "name": "Gorilla Steak"}}, {"type": "node", "id": 1597519911, "lat": 13.8406875, "lon": 100.5733409, "tags": {"amenity": "restaurant", "name": "Sam steak and More"}}, {"type": "node", "id": 1597519912, "lat": 13.8401771, "lon": 100.574226, "tags": {"amenity": "restaurant", "name": "\u0e0a\u0e32\u0e25\u0e35 Steak"}}, {"type": "node", "id": 1597519913, "lat": 13.8405573, "lon": 100.5735605, "tags": {"amenity": "restaurant", "cuisine": "steak_house", "name": "Steak and More", "opening_hours": "11:00-21:30"}}, {"type": "node", "id": 1597520812, "lat": 13.8369107, "lon": 100.5751919, "tags": {"addr:street": "\u0e1e\u0e2b\u0e25\u0e42\u0e22\u0e18\u0e34\u0e19", "amenity": "restaurant", "cuisine": "thai", "name": "\u0e23\u0e49\u0e32\u0e19 \u0e1b.4"}}, {"type": "node", "id": 1597523738, "lat": 13.8463548, "lon": 100.5697134, "tags": {"amenity": "restaurant", "name": "IUP Canteen", "name:en": "IUP Canteen", "name:th": "\u0e42\u0e23\u0e07\u0e2d\u0e32\u0e2b\u0e32\u0e23 IUP", "wheelchair": "no"}}, {"type": "node", "id": 1597527210, "lat": 13.8488585, "lon": 100.569151, "tags": {"addr:housename": "\u0e21\u0e191", "amenity": "restaurant", "name": "\u0e23\u0e49\u0e32\u0e19\u0e1e\u0e35\u0e48\u0e41\u0e1e\u0e19", "wheelchair": "no"}}, {"type": "node", "id": 1597531820, "lat": 13.8458805, "lon": 100.5795207, "tags": {"addr:street": "\u0e1e\u0e2b\u0e25\u0e42\u0e22\u0e18\u0e34\u0e19", "amenity": "restaurant", "name": "\u0e2b\u0e21\u0e39\u0e17\u0e2d\u0e14\u0e40\u0e08\u0e35\u0e22\u0e07\u0e2e\u0e32\u0e22"}}, {"type": "node", "id": 1597533678, "lat": 13.8397419, "lon": 100.5735606, "tags": {"amenity": "restaurant", "cuisine": "thai", "name": "\u0e04\u0e23\u0e31\u0e27\u0e01\u0e38\u0e4a\u0e01\u0e44\u0e01\u0e48"}}, {"type": "node", "id": 1597537463, "lat": 13.8479629, "lon": 100.5734097, "tags": {"amenity": "cafe", "name": "KU Fresh milk"}}, {"type": "node", "id": 1597542319, "lat": 13.8485394, "lon": 100.5666525, "tags": {"amenity": "cafe", "cuisine": "coffee_shop", "name": "KU for U"}}, {"type": "node", "id": 1654273117, "lat": 13.8391641, "lon": 100.5509121, "tags": {"amenity": "marketplace", "name": "Bon March\u00e9 Market Park"}}, {"type": "node", "id": 1711215674, "lat": 13.8299422, "lon": 100.5638276, "tags": {"name": "Northgate Ratchayothin", "phone": "+66 2 9397949", "tourism": "hotel", "website": "https://www.northgatebangkok.com/"}}, {"type": "node", "id": 1711218300, "lat": 13.829911, "lon": 100.5636452, "tags": {"addr:housename": "Northgate Ratchayothin", "alt_name": "248 Cafe&Bar", "amenity": "restaurant", "cuisine": "international", "name": "Two Forty-Eight Cafe&Bar", "website": "https://northgatebangkok.com/248/"}}, {"type": "node", "id": 1756154635, "lat": 13.8001841, "lon": 100.5749583, "tags": {"amenity": "restaurant", "cuisine": "\u0e19\u0e32\u0e19\u0e32\u0e0a\u0e32\u0e15\u0e34", "name": "\u0e40\u0e2d\u0e2a\u0e41\u0e2d\u0e19\u0e14\u0e4c\u0e1e\u0e35", "opening_hours": "08:00-21:00"}}, {"type": "node", "id": 1757243887, "lat": 13.8041879, "lon": 100.5968168, "tags": {"amenity": "restaurant", "cuisine": "thai", "name": "\u0e23\u0e49\u0e32\u0e19\u0e25\u0e32\u0e1a\u0e0b\u0e31\u0e14\u0e14\u0e33", "name:th": "\u0e23\u0e49\u0e32\u0e19\u0e25\u0e32\u0e1a\u0e0b\u0e31\u0e14\u0e14\u0e33"}}, {"type": "node", "id": 1892762651, "lat": 13.8259618, "lon": 100.5571309, "tags": {"amenity": "restaurant", "name": "\u0e23\u0e49\u0e32\u0e19\u0e2d\u0e32\u0e2b\u0e32\u0e23\u0e40\u0e1e\u0e25\u0e34\u0e19", "name:en": "Ploen", "name:th": "\u0e23\u0e49\u0e32\u0e19\u0e2d\u0e32\u0e2b\u0e32\u0e23\u0e40\u0e1e\u0e25\u0e34\u0e19"}}, {"type": "node", "id": 1958715657, "lat": 13.8040654, "lon": 100.5769614, "tags": {"amenity": "restaurant", "cuisine": "thai", "name": "\u0e25\u0e49\u0e32\u0e19\u0e02\u0e49\u0e32\u0e27"}}, {"type": "node", "id": 2071894703, "lat": 13.8281074, "lon": 100.5672085, "tags": {"amenity": "cafe", "cuisine": "ice_cream", "floor": "1", "image": "http://i.imgur.com/f8nNw.jpg", "name": "Iberry", "website": "http://www.iberryhomemade.com"}}, {"type": "node", "id": 2071894704, "lat": 13.8281086, "lon": 100.5673024, "tags": {"amenity": "restaurant", "floor": "1", "image": "http://i.imgur.com/wcmBE.jpg", "name": "Secret Garden", "website": "http://www.secretgarden-cuisine.com/"}}, {"type": "node", "id": 2071894705, "lat": 13.8281998, "lon": 100.5669469, "tags": {"amenity": "restaurant", "floor": "1", "name": "Greyhound Cafe"}}, {"type": "node", "id": 2071894708, "lat": 13.8282142, "lon": 100.567171, "tags": {"amenity": "restaurant", "floor": "1", "name": "Nuan Prang's Noodle Bar and Grill"}}, {"type": "node", "id": 2071908601, "lat": 13.8282155, "lon": 100.5666278, "tags": {"amenity": "cafe", "floor": "1", "name": "Mr.Cup T"}}, {"type": "node", "id": 2072480280, "lat": 13.8283294, "lon": 100.5669407, "tags": {"amenity": "restaurant", "cuisine": "thai", "floor": "1", "name": "Rodniyom \u0e23\u0e2a\u0e19\u0e34\u0e22\u0e21"}}, {"type": "node", "id": 2099153377, "lat": 13.8383287, "lon": 100.551255, "tags": {"name": "artteach", "tourism": "artwork"}}, {"type": "node", "id": 2099171796, "lat": 13.8392706, "lon": 100.5506137, "tags": {"amenity": "marketplace", "name": "\u0e23\u0e49\u0e32\u0e19\u0e02\u0e49\u0e32\u0e27\u0e15\u0e49\u0e21\u0e0b\u0e35\u0e48\u0e42\u0e04\u0e23\u0e07\u0e2b\u0e21\u0e39"}}, {"type": "node", "id": 2099171798, "lat": 13.8392094, "lon": 100.5506284, "tags": {"amenity": "marketplace"}}, {"type": "node", "id": 2099176554, "lat": 13.8281249, "lon": 100.5673726, "tags": {"amenity": "cafe", "cuisine": "ice_cream", "floor": "0", "name": "Red Mango"}}, {"type": "node", "id": 2099193108, "lat": 13.8282591, "lon": 100.5665124, "tags": {"amenity": "restaurant", "floor": "1", "name": "Oishi Express"}}, {"type": "node", "id": 2099193109, "lat": 13.8282161, "lon": 100.5665486, "tags": {"amenity": "cafe", "cuisine": "ice_cream", "floor": "1", "name": "Party ice"}}, {"type": "node", "id": 2099193729, "lat": 13.8282793, "lon": 100.566548, "tags": {"amenity": "restaurant", "floor": "1", "image": "http://i.imgur.com/04Mfy.jpg", "name": "Ootaya Japanese"}}, {"type": "node", "id": 2099193889, "lat": 13.8282858, "lon": 100.5665862, "tags": {"amenity": "restaurant", "floor": "1", "image": "http://i.imgur.com/2ZACv.jpg", "name": "Shabuton"}}, {"type": "node", "id": 2099194162, "lat": 13.8282533, "lon": 100.5671455, "tags": {"amenity": "restaurant", "floor": "1", "name": "Fuji"}}, {"type": "node", "id": 2106898472, "lat": 13.8282181, "lon": 100.5667525, "tags": {"amenity": "cafe", "brand": "Starbucks", "brand:wikidata": "Q37158", "brand:wikipedia": "en:Starbucks", "cuisine": "coffee_shop", "floor": "1", "image": "http://i.imgur.com/Wm848.jpg", "name": "Starbucks", "name:en": "Starbucks Coffee", "name:th": "\u0e2a\u0e15\u0e32\u0e23\u0e4c\u0e1a\u0e31\u0e04\u0e2a\u0e4c", "official_name": "Starbucks Coffee", "opening_hours": "24/7", "shop": "coffee", "smoking": "no", "takeaway": "yes", "website": "https://www.starbucks.com/"}}, {"type": "node", "id": 2109117507, "lat": 13.8393711, "lon": 100.5514464, "tags": {"amenity": "marketplace"}}, {"type": "node", "id": 2109117517, "lat": 13.8393803, "lon": 100.5513364, "tags": {"amenity": "marketplace"}}, {"type": "node", "id": 2109117520, "lat": 13.839392, "lon": 100.5512224, "tags": {"amenity": "marketplace", "name": "\u0e23\u0e49\u0e32\u0e19\u0e02\u0e32\u0e22\u0e2d\u0e32\u0e2b\u0e32\u0e23\u0e1b\u0e34\u0e49\u0e07\u0e22\u0e48\u0e32\u0e07"}}, {"type": "node", "id": 2109124225, "lat": 13.8393939, "lon": 100.5511051, "tags": {"amenity": "cafe"}}, {"type": "node", "id": 2109124226, "lat": 13.8393809, "lon": 100.5509016, "tags": {"amenity": "restaurant"}}, {"type": "node", "id": 2109124228, "lat": 13.8393871, "lon": 100.550981, "tags": {"amenity": "restaurant", "wheelchair": "limited"}}, {"type": "node", "id": 2109136589, "lat": 13.8393275, "lon": 100.5513358, "tags": {"amenity": "marketplace"}}, {"type": "node", "id": 2109136596, "lat": 13.8394304, "lon": 100.551146, "tags": {"tourism": "information"}}, {"type": "node", "id": 2109253576, "lat": 13.8391712, "lon": 100.5511078, "tags": {"amenity": "marketplace"}}, {"type": "node", "id": 2199691002, "lat": 13.809615, "lon": 100.5626619, "tags": {"amenity": "restaurant", "cuisine": "thai", "name": "Little By Little"}}, {"type": "node", "id": 2621872482, "lat": 13.8301625, "lon": 100.5637193, "tags": {"addr:housenumber": "156/5", "addr:street": "Soi Ratchadapisek 46/1", "name": "Serene Bangkok Bed & Breakfast", "phone": "+66 2 9302009;+66 2 9302291;+66 81 8270842", "tourism": "guest_house", "website": "http://baanserene.com"}}, {"type": "node", "id": 2640789618, "lat": 13.8271304, "lon": 100.5647372, "tags": {"addr:housenumber": "9", "addr:postcode": "10900", "addr:street": "\u0e16\u0e19\u0e19\u0e23\u0e31\u0e0a\u0e14\u0e32\u0e20\u0e34\u0e40\u0e29\u0e01", "name": "\u0e1e\u0e34\u0e1e\u0e34\u0e18\u0e20\u0e31\u0e13\u0e11\u0e4c\u0e18\u0e19\u0e32\u0e04\u0e32\u0e23\u0e44\u0e17\u0e22", "name:en": "Thai Bank Museum", "operator": "SCB", "phone": "0 2544 4526", "tourism": "museum", "website": "www.thaibankmuseum.or.th/"}}, {"type": "node", "id": 3221168079, "lat": 13.8444475, "lon": 100.5685912, "tags": {"amenity": "cafe", "cuisine": "coffee_shop", "name": "BlueCup", "source": "survey"}}, {"type": "node", "id": 3221168080, "lat": 13.8444602, "lon": 100.5685648, "tags": {"amenity": "restaurant", "name": "\u0e40\u0e2d\u0e2a \u0e41\u0e2d\u0e19\u0e14\u0e4c \u0e1e\u0e35", "name:en": "S&P", "name:th": "\u0e40\u0e2d\u0e2a \u0e41\u0e2d\u0e19\u0e14\u0e4c \u0e1e\u0e35", "shop": "bakery", "source": "survey"}}, {"type": "node", "id": 3431325835, "lat": 13.8165455, "lon": 100.5609327, "tags": {"amenity": "cafe", "brand": "Starbucks", "brand:wikidata": "Q37158", "brand:wikipedia": "en:Starbucks", "cuisine": "coffee_shop", "name": "Starbucks", "name:en": "Starbucks Coffee", "name:th": "\u0e2a\u0e15\u0e32\u0e23\u0e4c\u0e1a\u0e31\u0e04\u0e2a\u0e4c", "official_name": "Starbucks Coffee", "shop": "coffee", "smoking": "no", "takeaway": "yes", "website": "https://www.starbucks.com/"}}, {"type": "node", "id": 3431325836, "lat": 13.8174787, "lon": 100.5615381, "tags": {"amenity": "cafe", "brand": "Starbucks", "brand:wikidata": "Q37158", "brand:wikipedia": "en:Starbucks", "cuisine": "coffee_shop", "name": "Starbucks", "name:en": "Starbucks Coffee", "name:th": "\u0e2a\u0e15\u0e32\u0e23\u0e4c\u0e1a\u0e31\u0e04\u0e2a\u0e4c", "official_name": "Starbucks Coffee", "shop": "coffee", "smoking": "no", "takeaway": "yes", "website": "https://www.starbucks.com/"}}, {"type": "node", "id": 3431325838, "lat": 13.8237551, "lon": 100.591946, "tags": {"amenity": "cafe", "brand": "Starbucks", "brand:wikidata": "Q37158", "brand:wikipedia": "en:Starbucks", "cuisine": "coffee_shop", "name": "Starbucks", "name:en": "Starbucks Coffee", "name:th": "\u0e2a\u0e15\u0e32\u0e23\u0e4c\u0e1a\u0e31\u0e04\u0e2a\u0e4c", "official_name": "Starbucks Coffee", "shop": "coffee", "smoking": "no", "takeaway": "yes", "website": "https://www.starbucks.com/"}}, {"type": "node", "id": 3431325839, "lat": 13.8272735, "lon": 100.5647579, "tags": {"amenity": "cafe", "brand": "Starbucks", "brand:wikidata": "Q37158", "brand:wikipedia": "en:Starbucks", "cuisine": "coffee_shop", "name": "Starbucks", "name:en": "Starbucks Coffee", "name:th": "\u0e2a\u0e15\u0e32\u0e23\u0e4c\u0e1a\u0e31\u0e04\u0e2a\u0e4c", "official_name": "Starbucks Coffee", "shop": "coffee", "smoking": "no", "takeaway": "yes", "website": "https://www.starbucks.com/"}}, {"type": "node", "id": 3431325840, "lat": 13.8440269, "lon": 100.5669622, "tags": {"amenity": "cafe", "brand": "\u0e04\u0e32\u0e40\u0e1f\u0e48 \u0e2d\u0e40\u0e21\u0e0b\u0e2d\u0e19", "brand:en": "Caf\u00e9 Amazon", "brand:th": "\u0e04\u0e32\u0e40\u0e1f\u0e48 \u0e2d\u0e40\u0e21\u0e0b\u0e2d\u0e19", "brand:wikidata": "Q43247503", "brand:wikipedia": "en:Caf\u00e9 Amazon", "cuisine": "coffee_shop", "name": "\u0e04\u0e32\u0e40\u0e1f\u0e48 \u0e2d\u0e40\u0e21\u0e0b\u0e2d\u0e19", "name:en": "Caf\u00e9 Amazon", "name:th": "\u0e04\u0e32\u0e40\u0e1f\u0e48 \u0e2d\u0e40\u0e21\u0e0b\u0e2d\u0e19", "outdoor_seating": "no", "takeaway": "yes"}}, {"type": "node", "id": 3660139258, "lat": 13.8035447, "lon": 100.556355, "tags": {"name": "G9 Bangkok", "tourism": "hotel"}}, {"type": "node", "id": 3800639072, "lat": 13.8317206, "lon": 100.566972, "tags": {"name": "Pannapat Service Apartments", "tourism": "hotel"}}, {"type": "node", "id": 3825838957, "lat": 13.8452529, "lon": 100.5732172, "tags": {"amenity": "cafe", "cuisine": "thai", "name": "\u0e23\u0e49\u0e32\u0e19\u0e01\u0e32\u0e41\u0e1f\u0e0a\u0e39\u0e43\u0e1a"}}, {"type": "node", "id": 3930714275, "lat": 13.8027773, "lon": 100.5516552, "tags": {"amenity": "restaurant"}}, {"type": "node", "id": 4122421389, "lat": 13.83979, "lon": 100.5825, "tags": {"name": "Livotel", "tourism": "hotel"}}, {"type": "node", "id": 4194721890, "lat": 13.8395026, "lon": 100.5825739, "tags": {"name": "Livotel", "phone": "6629419901", "tourism": "hotel"}}, {"type": "node", "id": 4195103390, "lat": 13.8400744, "lon": 100.5955857, "tags": {"amenity": "restaurant", "cuisine": "thai", "name": "Crokmai Thai Lao Restaurant No 1", "phone": "6625706234"}}, {"type": "node", "id": 4253755577, "lat": 13.8159448, "lon": 100.5618826, "tags": {"amenity": "cafe"}}, {"type": "node", "id": 4294122090, "lat": 13.8033784, "lon": 100.5569663, "tags": {"alt_name": "\u0e2a\u0e19\u0e32\u0e21\u0e21\u0e27\u0e22\u0e0a\u0e48\u0e2d\u0e07 7;\u0e40\u0e27\u0e17\u0e35\u0e21\u0e27\u0e22\u0e44\u0e17\u0e22 7 \u0e2a\u0e35", "leisure": "stadium", "name": "\u0e2a\u0e19\u0e32\u0e21\u0e21\u0e27\u0e22\u0e40\u0e27\u0e17\u0e35\u0e2a\u0e16\u0e32\u0e19\u0e35\u0e42\u0e17\u0e23\u0e17\u0e31\u0e28\u0e19\u0e4c\u0e2a\u0e35\u0e01\u0e2d\u0e07\u0e17\u0e31\u0e1e\u0e1a\u0e01\u0e0a\u0e48\u0e2d\u0e07 7", "name:en": "Channel 7 Boxing Stadium", "opening_hours": "Su 10:00-22:00", "sport": "boxing", "tourism": "attraction"}}, {"type": "node", "id": 4317753490, "lat": 13.828768, "lon": 100.5593386, "tags": {"addr:housenumber": "7/44", "addr:postcode": "10900", "addr:street": "\u0e0b\u0e2d\u0e22\u0e27\u0e34\u0e20\u0e32\u0e27\u0e14\u0e35 36 \u0e41\u0e22\u0e01 2", "name": "\u0e2b\u0e2d\u0e1e\u0e31\u0e01\u0e01\u0e23\u0e35\u0e19\u0e2a\u0e40\u0e1b\u0e0b \u0e2d\u0e1e\u0e32\u0e23\u0e4c\u0e17\u0e40\u0e21\u0e19\u0e17\u0e4c", "tourism": "hostel"}}, {"type": "node", "id": 4439853589, "lat": 13.8413313, "lon": 100.5717241, "tags": {"amenity": "cafe", "internet_access": "wlan", "name": "R.E.A.D Caf\u00e9", "name:en": "R.E.A.D Caf\u00e9", "opening_hours": "24/7"}}, {"type": "node", "id": 4469400090, "lat": 13.8220346, "lon": 100.5579931, "tags": {"tourism": "picnic_site"}}, {"type": "node", "id": 4485215493, "lat": 13.802217, "lon": 100.5517825, "tags": {"name:en": "jj market map", "name:ko": "\uc9dd\ud22c\uc791 \uc9c0\ub3c4 \ubc30\ud3ec", "tourism": "information"}}, {"type": "node", "id": 4511698391, "lat": 13.822344, "lon": 100.596347, "tags": {"amenity": "cafe", "name:en": "dude cafe"}}, {"type": "node", "id": 4511701291, "lat": 13.808339, "lon": 100.59106, "tags": {"amenity": "cafe", "cuisine": "coffee_shop", "name:en": "choco leaf by breadroom"}}, {"type": "node", "id": 4511701292, "lat": 13.803767, "lon": 100.59352, "tags": {"amenity": "cafe", "cuisine": "american;coffee_shop", "name:en": "people on pause"}}, {"type": "node", "id": 4511715690, "lat": 13.8327154, "lon": 100.5882565, "tags": {"amenity": "cafe", "name:en": "treat cafe"}}, {"type": "node", "id": 4531768791, "lat": 13.8191518, "lon": 100.5925047, "tags": {"amenity": "cafe", "name": "Coffee Planet", "outdoor_seating": "yes", "smoking": "no"}}, {"type": "node", "id": 4531934212, "lat": 13.8193631, "lon": 100.5925082, "tags": {"amenity": "cafe", "cuisine": "coffee_shop", "name": "Doi Chaang Caffe"}}, {"type": "node", "id": 4536966589, "lat": 13.8008958, "lon": 100.550015, "tags": {"name:en": "Doggies", "tourism": "attraction"}}, {"type": "node", "id": 4609521393, "lat": 13.8260671, "lon": 100.5585139, "tags": {"amenity": "cafe", "name:en": "Black Canyon"}}, {"type": "node", "id": 4609521395, "lat": 13.8156514, "lon": 100.5602018, "tags": {"amenity": "restaurant", "name:en": "MK"}}, {"type": "node", "id": 4609521594, "lat": 13.8156777, "lon": 100.5602974, "tags": {"amenity": "restaurant", "name:en": "Sushi Den"}}, {"type": "node", "id": 4609522092, "lat": 13.8157029, "lon": 100.5603824, "tags": {"amenity": "restaurant"}}, {"type": "node", "id": 4609531290, "lat": 13.8157792, "lon": 100.5606311, "tags": {"amenity": "restaurant", "name:en": "On the Table"}}, {"type": "node", "id": 4609531291, "lat": 13.815753, "lon": 100.560543, "tags": {"amenity": "restaurant", "name:en": "Zen"}}, {"type": "node", "id": 4609564789, "lat": 13.8157266, "lon": 100.560457, "tags": {"amenity": "restaurant", "name:en": "Talingpling"}}, {"type": "node", "id": 4609761599, "lat": 13.8162965, "lon": 100.5600437, "tags": {"amenity": "restaurant", "name:en": "Cafe Chilli Zaap"}}, {"type": "node", "id": 4609763197, "lat": 13.8164947, "lon": 100.5607752, "tags": {"tourism": "information"}}, {"type": "node", "id": 4609763198, "lat": 13.8162664, "lon": 100.5599475, "tags": {"amenity": "restaurant", "name:en": "Din Tai Fung"}}, {"type": "node", "id": 4620815494, "lat": 13.8276523, "lon": 100.5674669, "tags": {"amenity": "restaurant", "name:en": "Wine Society"}}, {"type": "node", "id": 4620839892, "lat": 13.8279756, "lon": 100.567435, "tags": {"amenity": "cafe", "brand": "Caf\u00e9 Amazon", "brand:wikidata": "Q43247503", "brand:wikipedia": "en:Caf\u00e9 Amazon", "cuisine": "coffee_shop", "name": "Caf\u00e9 Amazon", "name:en": "Amazon", "takeaway": "yes"}}, {"type": "node", "id": 4620839893, "lat": 13.8282234, "lon": 100.5679601, "tags": {"amenity": "restaurant", "brand": "Bonchon Chicken", "brand:wikidata": "Q4941248", "cuisine": "chicken;korean;sushi", "name": "Bonchon Chicken", "name:en": "Bon Chon"}}, {"type": "node", "id": 4620839894, "lat": 13.8281666, "lon": 100.5679664, "tags": {"amenity": "restaurant", "name:en": "Talalum"}}, {"type": "node", "id": 4620839895, "lat": 13.8287476, "lon": 100.5686293, "tags": {"amenity": "restaurant", "name:en": "Jeffer"}}, {"type": "node", "id": 4620839896, "lat": 13.828748, "lon": 100.5683887, "tags": {"amenity": "restaurant", "name:en": "Kimchi Hour"}}, {"type": "node", "id": 4620839898, "lat": 13.82855, "lon": 100.5681696, "tags": {"amenity": "restaurant"}}, {"type": "node", "id": 4620839899, "lat": 13.828356, "lon": 100.5684145, "tags": {"amenity": "restaurant", "name:en": "Hachiban Ramen"}}, {"type": "node", "id": 4620840594, "lat": 13.8288415, "lon": 100.5685742, "tags": {"amenity": "cafe", "name": "Black Canyon", "name:en": "Black Canyon"}}, {"type": "node", "id": 4620840595, "lat": 13.8286076, "lon": 100.5686311, "tags": {"amenity": "restaurant", "name:en": "MK"}}, {"type": "node", "id": 4620841993, "lat": 13.8285104, "lon": 100.568232, "tags": {"amenity": "restaurant", "name:en": "Yen-Ta-Fo"}}, {"type": "node", "id": 4620842091, "lat": 13.8293727, "lon": 100.5626956, "tags": {"amenity": "restaurant", "name:en": "Box Space"}}, {"type": "node", "id": 4620842095, "lat": 13.828753, "lon": 100.5683215, "tags": {"amenity": "cafe", "name:en": "APBO"}}, {"type": "node", "id": 4620842296, "lat": 13.8302388, "lon": 100.5697946, "tags": {"amenity": "cafe", "name:en": "Del Stella"}}, {"type": "node", "id": 4620843390, "lat": 13.8279254, "lon": 100.5674841, "tags": {"amenity": "restaurant", "cuisine": "japanese", "name:en": "Kin"}}, {"type": "node", "id": 4620843391, "lat": 13.8284462, "lon": 100.5685888, "tags": {"amenity": "restaurant", "brand": "Sizzler", "brand:wikidata": "Q1848822", "brand:wikipedia": "en:Sizzler", "cuisine": "steak_house", "name": "Sizzler", "name:en": "Sizzler"}}, {"type": "node", "id": 4620843395, "lat": 13.8284003, "lon": 100.5685456, "tags": {"amenity": "restaurant", "name:en": "Swensen's"}}, {"type": "node", "id": 4620843396, "lat": 13.8283696, "lon": 100.5684873, "tags": {"amenity": "restaurant", "name:en": "See Fah"}}, {"type": "node", "id": 4620843398, "lat": 13.8293279, "lon": 100.5691588, "tags": {"amenity": "restaurant"}}, {"type": "node", "id": 4620844194, "lat": 13.8283627, "lon": 100.5683741, "tags": {"amenity": "restaurant", "name:en": "Yum Saap"}}, {"type": "node", "id": 4620844195, "lat": 13.8285154, "lon": 100.568382, "tags": {"amenity": "restaurant", "name:en": "Chou Nan"}}, {"type": "node", "id": 4620846391, "lat": 13.8283626, "lon": 100.5681162, "tags": {"amenity": "restaurant", "name:en": "Manee Me More"}}, {"type": "node", "id": 4620846393, "lat": 13.8281169, "lon": 100.5686432, "tags": {"amenity": "restaurant"}}, {"type": "node", "id": 4620846394, "lat": 13.8280391, "lon": 100.568596, "tags": {"amenity": "restaurant", "name:en": "Let's Sator"}}, {"type": "node", "id": 4620846690, "lat": 13.8284806, "lon": 100.5681389, "tags": {"amenity": "restaurant", "name:en": "Nua'ver"}}, {"type": "node", "id": 4620851689, "lat": 13.8284475, "lon": 100.5685305, "tags": {"amenity": "restaurant", "name:en": "Yayoi"}}, {"type": "node", "id": 4620851690, "lat": 13.8284014, "lon": 100.5683792, "tags": {"amenity": "cafe", "name:en": "Southern"}}, {"type": "node", "id": 4620853593, "lat": 13.8258585, "lon": 100.5671223, "tags": {"amenity": "cafe", "name:en": "Blue Kitten"}}, {"type": "node", "id": 4620869789, "lat": 13.8273322, "lon": 100.5681035, "tags": {"amenity": "cafe", "name:en": "Wake Up"}}, {"type": "node", "id": 4631013489, "lat": 13.8041938, "lon": 100.552491, "tags": {"amenity": "cafe", "name:en": "Street food cafe", "name:ru": "\u0423\u043b\u0438\u0447\u043d\u044b\u0435 \u043a\u0430\u0444\u0435"}}, {"type": "node", "id": 4634245460, "lat": 13.8009201, "lon": 100.5523179, "tags": {"name": "Help Center", "tourism": "information"}}, {"type": "node", "id": 4636295690, "lat": 13.8457688, "lon": 100.5728385, "tags": {"name:en": "RECOFTC Bldg 2", "tourism": "guest_house", "website": "https://www.recoftc.org/"}}, {"type": "node", "id": 4636295691, "lat": 13.8459754, "lon": 100.5728478, "tags": {"name:en": "RECOFTC Bldg 1", "tourism": "guest_house", "website": "https://www.recoftc.org/"}}, {"type": "node", "id": 4639376589, "lat": 13.8318361, "lon": 100.5918252, "tags": {"amenity": "restaurant", "name:en": "Nanalee korean bbq restaurant", "name:ko": "\ub098\ub0a0\uc774 \ubc14\ubca0\ud050 \uc2dd\ub2f9"}}, {"type": "node", "id": 4715436189, "lat": 13.8004399, "lon": 100.5847676, "tags": {"addr:street": "1519 Soi Lat Phrao 41 Yaek 6-4, Khwaeng Samsen Nok, Khet Huai Khwang, Krung Thep Maha Nakhon 10310", "name": "P.T. Apartment", "name:th": "P.T. Apartment", "tourism": "camp_site"}}, {"type": "node", "id": 4754175828, "lat": 13.8180339, "lon": 100.5575176, "tags": {"tourism": "artwork"}}, {"type": "node", "id": 4764171822, "lat": 13.8264205, "lon": 100.5829708, "tags": {"amenity": "restaurant", "name": "Chabu 15", "name:en": "Out Phantaw", "name:th": "Chabu 15"}}, {"type": "node", "id": 4789738146, "lat": 13.8023816, "lon": 100.5516675, "tags": {"name:en": "Wall of Frame / Aboutpopart", "tourism": "artwork"}}, {"type": "node", "id": 4961952021, "lat": 13.8351591, "lon": 100.5703345, "tags": {"addr:street": "Soi Pahonyothin 41", "name:en": "Sawasdee Place", "tourism": "hotel"}}, {"type": "node", "id": 4969529122, "lat": 13.8211837, "lon": 100.5788112, "tags": {"addr:housenumber": "39/1", "addr:postcode": "10900", "addr:street": "\u0e16\u0e19\u0e19\u0e23\u0e31\u0e0a\u0e14\u0e32\u0e20\u0e34\u0e40\u0e29\u0e01", "amenity": "restaurant", "name": "\u0e2b\u0e2d\u0e2a\u0e49\u0e21\u0e15\u0e33"}}, {"type": "node", "id": 4969529124, "lat": 13.8204912, "lon": 100.5789484, "tags": {"addr:housenumber": "39/1", "addr:postcode": "10900", "addr:street": "\u0e16\u0e19\u0e19\u0e23\u0e31\u0e0a\u0e14\u0e32\u0e20\u0e34\u0e40\u0e29\u0e01", "amenity": "restaurant", "name": "\u0e28\u0e39\u0e19\u0e22\u0e4c\u0e2d\u0e32\u0e2b\u0e32\u0e23\u0e15\u0e36\u0e01 15 \u0e0a\u0e31\u0e49\u0e19"}}, {"type": "node", "id": 4969529130, "lat": 13.8211313, "lon": 100.5780985, "tags": {"historic": "monument", "name": "\u0e2b\u0e2d\u0e19\u0e32\u0e2c\u0e34\u0e01\u0e32", "name:th": "\u0e2b\u0e2d\u0e19\u0e32\u0e2c\u0e34\u0e01\u0e32"}}, {"type": "node", "id": 4969530727, "lat": 13.8197846, "lon": 100.575874, "tags": {"name": "\u0e0b\u0e38\u0e49\u0e21\u0e40\u0e2d\u0e01\u0e27\u0e34\u0e17\u0e22\u0e32\u0e28\u0e32\u0e2a\u0e15\u0e23\u0e4c\u0e17\u0e31\u0e48\u0e27\u0e44\u0e1b", "name:en": "General Science", "name:th": "\u0e0b\u0e38\u0e49\u0e21\u0e40\u0e2d\u0e01\u0e27\u0e34\u0e17\u0e22\u0e32\u0e28\u0e32\u0e2a\u0e15\u0e23\u0e4c\u0e17\u0e31\u0e48\u0e27\u0e44\u0e1b", "tourism": "viewpoint"}}, {"type": "node", "id": 4969530729, "lat": 13.8193054, "lon": 100.577193, "tags": {"historic": "monument", "name": "\u0e1b\u0e23\u0e30\u0e15\u0e39\u0e08\u0e31\u0e19\u0e17\u0e23\u0e4c", "name:th": "\u0e1b\u0e23\u0e30\u0e15\u0e39\u0e08\u0e31\u0e19\u0e17\u0e23\u0e4c"}}, {"type": "node", "id": 4969530921, "lat": 13.8197974, "lon": 100.5779654, "tags": {"addr:housenumber": "39/1", "addr:postcode": "10900", "addr:street": "\u0e16\u0e19\u0e19\u0e23\u0e31\u0e0a\u0e14\u0e32\u0e20\u0e34\u0e40\u0e29\u0e01", "amenity": "restaurant", "name": "\u0e28\u0e39\u0e19\u0e22\u0e4c\u0e2d\u0e32\u0e2b\u0e32\u0e23\u0e02\u0e49\u0e32\u0e07\u0e2a\u0e23\u0e30\u0e27\u0e48\u0e32\u0e22\u0e19\u0e49\u0e33"}}, {"type": "node", "id": 4969536524, "lat": 13.8188358, "lon": 100.5759751, "tags": {"amenity": "restaurant", "name": "\u0e23\u0e49\u0e32\u0e19\u0e2d\u0e32\u0e2b\u0e32\u0e23", "name:th": "\u0e23\u0e49\u0e32\u0e19\u0e2d\u0e32\u0e2b\u0e32\u0e23"}}, {"type": "node", "id": 4969536525, "lat": 13.8206652, "lon": 100.5775885, "tags": {"amenity": "cafe", "name": "\u0e23\u0e49\u0e32\u0e19\u0e02\u0e32\u0e22\u0e19\u0e49\u0e33", "name:th": "\u0e23\u0e49\u0e32\u0e19\u0e02\u0e32\u0e22\u0e19\u0e49\u0e33"}}, {"type": "node", "id": 4969545623, "lat": 13.8185887, "lon": 100.578203, "tags": {"amenity": "cafe", "name": "\u0e23\u0e49\u0e32\u0e19\u0e02\u0e32\u0e22\u0e19\u0e49\u0e33", "name:th": "\u0e23\u0e49\u0e32\u0e19\u0e02\u0e32\u0e22\u0e19\u0e49\u0e33"}}, {"type": "node", "id": 4969551922, "lat": 13.8197417, "lon": 100.5762825, "tags": {"amenity": "cafe", "name": "\u0e23\u0e49\u0e32\u0e19\u0e02\u0e32\u0e22\u0e19\u0e49\u0e33", "name:th": "\u0e23\u0e49\u0e32\u0e19\u0e02\u0e32\u0e22\u0e19\u0e49\u0e33"}}, {"type": "node", "id": 4971985722, "lat": 13.8182269, "lon": 100.5762721, "tags": {"addr:housenumber": "39/1", "addr:postcode": "10900", "addr:street": "\u0e16\u0e19\u0e19\u0e23\u0e31\u0e0a\u0e14\u0e32\u0e20\u0e34\u0e40\u0e29\u0e01", "name": "\u0e42\u0e23\u0e07\u0e41\u0e23\u0e21\u0e08\u0e31\u0e19\u0e17\u0e23\u0e40\u0e01\u0e29\u0e21\u0e1b\u0e32\u0e23\u0e4c\u0e04", "tourism": "hotel"}}, {"type": "node", "id": 5036922522, "lat": 13.8018288, "lon": 100.5518273, "tags": {"amenity": "restaurant", "name:en": "Viva 8"}}, {"type": "node", "id": 5036922621, "lat": 13.8006465, "lon": 100.5520778, "tags": {"amenity": "restaurant", "name:en": "pork food stall"}}, {"type": "node", "id": 5263048705, "lat": 13.8128675, "lon": 100.5628153, "tags": {"amenity": "restaurant", "cuisine": "thai", "description": "Northern Thai food", "name": "\u0e17\u0e34\u0e28\u0e40\u0e2b\u0e19\u0e37\u0e2d", "outdoor_seating": "no", "takeaway": "yes"}}, {"type": "node", "id": 5269645822, "lat": 13.8173549, "lon": 100.5793279, "tags": {"name": "Saule pleureur", "tourism": "attraction"}}, {"type": "node", "id": 5404891823, "lat": 13.8084751, "lon": 100.5892227, "tags": {"addr:housenumber": "39/1", "addr:postcode": "10230", "addr:street": "\u0e16\u0e19\u0e19\u0e25\u0e32\u0e14\u0e1e\u0e23\u0e49\u0e32\u0e27\u0e27\u0e31\u0e07\u0e2b\u0e34\u0e19", "name:en": "The Niche Id", "tourism": "apartment"}}, {"type": "node", "id": 5491245239, "lat": 13.806818, "lon": 100.566398, "tags": {"addr:housenumber": "51/1", "addr:street": "\u0e0b\u0e2d\u0e22\u0e25\u0e32\u0e14\u0e1e\u0e23\u0e49\u0e32\u0e27 12 \u0e41\u0e22\u0e01 2", "internet_access": "wlan", "name:en": "My Home - Century Park Condo", "tourism": "apartment"}}, {"type": "node", "id": 5611498326, "lat": 13.8094718, "lon": 100.5955231, "tags": {"addr:street": "\u0e42\u0e0a\u0e04\u0e0a\u0e31\u0e22 4", "name": "\u0e40\u0e2d\u0e2a.\u0e2d\u0e32\u0e23\u0e4c.\u0e27\u0e35.\u0e41\u0e21\u0e19\u0e0a\u0e31\u0e48\u0e19", "name:en": "S.R.V.Mansion", "tourism": "apartment"}}, {"type": "node", "id": 5631540884, "lat": 13.8456856, "lon": 100.5676395, "tags": {"amenity": "cafe", "name": "True Coffee"}}, {"type": "node", "id": 5646115730, "lat": 13.8390939, "lon": 100.5690538, "tags": {"addr:housenumber": "8/118", "addr:postcode": "10900", "addr:street": "Ngam Wong Wan 54 lane 5", "name:en": "The Prize", "tourism": "hostel"}}, {"type": "node", "id": 5744763327, "lat": 13.834265, "lon": 100.5790067, "tags": {"addr:postcode": "10900", "addr:province": "\u0e01\u0e23\u0e38\u0e07\u0e40\u0e17\u0e1e\u0e21\u0e2b\u0e32\u0e19\u0e04\u0e23", "addr:street": "Sena Nikhom 12", "amenity": "restaurant", "capacity": "8", "cuisine": "japanese;yakitori", "name": "Ekku", "name:th": "\u0e23\u0e49\u0e32\u0e19\u0e40\u0e2d\u0e01\u0e02\u0e38", "outdoor_seating": "yes", "takeaway": "yes"}}, {"type": "node", "id": 5744763328, "lat": 13.8341881, "lon": 100.5790076, "tags": {"addr:postcode": "10900", "addr:province": "\u0e01\u0e23\u0e38\u0e07\u0e40\u0e17\u0e1e\u0e21\u0e2b\u0e32\u0e19\u0e04\u0e23", "addr:street": "Sena Nikhom 12", "amenity": "restaurant", "cuisine": "steak;salad", "delivery": "no", "name": "Tabor Steak Hut", "name:th": "\u0e15\u0e30\u0e1a\u0e2d \u0e2a\u0e40\u0e15\u0e47\u0e01 \u0e2e\u0e31\u0e17", "outdoor_seating": "yes"}}, {"type": "node", "id": 5744763345, "lat": 13.8327439, "lon": 100.5786339, "tags": {"addr:postcode": "10900", "addr:province": "\u0e01\u0e23\u0e38\u0e07\u0e40\u0e17\u0e1e\u0e21\u0e2b\u0e32\u0e19\u0e04\u0e23", "addr:street": "Sena Nikhom 12", "amenity": "restaurant", "cuisine": "thai", "name": "\u0e23\u0e49\u0e32\u0e19\u0e02\u0e49\u0e32\u0e27\u0e43\u0e2b\u0e21\u0e48", "name:en": "Kaomai Restaurant", "name:th": "\u0e23\u0e49\u0e32\u0e19\u0e2d\u0e32\u0e2b\u0e32\u0e23\u0e02\u0e49\u0e32\u0e27\u0e43\u0e2b\u0e21\u0e48", "outdoor_seating": "no", "takeaway": "yes"}}, {"type": "node", "id": 5744763347, "lat": 13.8335025, "lon": 100.5791342, "tags": {"addr:postcode": "10900", "addr:province": "\u0e01\u0e23\u0e38\u0e07\u0e40\u0e17\u0e1e\u0e21\u0e2b\u0e32\u0e19\u0e04\u0e23", "addr:street": "Sena Nikhom 12", "amenity": "restaurant", "cuisine": "thai", "delivery": "yes", "name": "Seed Cafe", "name:th": "\u0e0b\u0e35\u0e4a\u0e14 \u0e04\u0e32\u0e40\u0e1f\u0e48", "outdoor_seating": "yes", "takeaway": "yes"}}, {"type": "node", "id": 5746375143, "lat": 13.8135664, "lon": 100.5620241, "tags": {"amenity": "restaurant", "name": "\u0e01\u0e34\u0e19-\u0e40\u0e15\u0e35\u0e4b\u0e22\u0e27-\u0e01\u0e31\u0e19", "name:en": "Kintiewkan Noodle", "name:th": "\u30e2\u30fc\u30eb", "name:zh": "\u8ff7\u4f60\u5c0f\u9eb5"}}, {"type": "node", "id": 6041979696, "lat": 13.8065436, "lon": 100.5563299, "tags": {"addr:housenumber": "1058/104", "addr:postcode": "10900", "addr:street": "\u0e16\u0e19\u0e19\u0e1e\u0e2b\u0e25\u0e42\u0e22\u0e18\u0e34\u0e19", "amenity": "cafe", "name:en": "Behind The Bar", "opening_hours": "Mo-Fr 06:30-15:30; Sa-Su 07:30-15:30"}}, {"type": "node", "id": 6149313787, "lat": 13.8133469, "lon": 100.5691628, "tags": {"amenity": "cafe", "name:en": "Primo Coffee"}}, {"type": "node", "id": 6149701885, "lat": 13.8162161, "lon": 100.568126, "tags": {"amenity": "restaurant", "name:en": "Night Market"}}, {"type": "node", "id": 6185339786, "lat": 13.8486982, "lon": 100.5680981, "tags": {"name": "\u0e15\u0e36\u0e01\u0e1e\u0e31\u0e01\u0e0a\u0e32\u0e22\u0e17\u0e35\u0e48 13", "tourism": "hostel", "wheelchair": "limited"}}, {"type": "node", "id": 6214260785, "lat": 13.8278296, "lon": 100.5918178, "tags": {"amenity": "restaurant", "cuisine": "asian", "name": "\u0e23\u0e49\u0e32\u0e19\u0e40\u0e25\u0e34\u0e28\u0e17\u0e34\u0e1e\u0e22\u0e4c \u0e2a\u0e32\u0e02\u0e32\u0e27\u0e31\u0e07\u0e2b\u0e34\u0e19", "name:en": "Lerd Thip", "opening_hours": "Mo-Su 17:00-02:00", "phone": "+6625705261"}}, {"type": "node", "id": 6276438086, "lat": 13.8025221, "lon": 100.5526606, "tags": {"historic": "monument", "name": "\u0e2b\u0e2d\u0e19\u0e32\u0e2c\u0e34\u0e01\u0e32\u0e44\u0e25\u0e2d\u0e2d\u0e19\u0e2a\u0e4c", "name:de": "Uhrenturm", "name:en": "Clock tower"}}, {"type": "node", "id": 6283731985, "lat": 13.8010508, "lon": 100.5508265, "tags": {"amenity": "cafe", "name:en": "Craft Coffee"}}, {"type": "node", "id": 6351870585, "lat": 13.8203866, "lon": 100.5648474, "tags": {"name": "\u0e1b\u0e23\u0e32\u0e2a\u0e32\u0e17\u0e40\u0e17\u0e1e\u0e19\u0e34\u0e22\u0e32\u0e22\u0e41\u0e14\u0e19\u0e40\u0e19\u0e23\u0e21\u0e34\u0e15", "name:en": "Abandonned defunct castel", "tourism": "attraction"}}, {"type": "node", "id": 6377236986, "lat": 13.8214116, "lon": 100.5579439, "tags": {"amenity": "cafe", "internet_access": "wlan", "name:en": "Starbucks"}}, {"type": "node", "id": 6377236987, "lat": 13.8217181, "lon": 100.5579353, "tags": {"amenity": "cafe", "internet_access": "wlan", "name:en": "Sweet Sense Coffee"}}, {"type": "node", "id": 6391889301, "lat": 13.8319285, "lon": 100.558132, "tags": {"historic": "memorial"}}, {"type": "node", "id": 6403504785, "lat": 13.8409266, "lon": 100.589443, "tags": {"addr:street": "\u0e16\u0e19\u0e19\u0e1b\u0e23\u0e30\u0e40\u0e2a\u0e23\u0e34\u0e10\u0e21\u0e19\u0e39\u0e01\u0e34\u0e08", "name:en": "Icondo keset", "name:ko": "\uc544\uc774\ucf58\ub3c4 \uce74\uc14b", "tourism": "hotel"}}, {"type": "node", "id": 6447122987, "lat": 13.8040278, "lon": 100.5502392, "tags": {"amenity": "cafe", "cuisine": "coffee_shop", "name": "Number One", "opening_hours": "Mo-Su 07:00-18:00"}}, {"type": "node", "id": 6486006485, "lat": 13.8006301, "lon": 100.5506888, "tags": {"amenity": "cafe", "internet_access": "wlan", "name:en": "Passion Brew"}}, {"type": "node", "id": 6634320786, "lat": 13.8119977, "lon": 100.5617932, "tags": {"name": "\u0e40\u0e14\u0e2d\u0e30 \u0e04\u0e27\u0e2d\u0e40\u0e15\u0e2d\u0e23\u0e4c \u0e25\u0e32\u0e14\u0e1e\u0e23\u0e49\u0e32\u0e27 \u0e1a\u0e32\u0e22 \u0e22\u0e39\u0e40\u0e2d\u0e0a\u0e08\u0e35", "name:en": "The Quarter Ladprao by UHG", "tourism": "hotel"}}, {"type": "node", "id": 6656996396, "lat": 13.803692, "lon": 100.5936313, "tags": {"addr:place": "Ladprao Wanghin 8", "addr:postcode": "10230", "addr:province": "\u0e01\u0e23\u0e38\u0e07\u0e40\u0e17\u0e1e\u0e21\u0e2b\u0e32\u0e19\u0e04\u0e23", "addr:street": "Lat Phrao District", "amenity": "restaurant", "capacity": "100", "cuisine": "japanese", "description": "KYUKA Izakaya (\u304d\u3085\u3046\u304b ) is not a regular Japanese restaurant, but space for people to gather up and share delicious eats and happiness.", "email": "info@kyukaizakaya.com", "name": "Kyuka Izakaya", "opening_hours": "18:00-01:00", "outdoor_seating": "yes", "phone": "66621144789", "smoking": "outside", "takeaway": "yes", "website": "http://kyukaizakaya.com", "wheelchair": "yes"}}, {"type": "node", "id": 6694716793, "lat": 13.806285, "lon": 100.5730062, "tags": {"addr:city": "\u0e08\u0e2d\u0e21\u0e1e\u0e25", "addr:housenumber": "442/6", "addr:postcode": "10900", "addr:street": "\u0e16\u0e19\u0e19\u0e25\u0e32\u0e14\u0e1e\u0e23\u0e49\u0e32\u0e27", "air_conditioning": "yes", "amenity": "cafe", "cuisine": "coffee_shop", "email": "fans.cafe.bkk@gmail.com", "internet_access": "customers", "internet_access:fee": "no", "name": "Fan's Cafe", "outdoor_seating": "no", "start_date": "2019-10-12", "twitter": "https://twitter.com/fanscafe_bkk"}}, {"type": "node", "id": 6720955485, "lat": 13.8144745, "lon": 100.5654367, "tags": {"amenity": "restaurant", "cuisine": "thai;chinese", "name:en": "Aroy Naeon"}}, {"type": "node", "id": 6743329188, "lat": 13.8020438, "lon": 100.5804202, "tags": {"name": "Sky", "tourism": "attraction"}}, {"type": "node", "id": 6745128986, "lat": 13.8022877, "lon": 100.5624355, "tags": {"amenity": "restaurant", "cuisine": "japanese;fish;sushi", "name:en": "simon sushi bar", "opening_hours": "Mo-Su 12:00-14:00, 17:00-22:00"}}, {"type": "node", "id": 6813822215, "lat": 13.8445982, "lon": 100.5722675, "tags": {"air_conditioning": "yes", "amenity": "cafe", "bar": "no", "cuisine": "coffee_shop", "internet_access": "wlan", "internet_access:fee": "no", "name": "XYZT Cafe", "outdoor_seating": "no"}}, {"type": "node", "id": 6854725919, "lat": 13.8019359, "lon": 100.5513594, "tags": {"amenity": "cafe", "name": "Liebe Cafe"}}, {"type": "node", "id": 7025008886, "lat": 13.8065867, "lon": 100.5730411, "tags": {"addr:street": "\u0e0b\u0e2d\u0e22\u0e25\u0e32\u0e14\u0e1e\u0e23\u0e49\u0e32\u0e27 24", "amenity": "cafe", "internet_access": "wlan", "name": "PlaySpace Board", "name:en": "PlaySpace Board Game Caf\u00e9"}}, {"type": "node", "id": 7056655986, "lat": 13.8025668, "lon": 100.5521201, "tags": {"amenity": "restaurant", "cuisine": "thai", "name": "Rice & Noodles", "opening_hours": "Mo-Su 11:00-19:00"}}, {"type": "node", "id": 7085134981, "lat": 13.848693, "lon": 100.5678446, "tags": {"name": "\u0e15\u0e36\u0e01\u0e2b\u0e2d\u0e1e\u0e31\u0e01\u0e0a\u0e32\u0e22 2", "tourism": "hostel", "wheelchair": "limited"}}, {"type": "node", "id": 7085423848, "lat": 13.8474269, "lon": 100.5729731, "tags": {"amenity": "cafe", "name": "\u0e23\u0e49\u0e32\u0e19\u0e01\u0e32\u0e41\u0e1f\u0e1e\u0e37\u0e0a\u0e2a\u0e27\u0e19"}}, {"type": "node", "id": 7085423849, "lat": 13.8483155, "lon": 100.5697763, "tags": {"amenity": "cafe", "branch": "Faculty Humanity KU", "brand": "\u0e04\u0e32\u0e40\u0e1f\u0e48 \u0e2d\u0e40\u0e21\u0e0b\u0e2d\u0e19", "brand:en": "Caf\u00e9 Amazon", "brand:th": "\u0e04\u0e32\u0e40\u0e1f\u0e48 \u0e2d\u0e40\u0e21\u0e0b\u0e2d\u0e19", "brand:wikidata": "Q43247503", "cuisine": "coffee_shop", "name": "\u0e04\u0e32\u0e40\u0e1f\u0e48 \u0e2d\u0e40\u0e21\u0e0b\u0e2d\u0e19", "name:en": "Caf\u00e9 Amazon", "name:th": "\u0e04\u0e32\u0e40\u0e1f\u0e48 \u0e2d\u0e40\u0e21\u0e0b\u0e2d\u0e19", "takeaway": "yes"}}, {"type": "node", "id": 7085423850, "lat": 13.8499471, "lon": 100.5730681, "tags": {"amenity": "cafe", "branch": "\u0e1b\u0e15\u0e17 \u0e21\u0e2b\u0e32\u0e25\u0e31\u0e22\u0e40\u0e01\u0e29\u0e15\u0e23\u0e28\u0e32\u0e2a\u0e15\u0e23\u0e4c", "brand": "\u0e04\u0e32\u0e40\u0e1f\u0e48 \u0e2d\u0e40\u0e21\u0e0b\u0e2d\u0e19", "brand:en": "Caf\u00e9 Amazon", "brand:th": "\u0e04\u0e32\u0e40\u0e1f\u0e48 \u0e2d\u0e40\u0e21\u0e0b\u0e2d\u0e19", "brand:wikidata": "Q43247503", "cuisine": "coffee_shop", "name": "\u0e04\u0e32\u0e40\u0e1f\u0e48 \u0e2d\u0e40\u0e21\u0e0b\u0e2d\u0e19", "name:en": "Caf\u00e9 Amazon", "name:th": "\u0e04\u0e32\u0e40\u0e1f\u0e48 \u0e2d\u0e40\u0e21\u0e0b\u0e2d\u0e19", "takeaway": "yes"}}, {"type": "node", "id": 7085423851, "lat": 13.8430196, "lon": 100.5713012, "tags": {"amenity": "cafe", "name": "\u0e17\u0e23\u0e39 \u0e04\u0e2d\u0e1f\u0e1f\u0e35\u0e48"}}, {"type": "node", "id": 7085423852, "lat": 13.8429527, "lon": 100.5707097, "tags": {"amenity": "cafe", "name": "\u0e1a\u0e31\u0e14\u0e14\u0e35\u0e49 \u0e41\u0e1a\u0e23\u0e4c"}}, {"type": "node", "id": 7085423853, "lat": 13.8477289, "lon": 100.5715109, "tags": {"amenity": "cafe", "name": "Rhino Espresso Bar"}}, {"type": "node", "id": 7085423854, "lat": 13.8457929, "lon": 100.571123, "tags": {"addr:postcode": "10900", "amenity": "restaurant", "name": "\u0e28\u0e39\u0e19\u0e22\u0e4c\u0e2d\u0e32\u0e2b\u0e32\u0e23\u0e04\u0e13\u0e30\u0e27\u0e34\u0e17\u0e22\u0e32\u0e28\u0e32\u0e2a\u0e15\u0e23\u0e4c", "name:en": "Sc KU Food Court"}}, {"type": "node", "id": 7085956948, "lat": 13.8194924, "lon": 100.5787021, "tags": {"amenity": "cafe", "name": "\u0e23\u0e49\u0e32\u0e19\u0e1b\u0e31\u0e4a\u0e21\u0e19\u0e21 \u0e01\u0e32\u0e41\u0e1f\u0e2a\u0e14 \u0e1a\u0e32\u0e22 \u0e1a\u0e32\u0e23\u0e4c \u0e41\u0e1a\u0e23\u0e4c\u0e23\u0e35\u0e48"}}, {"type": "node", "id": 7085956961, "lat": 13.8188954, "lon": 100.5760935, "tags": {"amenity": "cafe", "name": "\u0e23\u0e49\u0e32\u0e19\u0e21\u0e39\u0e40\u0e0b \u0e04\u0e32\u0e40\u0e1f\u0e48", "name:en": "Muse Kafe"}}, {"type": "node", "id": 7085956965, "lat": 13.8207691, "lon": 100.5776015, "tags": {"amenity": "cafe", "name": "\u0e23\u0e49\u0e32\u0e19\u0e2a\u0e15\u0e32\u0e23\u0e4c\u0e44\u0e25\u0e17\u0e4c \u0e04\u0e2d\u0e1f\u0e1f\u0e35\u0e48"}}, {"type": "node", "id": 7085956969, "lat": 13.8210794, "lon": 100.5793532, "tags": {"amenity": "cafe", "name": "\u0e17\u0e39 3 \u0e04\u0e32\u0e40\u0e1f\u0e48", "name:en": "Too 3 Cafe"}}, {"type": "node", "id": 7086006628, "lat": 13.8183112, "lon": 100.5781766, "tags": {"amenity": "restaurant", "name": "\u0e04\u0e23\u0e31\u0e27\u0e20\u0e39\u0e40\u0e01\u0e47\u0e15 \u0e2a\u0e32\u0e02\u0e32\u0e08\u0e31\u0e19\u0e17\u0e23\u0e40\u0e01\u0e29\u0e21"}}, {"type": "node", "id": 7086006630, "lat": 13.819944, "lon": 100.5762122, "tags": {"amenity": "cafe", "name": "\u0e23\u0e49\u0e32\u0e19\u0e01\u0e32\u0e41\u0e1f \u0e13 \u0e08\u0e31\u0e19\u0e17\u0e23\u0e4c"}}, {"type": "node", "id": 7086006633, "lat": 13.8195101, "lon": 100.5755959, "tags": {"name": "\u0e40\u0e2d.\u0e14\u0e35 \u0e04\u0e2d\u0e19\u0e42\u0e14\u0e21\u0e34\u0e40\u0e19\u0e35\u0e22\u0e21", "tourism": "hotel"}}, {"type": "node", "id": 7086006634, "lat": 13.8192103, "lon": 100.5756277, "tags": {"amenity": "cafe", "name": "\u0e14\u0e2d\u0e21 \u0e04\u0e2d\u0e1f\u0e1f\u0e35\u0e48", "name:en": "Dorm Cafe"}}, {"type": "node", "id": 7086006640, "lat": 13.8192829, "lon": 100.5778625, "tags": {"name": "\u0e1e\u0e34\u0e1e\u0e34\u0e18\u0e20\u0e31\u0e13\u0e11\u0e4c\u0e08\u0e31\u0e19\u0e17\u0e23\u0e40\u0e01\u0e29\u0e21", "tourism": "museum"}}, {"type": "node", "id": 7086006641, "lat": 13.8204237, "lon": 100.5789434, "tags": {"amenity": "restaurant", "name": "\u0e02\u0e49\u0e32\u0e27\u0e02\u0e32\u0e2b\u0e21\u0e39 \u0e40\u0e08\u0e49\u0e32\u0e40\u0e01\u0e48\u0e32\u0e2b\u0e32\u0e14\u0e43\u0e2b\u0e0d\u0e48 \u0e21\u0e2b\u0e32\u0e27\u0e34\u0e17\u0e22\u0e32\u0e25\u0e31\u0e22\u0e23\u0e32\u0e0a\u0e20\u0e31\u0e0f\u0e08\u0e31\u0e19\u0e17\u0e23\u0e40\u0e01\u0e29\u0e21"}}, {"type": "node", "id": 7086049237, "lat": 13.8191585, "lon": 100.5781667, "tags": {"amenity": "cafe", "name": "\u0e41\u0e2e\u0e1b\u0e1b\u0e35\u0e49 \u0e21\u0e39\u0e19 \u0e04\u0e32\u0e40\u0e1f\u0e48", "name:en": "Happy Moon Cafe"}}, {"type": "node", "id": 7086049238, "lat": 13.8212296, "lon": 100.5793696, "tags": {"amenity": "restaurant", "name": "\u0e2a\u0e38\u0e01\u0e35\u0e49\u0e19\u0e32\u0e22\u0e1e\u0e31\u0e19 \u0e2a\u0e32\u0e02\u0e32\u0e08\u0e31\u0e19\u0e17\u0e23\u0e40\u0e01\u0e29\u0e21"}}, {"type": "node", "id": 7086049239, "lat": 13.8198345, "lon": 100.5780565, "tags": {"amenity": "cafe", "name": "\u0e08\u0e31\u0e19\u0e14\u0e23\u0e32 \u0e04\u0e2d\u0e1f\u0e1f\u0e35\u0e48"}}, {"type": "node", "id": 7086049240, "lat": 13.8206825, "lon": 100.5789228, "tags": {"amenity": "restaurant", "name": "\u0e23\u0e49\u0e32\u0e19\u0e1e\u0e35\u0e48\u0e01\u0e49\u0e2d\u0e07\u0e01\u0e4b\u0e27\u0e22\u0e40\u0e15\u0e35\u0e4b\u0e22\u0e27\u0e15\u0e49\u0e21\u0e22\u0e33 \u0e08\u0e31\u0e19\u0e17\u0e23\u0e40\u0e01\u0e29\u0e21"}}, {"type": "node", "id": 7086049245, "lat": 13.8204869, "lon": 100.5795617, "tags": {"amenity": "restaurant", "name": "\u0e2d\u0e49\u0e27\u0e19 \u0e08\u0e34\u0e49\u0e21\u0e08\u0e38\u0e48\u0e21"}}, {"type": "node", "id": 7086049247, "lat": 13.8202004, "lon": 100.5794303, "tags": {"amenity": "restaurant", "name": "\u0e0a\u0e32\u0e1a\u0e39\u0e0a\u0e35\u0e2a"}}, {"type": "node", "id": 7086049254, "lat": 13.8211815, "lon": 100.579516, "tags": {"amenity": "cafe", "name": "\u0e25\u0e2d\u0e07\u0e40\u0e14\u0e4a\u0e30 \u0e40\u0e1f\u0e23\u0e0a \u0e08\u0e31\u0e19\u0e17\u0e23\u0e40\u0e01\u0e29\u0e21"}}, {"type": "node", "id": 7090037583, "lat": 13.8023533, "lon": 100.5516217, "tags": {"amenity": "cafe", "name": "Koko Drip"}}, {"type": "node", "id": 7417163487, "lat": 13.8094488, "lon": 100.5661914, "tags": {"addr:street": "\u0e0b\u0e2d\u0e22\u0e25\u0e32\u0e14\u0e1e\u0e23\u0e49\u0e32\u0e27 10", "addr:street:en": "Soi Ladprao 10", "amenity": "restaurant", "cuisine": "thai", "name": "Pathe", "name:en": "Pathe", "name:th": "\u0e1b\u0e32\u0e40\u0e15\u0e4a\u0e30", "outdoor_seating": "yes"}}, {"type": "node", "id": 7779638175, "lat": 13.8255162, "lon": 100.5975437, "tags": {"addr:housenumber": "7", "addr:postcode": "10230", "addr:province": "\u0e01\u0e23\u0e38\u0e07\u0e40\u0e17\u0e1e\u0e21\u0e2b\u0e32\u0e19\u0e04\u0e23", "addr:street": "\u0e42\u0e0a\u0e04\u0e0a\u0e31\u0e22 4 \u0e0b\u0e2d\u0e22 84 \u0e41\u0e22\u0e01 2-1", "amenity": "cafe", "cuisine": "sandwich;coffee_shop", "internet_access": "yes", "name": "BB Kafe & Dog Fitness", "opening_hours": "Mo-Fr 06:30-22:00; Sa,Su 07:30-22:00", "outdoor_seating": "yes"}}, {"type": "node", "id": 7966767894, "lat": 13.8410717, "lon": 100.5843672, "tags": {"amenity": "cafe", "name:en": "Up to Tug"}}, {"type": "node", "id": 8021326185, "lat": 13.8286827, "lon": 100.5684858, "tags": {"addr:street": "\u0e0a\u0e31\u0e49\u0e19\u200b2 Major Ratchayothin", "amenity": "restaurant", "cuisine": "thai", "name": "\u0e40\u0e15\u0e35\u0e4b\u0e22\u0e27\u0e0b\u0e35\u0e4a\u0e14\u0e44\u0e02\u0e48\u0e2b\u0e27\u0e32\u0e19"}}, {"type": "node", "id": 8175742024, "lat": 13.8057867, "lon": 100.5537999, "tags": {"name:en": "Squirrel tree", "tourism": "attraction"}}, {"type": "node", "id": 8950826311, "lat": 13.8229446, "lon": 100.5835161, "tags": {"addr:city": "\u0e41\u0e02\u0e27\u0e07\u0e08\u0e31\u0e19\u0e17\u0e23\u0e40\u0e01\u0e29\u0e21", "addr:housenumber": "372 \u0e14\u0e35\u0e1e\u0e23\u0e49\u0e2d\u0e21\u0e40\u0e1e\u0e25\u0e2a", "addr:postcode": "10900", "addr:street": "\u0e0b\u0e2d\u0e22\u0e23\u0e31\u0e0a\u0e14\u0e32\u0e20\u0e34\u0e40\u0e29\u0e01 36 \u0e41\u0e22\u0e01 9-3-4", "amenity": "cafe", "bar": "yes", "cuisine": "burger;coffee_shop;fast_food;drinks", "internet_access": "yes", "internet_access:fee": "no", "name": "BAR BURRER \" Slow bar \"", "opening_hours": "Mo-Su 09:00-21:00", "outdoor_seating": "no", "phone": "+66832260024", "website": "https://bar-burrer-slow-bar.business.site/?m=true&fbclid=IwAR29IKrPMLvu9d3vW3TL9IlljMtvQlHzU7Vdy-P4SF_TDELmlcJlDCBVN1M"}}, {"type": "node", "id": 9029360856, "lat": 13.8417474, "lon": 100.5820653, "tags": {"amenity": "restaurant", "name": "\u0e2d\u0e32\u0e2b\u0e32\u0e23\u0e15\u0e32\u0e21\u0e2a\u0e31\u0e48\u0e07"}}, {"type": "node", "id": 9143408913, "lat": 13.81288, "lon": 100.5961492, "tags": {"addr:city": "\u0e25\u0e32\u0e14\u0e1e\u0e23\u0e49\u0e32\u0e27", "addr:housenumber": "367", "addr:postcode": "10230", "addr:street": "\u0e16\u0e19\u0e19\u0e42\u0e0a\u0e04\u0e0a\u0e31\u0e22 4", "internet_access": "yes", "internet_access:fee": "no", "name": "Plum condo Chokchai4 (\u0e1e\u0e25\u0e31\u0e21\u0e04\u0e2d\u0e19\u0e42\u0e14 \u0e42\u0e0a\u0e04\u0e0a\u0e31\u0e224)", "rooms": "0", "tourism": "apartment"}}, {"type": "node", "id": 9143408914, "lat": 13.8127983, "lon": 100.5961601, "tags": {"addr:city": "\u0e25\u0e32\u0e14\u0e1e\u0e23\u0e49\u0e32\u0e27", "addr:housenumber": "367", "addr:postcode": "10230", "addr:street": "\u0e16\u0e19\u0e19\u0e42\u0e0a\u0e04\u0e0a\u0e31\u0e22 4", "image": "https://www.facebook.com/pages/Plum-Condo-Chockchai-4/652206018282374", "internet_access": "yes", "internet_access:fee": "no", "name": "Plum condo Chokchai4(\u0e1e\u0e25\u0e31\u0e21\u0e04\u0e2d\u0e19\u0e42\u0e14\u0e42\u0e0a\u0e04\u0e0a\u0e31\u0e224)", "name:th": "\u0e1e\u0e25\u0e31\u0e21\u0e04\u0e2d\u0e19\u0e42\u0e14\u0e42\u0e0a\u0e04\u0e0a\u0e31\u0e224", "rooms": "1", "tourism": "apartment"}}, {"type": "node", "id": 9168920157, "lat": 13.8269978, "lon": 100.591796, "tags": {"addr:city": "\u0e41\u0e02\u0e27\u0e07\u0e25\u0e32\u0e14\u0e1e\u0e23\u0e49\u0e32\u0e27", "addr:housenumber": "2/311", "addr:postcode": "10230", "addr:street": "\u0e0b\u0e2d\u0e22\u0e25\u0e32\u0e14\u0e1e\u0e23\u0e49\u0e32\u0e27\u0e27\u0e31\u0e07\u0e2b\u0e34\u0e19 68", "amenity": "restaurant", "name": "\u0e01\u0e30\u0e40\u0e1e\u0e23\u0e32\u0e02\u0e38\u0e19\u0e0a\u0e49\u0e32\u0e07 @\u0e25\u0e32\u0e14\u0e1e\u0e23\u0e49\u0e32\u0e27\u0e27\u0e31\u0e07\u0e2b\u0e34\u0e19", "opening_hours": "Mo-Su 09:00-21:00", "phone": "+66625919892"}}, {"type": "node", "id": 9275045159, "lat": 13.8059655, "lon": 100.5742231, "tags": {"amenity": "cafe", "name": "Cafe Amazon"}}, {"type": "node", "id": 9355574029, "lat": 13.8163245, "lon": 100.561041, "tags": {"amenity": "cafe", "name": "Auntie Anne'S"}}, {"type": "node", "id": 9571287849, "lat": 13.8343557, "lon": 100.5740696, "tags": {"amenity": "place_of_worship", "religion": "buddhist"}}, {"type": "node", "id": 9587519194, "lat": 13.8362553, "lon": 100.5734098, "tags": {"air_conditioning": "no", "amenity": "restaurant", "bar": "no", "cuisine": "thai", "outdoor_seating": "yes", "takeaway": "yes", "wheelchair": "yes"}}, {"type": "node", "id": 9587626414, "lat": 13.8407257, "lon": 100.5733362, "tags": {"amenity": "restaurant", "cuisine": "steak", "name": "Sam Steaks and More"}}, {"type": "node", "id": 9587640631, "lat": 13.8397896, "lon": 100.5743041, "tags": {"amenity": "restaurant", "cuisine": "steak", "name": "Gorilla Grill", "outdoor_seating": "no", "wheelchair": "no"}}, {"type": "node", "id": 9587664349, "lat": 13.8416456, "lon": 100.5715505, "tags": {"amenity": "restaurant", "cuisine": "thai", "name": "\u0e2a\u0e2b\u0e32\u0e22\u0e2a\u0e38\u0e01\u0e01\u0e35\u0e49\u0e2b\u0e21\u0e32\u0e25\u0e48\u0e32"}}, {"type": "node", "id": 9587666328, "lat": 13.839769, "lon": 100.5741624, "tags": {"amenity": "restaurant", "cuisine": "japanese", "name": "Kuma Shabu"}}, {"type": "node", "id": 9587686159, "lat": 13.8420318, "lon": 100.5706571, "tags": {"amenity": "restaurant", "cuisine": "sushi", "name": "Shinkanzen Sushi"}}, {"type": "node", "id": 9587693993, "lat": 13.8407911, "lon": 100.5731995, "tags": {"amenity": "restaurant", "cuisine": "japanese", "name": "YuuJou Ramen", "opening_hours": "Mo-Sa 11:30-21:00"}}, {"type": "node", "id": 9587697519, "lat": 13.8412191, "lon": 100.5724312, "tags": {"amenity": "restaurant", "cuisine": "thai"}}, {"type": "node", "id": 9587728554, "lat": 13.8405197, "lon": 100.5736872, "tags": {"amenity": "restaurant", "cuisine": "korean", "name": "Sunbae"}}, {"type": "node", "id": 9587731631, "lat": 13.8403344, "lon": 100.5739858, "tags": {"amenity": "cafe", "brand": "Caf\u00e9 Amazon", "brand:wikidata": "Q43247503", "brand:wikipedia": "en:Caf\u00e9 Amazon", "cuisine": "coffee_shop", "name": "Caf\u00e9 Amazon", "takeaway": "yes"}}, {"type": "node", "id": 9587749190, "lat": 13.8383185, "lon": 100.5745892, "tags": {"amenity": "restaurant", "cuisine": "chinese"}}, {"type": "node", "id": 9587797131, "lat": 13.834609, "lon": 100.572791, "tags": {"amenity": "cafe", "brand": "Caf\u00e9 Amazon", "brand:wikidata": "Q43247503", "brand:wikipedia": "en:Caf\u00e9 Amazon", "cuisine": "coffee_shop", "name": "Caf\u00e9 Amazon", "takeaway": "yes"}}, {"type": "node", "id": 9587805048, "lat": 13.8332146, "lon": 100.5715552, "tags": {"amenity": "restaurant", "brand": "Pizza Hut", "brand:wikidata": "Q191615", "brand:wikipedia": "en:Pizza Hut", "cuisine": "pizza", "name": "Pizza Hut"}}, {"type": "node", "id": 9587805052, "lat": 13.8327347, "lon": 100.5713188, "tags": {"amenity": "cafe", "brand": "Caf\u00e9 Amazon", "brand:wikidata": "Q43247503", "brand:wikipedia": "en:Caf\u00e9 Amazon", "cuisine": "coffee_shop", "name": "Caf\u00e9 Amazon", "takeaway": "yes"}}, {"type": "node", "id": 9594267566, "lat": 13.839927, "lon": 100.5747054, "tags": {"amenity": "restaurant", "cuisine": "thai", "name": "Mango With Sticky Rice (only evenings)", "opening_hours": "Mo-Su 19:30-23:00"}}, {"type": "node", "id": 9704956017, "lat": 13.8400877, "lon": 100.5823835, "tags": {"amenity": "restaurant", "list:fmm_0000": "yes", "name": "\u0e02\u0e21\u0e34\u0e49\u0e19 Camin Cuisine and Cafe", "opening_hours": "Mo-Su 08:00-22:00"}}, {"type": "node", "id": 9710498417, "lat": 13.8009885, "lon": 100.5619791, "tags": {"addr:housenumber": "97", "addr:postcode": "10900", "addr:province": "\u0e01\u0e23\u0e38\u0e07\u0e40\u0e17\u0e1e\u0e21\u0e2b\u0e32\u0e19\u0e04\u0e23", "addr:street": "Soi Vibhavadi Rangsit 18", "leisure": "park", "name": "\u0e2a\u0e27\u0e19\u0e27\u0e34\u0e20\u0e32\u0e20\u0e34\u0e23\u0e21\u0e13\u0e4c", "name:en": "Vibhaphirom Park", "name:th": "\u0e2a\u0e27\u0e19\u0e27\u0e34\u0e20\u0e32\u0e20\u0e34\u0e23\u0e21\u0e13\u0e4c", "opening_hours": "Mo-Su 05:30-19:00", "operator": "Bangkok Metropolitan"}}, {"type": "node", "id": 9902243619, "lat": 13.8155455, "lon": 100.5965828, "tags": {"addr:housenumber": "5", "addr:postcode": "10230", "addr:street": "\u0e42\u0e0a\u0e04\u0e0a\u0e31\u0e22 4 \u0e0b\u0e2d\u0e22 54", "amenity": "restaurant", "cuisine": "chinese;thai", "delivery": "Mo-Su 06:00-18:00", "name": "\u0e02\u0e49\u0e32\u0e27\u0e02\u0e32\u0e2b\u0e21\u0e39 \u0e15.\u0e23\u0e27\u0e21\u0e42\u0e0a\u0e04", "name:en": "Kamoo T. Ruomchok", "opening_hours": "Mo-Su 06:00-18:00", "phone": "+66 2 931 0023", "reservation": "no", "takeaway": "yes", "toilets": "yes", "toilets:access": "private", "wheelchair": "limited"}}, {"type": "node", "id": 10146692012, "lat": 13.8066286, "lon": 100.5722589, "tags": {"addr:city": "\u0e25\u0e32\u0e14\u0e22\u0e32\u0e27", "addr:housenumber": "438/16-17", "addr:postcode": "10900", "addr:street": "\u0e16\u0e19\u0e19\u0e25\u0e32\u0e14\u0e1e\u0e23\u0e49\u0e32\u0e27", "amenity": "restaurant", "name": "\u0e42\u0e0a\u0e04\u0e14\u0e35\u0e15\u0e34\u0e48\u0e21\u0e0b\u0e33 \u0e2a\u0e32\u0e02\u0e32\u0e25\u0e32\u0e14\u0e1e\u0e23\u0e49\u0e32\u0e27", "opening_hours": "Mo-Su 06:00-22:00", "phone": "029389559", "website": "https://www.chokdeedimsum.com/"}}, {"type": "node", "id": 10146692013, "lat": 13.8260424, "lon": 100.5915925, "tags": {"addr:city": "\u0e41\u0e02\u0e27\u0e07\u0e25\u0e32\u0e14\u0e1e\u0e23\u0e49\u0e32\u0e27", "addr:housenumber": "2/297-8", "addr:postcode": "10230", "addr:street": "\u0e16\u0e19\u0e19\u0e25\u0e32\u0e14\u0e1e\u0e23\u0e49\u0e32\u0e27\u0e27\u0e31\u0e07\u0e2b\u0e34\u0e19", "amenity": "restaurant", "name": "\u0e42\u0e0a\u0e04\u0e14\u0e35\u0e15\u0e34\u0e48\u0e21\u0e0b\u0e33 \u0e2a\u0e32\u0e02\u0e32\u0e27\u0e31\u0e07\u0e2b\u0e34\u0e19", "opening_hours": "Mo-Su 06:00-22:00", "phone": "029423209", "website": "https://www.chokdeedimsum.com/"}}, {"type": "node", "id": 10234819908, "lat": 13.8157817, "lon": 100.5983274, "tags": {"addr:street": "\u0e42\u0e0a\u0e04\u0e0a\u0e31\u0e22 4 \u0e0b\u0e2d\u0e22 54", "amenity": "cafe", "delivery": "yes", "name": "Liebe Cafe", "takeaway": "yes"}}, {"type": "node", "id": 10672550905, "lat": 13.8090494, "lon": 100.5638795, "tags": {"name:en": "The lux apart", "tourism": "apartment"}}, {"type": "node", "id": 10672744226, "lat": 13.8095286, "lon": 100.568435, "tags": {"amenity": "restaurant", "brand": "MK Restaurants", "brand:wikidata": "Q62075359", "cuisine": "thai", "name": "MK Restaurants"}}, {"type": "node", "id": 10711343305, "lat": 13.8089434, "lon": 100.5637422, "tags": {"addr:housenumber": "212/38", "addr:postcode": "10900", "addr:street": "Soi Lad Phrao 10", "name:en": "The Lux Ladprao 10", "tourism": "apartment"}}, {"type": "node", "id": 10767923694, "lat": 13.8315904, "lon": 100.5973396, "tags": {"addr:city": "\u0e41\u0e02\u0e27\u0e07\u0e25\u0e32\u0e14\u0e1e\u0e23\u0e49\u0e32\u0e27", "addr:housenumber": "317", "addr:postcode": "10230", "addr:street": "\u0e16\u0e19\u0e19\u0e40\u0e2a\u0e19\u0e32\u0e19\u0e34\u0e04\u0e21 1", "air_conditioning": "yes", "amenity": "restaurant", "bar": "yes", "brewery": "yes", "capacity": "25", "cuisine": "thai", "delivery": "yes", "description": "\u0e23\u0e49\u0e32\u0e19\u0e44\u0e01\u0e48\u0e17\u0e2d\u0e14\u0e23\u0e2a\u0e40\u0e14\u0e47\u0e14\u0e17\u0e35\u0e48\u0e21\u0e35\u0e40\u0e1a\u0e35\u0e22\u0e23\u0e4c\u0e04\u0e23\u0e32\u0e1f\u0e2a\u0e14\u0e46 \u0e1e\u0e23\u0e49\u0e2d\u0e21\u0e43\u0e2b\u0e49\u0e04\u0e38\u0e13\u0e44\u0e14\u0e49\u0e25\u0e2d\u0e07\u0e0a\u0e34\u0e21 (\u0e44\u0e01\u0e48\u0e17\u0e2d\u0e14\u0e01\u0e31\u0e1a\u0e40\u0e1a\u0e35\u0e22\u0e23\u0e4c) \u0e40\u0e19\u0e37\u0e49\u0e2d\u0e44\u0e01\u0e48\u0e2b\u0e21\u0e31\u0e01\u0e14\u0e49\u0e27\u0e22\u0e2a\u0e39\u0e15\u0e23\u0e25\u0e31\u0e1a\u0e02\u0e2d\u0e07\u0e23\u0e49\u0e32\u0e19\u0e40\u0e23\u0e32 \u0e17\u0e2d\u0e14\u0e01\u0e23\u0e2d\u0e1a\u0e46 \u0e40\u0e2a\u0e23\u0e34\u0e1f\u0e1e\u0e23\u0e49\u0e2d\u0e21\u0e0b\u0e2d\u0e2a 3 \u0e2a\u0e2b\u0e32\u0e22\u0e2a\u0e39\u0e15\u0e23\u0e40\u0e14\u0e47\u0e14\u0e02\u0e2d\u0e07\u0e23\u0e49\u0e32\u0e19 \u0e41\u0e25\u0e30\u0e22\u0e31\u0e07\u0e21\u0e35\u0e2d\u0e32\u0e2b\u0e32\u0e23\u0e2d\u0e37\u0e48\u0e19\u0e46 \u0e17\u0e31\u0e49\u0e07\u0e17\u0e2d\u0e14 \u0e1c\u0e31\u0e14 \u0e22\u0e48\u0e32\u0e07 \u0e22\u0e33 \u0e25\u0e32\u0e1a \u0e41\u0e25\u0e30 \u0e40\u0e1a\u0e35\u0e22\u0e23\u0e4c\u0e04\u0e23\u0e32\u0e1f\u0e02\u0e2d\u0e07\u0e44\u0e17\u0e22 \u0e02\u0e2d\u0e07\u0e19\u0e2d\u0e01 \u0e2b\u0e21\u0e38\u0e19\u0e40\u0e27\u0e35\u0e22\u0e19\u0e43\u0e2b\u0e49\u0e44\u0e14\u0e49\u0e21\u0e32\u0e25\u0e2d\u0e07\u0e0a\u0e34\u0e21\u0e01\u0e31\u0e19\u0e40\u0e23\u0e37\u0e48\u0e2d", "diet:chicken": "yes", "diet:meat": "yes", "diet:pork": "yes", "name": "\u0e19\u0e31\u0e48\u0e07\u0e14\u0e37\u0e48\u0e21 Craft Beer & Chicken", "name:th": "\u0e19\u0e31\u0e48\u0e07\u0e14\u0e37\u0e48\u0e21 Craft Beer & Chicken", "opening_hours": "Mo-Sa 17:00 - 01:00", "phone": "0853656644", "website": "https://bio.site/CraftBeerChicken"}}, {"type": "node", "id": 10772641962, "lat": 13.8170157, "lon": 100.5563746, "tags": {"amenity": "cafe", "cuisine": "coffee_shop", "name": "\u0e43\u0e08\u0e22\u0e34\u0e19\u0e14\u0e35", "name:": "jai yin dee", "opening_hours": "Mo-Su 07:30-17:00", "outdoor_seating": "yes", "takeaway": "yes", "wheelchair": "limited"}}, {"type": "node", "id": 10862143905, "lat": 13.8059983, "lon": 100.5682913, "tags": {"internet_access": "wlan", "name:en": "L18 Residence", "phone": "064 856 5939", "tourism": "hotel"}}, {"type": "node", "id": 11076418405, "lat": 13.8346963, "lon": 100.5809349, "tags": {"addr:housenumber": "100/8", "addr:postcode": "10900", "addr:street": "Senanikom1 Soi18", "amenity": "restaurant", "cuisine": "american;coffee_shop;diner;fish;fish_and_chips;italian_pizza;pasta", "internet_access": "wlan", "name": "\u0e44\u0e2d\u0e4a\u0e04\u0e44\u0e27\u0e19\u0e4c\u0e2a\u0e40\u0e15\u0e47\u0e01", "name:en": "OAK WINE", "opening_hours": "Mo-Su", "phone": "0646496664"}}, {"type": "node", "id": 11094150139, "lat": 13.8462263, "lon": 100.5646348, "tags": {"amenity": "cafe", "brand": "\u0e04\u0e32\u0e40\u0e1f\u0e48 \u0e2d\u0e40\u0e21\u0e0b\u0e2d\u0e19", "brand:en": "Caf\u00e9 Amazon", "brand:th": "\u0e04\u0e32\u0e40\u0e1f\u0e48 \u0e2d\u0e40\u0e21\u0e0b\u0e2d\u0e19", "brand:wikidata": "Q43247503", "cuisine": "coffee_shop", "motorcycle": "yes", "name": "\u0e04\u0e32\u0e40\u0e1f\u0e48 \u0e2d\u0e40\u0e21\u0e0b\u0e2d\u0e19", "name:en": "Caf\u00e9 Amazon", "name:th": "\u0e04\u0e32\u0e40\u0e1f\u0e48 \u0e2d\u0e40\u0e21\u0e0b\u0e2d\u0e19", "takeaway": "yes"}}, {"type": "node", "id": 11094150182, "lat": 13.8457848, "lon": 100.5701382, "tags": {"addr:postcode": "10900", "artwork_type": "statue", "material": "metal", "name": "Statue of Chuchat Kamphu", "name:th": "\u0e23\u0e39\u0e1b\u0e1b\u0e31\u0e49\u0e19\u0e2b\u0e21\u0e48\u0e2d\u0e21\u0e2b\u0e25\u0e27\u0e07\u0e0a\u0e39\u0e0a\u0e32\u0e15\u0e34 \u0e01\u0e33\u0e20\u0e39", "tourism": "artwork"}}, {"type": "node", "id": 11209472437, "lat": 13.8451157, "lon": 100.5705646, "tags": {"amenity": "cafe", "cuisine": "bubble_tea", "name": "\u0e42\u0e17\u0e23\u0e30\u0e09\u0e30", "name:en": "Tora Cha", "website": "https://www.torachath.com"}}, {"type": "node", "id": 11209472438, "lat": 13.845753, "lon": 100.5722574, "tags": {"amenity": "cafe", "brand": "Starbucks", "brand:wikidata": "Q37158", "cuisine": "coffee_shop", "name": "Starbucks", "name:en": "Starbucks", "official_name": "Starbucks Coffee", "takeaway": "yes"}}, {"type": "node", "id": 11209554237, "lat": 13.8450768, "lon": 100.5705664, "tags": {"amenity": "cafe", "cuisine": "ice_cream", "name": "\u0e44\u0e2d\u0e0b\u0e4c\u0e01\u0e34\u0e42\u0e21", "name:en": "Izekimo", "website": "https://m.facebook.com/izekimofanpage"}}, {"type": "node", "id": 11230547037, "lat": 13.8426888, "lon": 100.570875, "tags": {"amenity": "restaurant", "contact:facebook": "SalmonkingKU", "cuisine": "japanese", "name:en": "Salmon King"}}, {"type": "node", "id": 11240184437, "lat": 13.8457566, "lon": 100.5641242, "tags": {"amenity": "cafe", "name": "Sol Seoul Cafe"}}, {"type": "node", "id": 11240197237, "lat": 13.8449273, "lon": 100.5702802, "tags": {"amenity": "cafe", "name": "Zoiycha"}}, {"type": "node", "id": 11240197337, "lat": 13.8448839, "lon": 100.5702827, "tags": {"amenity": "restaurant", "name": "E-saduak"}}, {"type": "node", "id": 11240197437, "lat": 13.8448277, "lon": 100.5702813, "tags": {"amenity": "restaurant", "name": "Me Eat"}}, {"type": "node", "id": 11240197438, "lat": 13.844762, "lon": 100.5702835, "tags": {"amenity": "restaurant", "name": "Dou"}}, {"type": "node", "id": 11240219337, "lat": 13.8460418, "lon": 100.5684104, "tags": {"leisure": "park"}}, {"type": "node", "id": 11240250137, "lat": 13.843902, "lon": 100.5700931, "tags": {"amenity": "cafe", "name": "The Boon Cafe"}}, {"type": "node", "id": 11240273037, "lat": 13.8427089, "lon": 100.5709043, "tags": {"amenity": "restaurant", "contact:facebook": "SalmonkingKU", "cuisine": "japanese", "name:en": "Salmon King", "opening_hours": "Mo-Su 10:30-19:30"}}, {"type": "node", "id": 11240273238, "lat": 13.8422195, "lon": 100.5705527, "tags": {"amenity": "restaurant", "name": "\u0e44\u0e01\u0e48\u0e0a\u0e27\u0e19\u0e0a\u0e34\u0e21\u0e23\u0e34\u0e21\u0e17\u0e32\u0e07"}}, {"type": "node", "id": 11240718199, "lat": 13.8440026, "lon": 100.5671228, "tags": {"amenity": "restaurant", "brand": "MK Restaurants", "brand:wikidata": "Q62075359", "cuisine": "thai", "name": "MK Restaurants"}}, {"type": "node", "id": 11363209369, "lat": 13.8445888, "lon": 100.5703314, "tags": {"amenity": "restaurant", "name": "Me Eat", "opening_hours": "Mo-Su 07:00-18:00"}}, {"type": "node", "id": 11530773769, "lat": 13.8078427, "lon": 100.559522, "tags": {"tourism": "viewpoint"}}, {"type": "node", "id": 11545510125, "lat": 13.8415487, "lon": 100.5770457, "tags": {"amenity": "restaurant"}}, {"type": "node", "id": 11598572469, "lat": 13.8318859, "lon": 100.5706228, "tags": {"addr:street": "\u0e16\u0e19\u0e19\u0e1e\u0e2b\u0e25\u0e42\u0e22\u0e18\u0e34\u0e19", "contact:line": "bkmhostel", "internet_access": "wlan", "name:en": "Baan Kun Mhor hostel", "phone": "+66823333033", "tourism": "hostel"}}, {"type": "node", "id": 11675957670, "lat": 13.8208067, "lon": 100.59766, "tags": {"name": "\u0e2a\u0e21\u0e22\u0e28 \u0e02\u0e49\u0e32\u0e27\u0e15\u0e49\u0e21", "tourism": "attraction"}}, {"type": "node", "id": 11675957671, "lat": 13.8208749, "lon": 100.5976719, "tags": {"name": "\u0e02\u0e49\u0e32\u0e27\u0e15\u0e49\u0e21 \u0e2a\u0e21\u0e22\u0e28 \u0e01\u0e17\u0e21", "tourism": "attraction"}}, {"type": "node", "id": 12245705320, "lat": 13.8159338, "lon": 100.5600715, "tags": {"addr:district": "\u0e08\u0e15\u0e38\u0e08\u0e31\u0e01\u0e23", "addr:housenumber": "LP-R06", "addr:place": "\u0e40\u0e0b\u0e47\u0e19\u0e17\u0e23\u0e31\u0e25 \u0e25\u0e32\u0e14\u0e1e\u0e23\u0e49\u0e32\u0e27", "addr:postcode": "10900", "addr:province": "\u0e01\u0e23\u0e38\u0e07\u0e40\u0e17\u0e1e", "addr:street": "\u0e16\u0e19\u0e19\u0e1e\u0e2b\u0e25\u0e42\u0e22\u0e18\u0e34\u0e19", "addr:subdistrict": "\u0e08\u0e15\u0e38\u0e08\u0e31\u0e01\u0e23", "amenity": "restaurant", "branch": "\u0e40\u0e0b\u0e47\u0e19\u0e17\u0e23\u0e31\u0e25\u0e25\u0e32\u0e14\u0e1e\u0e23\u0e49\u0e32\u0e27", "cuisine": "chinese", "name": "ChaaChaa Malatang - \u0e40\u0e0b\u0e47\u0e19\u0e17\u0e23\u0e31\u0e25\u0e25\u0e32\u0e14\u0e1e\u0e23\u0e49\u0e32\u0e27", "opening_hours": "Mo-Su 11:00-21:30", "phone": "0824968854", "website": "https://linktr.ee/chaachaamalatang"}}, {"type": "node", "id": 12428813832, "lat": 13.8117861, "lon": 100.5556527, "tags": {"name": "Boule playground", "tourism": "attraction"}}, {"type": "node", "id": 12428813842, "lat": 13.8166694, "lon": 100.5549366, "tags": {"tourism": "viewpoint"}}, {"type": "node", "id": 12428813846, "lat": 13.81815, "lon": 100.5627011, "tags": {"amenity": "cafe", "name": "Punthai Coffee"}}, {"type": "node", "id": 12428814174, "lat": 13.8174688, "lon": 100.5558258, "tags": {"historic": "wayside_shrine"}}, {"type": "node", "id": 12428814176, "lat": 13.816626, "lon": 100.5579011, "tags": {"amenity": "cafe", "name": "Cafe Amazon"}}, {"type": "node", "id": 12428814177, "lat": 13.8146046, "lon": 100.5601187, "tags": {"historic": "monument", "name:en": "Rotary International"}}, {"type": "node", "id": 12428814182, "lat": 13.8180392, "lon": 100.5635394, "tags": {"amenity": "restaurant", "cuisine": "japanese", "name": "Fuji Japanese Restaurant"}}, {"type": "node", "id": 12428814184, "lat": 13.8177126, "lon": 100.5640791, "tags": {"amenity": "restaurant", "name": "MK"}}, {"type": "node", "id": 12428814621, "lat": 13.8159621, "lon": 100.5561218, "tags": {"name": "Pedal boat rental", "tourism": "attraction"}}, {"type": "node", "id": 12428814629, "lat": 13.8133657, "lon": 100.5619306, "tags": {"amenity": "cafe", "name": "Starbucks"}}, {"type": "node", "id": 12428815012, "lat": 13.8128695, "lon": 100.5631326, "tags": {"historic": "wayside_shrine"}}, {"type": "node", "id": 12428815013, "lat": 13.8128242, "lon": 100.561918, "tags": {"historic": "wayside_shrine"}}, {"type": "node", "id": 12428815112, "lat": 13.8180334, "lon": 100.5637322, "tags": {"amenity": "restaurant", "name:en": "Nittaya Kai Yang"}}, {"type": "node", "id": 12428815116, "lat": 13.8127592, "lon": 100.5620782, "tags": {"amenity": "cafe", "name": "Cafe Amazon"}}, {"type": "node", "id": 12428815302, "lat": 13.8179137, "lon": 100.5636676, "tags": {"amenity": "restaurant", "cuisine": "american;thai;vietnamese", "diet:vegan": "yes", "diet:vegetarian": "yes", "name": "So vegan", "website": "https://www.happycow.net/reviews/vegetarian-by-so-vegan-bangkok-392036"}}, {"type": "node", "id": 12434975901, "lat": 13.8079211, "lon": 100.5570575, "tags": {"historic": "monument"}}, {"type": "node", "id": 12434995001, "lat": 13.8131664, "lon": 100.5623348, "tags": {"amenity": "restaurant", "name": "Eat Am Are"}}, {"type": "node", "id": 12435089001, "lat": 13.8129175, "lon": 100.5617972, "tags": {"historic": "monument"}}, {"type": "node", "id": 12435141101, "lat": 13.8115971, "lon": 100.5639414, "tags": {"historic": "wayside_shrine"}}, {"type": "node", "id": 12435141502, "lat": 13.8097377, "lon": 100.5680431, "tags": {"amenity": "cafe", "brand": "S&P", "brand:wikidata": "Q125872113", "cuisine": "coffee_shop", "name": "S&P", "shop": "bakery", "takeaway": "yes"}}, {"type": "node", "id": 12435203501, "lat": 13.809692, "lon": 100.5685759, "tags": {"amenity": "cafe", "brand": "\u0e04\u0e32\u0e40\u0e1f\u0e48 \u0e2d\u0e40\u0e21\u0e0b\u0e2d\u0e19", "brand:en": "Caf\u00e9 Amazon", "brand:th": "\u0e04\u0e32\u0e40\u0e1f\u0e48 \u0e2d\u0e40\u0e21\u0e0b\u0e2d\u0e19", "brand:wikidata": "Q43247503", "cuisine": "coffee_shop", "name": "\u0e04\u0e32\u0e40\u0e1f\u0e48 \u0e2d\u0e40\u0e21\u0e0b\u0e2d\u0e19", "name:en": "Caf\u00e9 Amazon", "name:th": "\u0e04\u0e32\u0e40\u0e1f\u0e48 \u0e2d\u0e40\u0e21\u0e0b\u0e2d\u0e19", "takeaway": "yes"}}, {"type": "node", "id": 12435236303, "lat": 13.8069676, "lon": 100.5705315, "tags": {"amenity": "restaurant", "name:en": "Chang Chang Chang"}}, {"type": "node", "id": 12435247703, "lat": 13.8039034, "lon": 100.5700505, "tags": {"amenity": "cafe", "name:en": "Pokoff Cafe", "opening_hours": "Sa-Th 08:00-18:00"}}, {"type": "node", "id": 12435264801, "lat": 13.8019082, "lon": 100.5663686, "tags": {"amenity": "restaurant", "name": "Homemade Thai Cuisine"}}, {"type": "node", "id": 12462395638, "lat": 13.8013551, "lon": 100.5704357, "tags": {"amenity": "restaurant", "check_date": "2024-12-30", "cuisine": "thai", "level": "0", "name": "\u0e04\u0e23\u0e31\u0e27\u0e1a\u0e49\u0e32\u0e19\u0e2a\u0e27\u0e19 By Madam Apple", "name:th": "\u0e04\u0e23\u0e31\u0e27\u0e1a\u0e49\u0e32\u0e19\u0e2a\u0e27\u0e19 By Madam Apple", "payment:cards": "no", "payment:cash": "yes", "payment:credit_cards": "no", "payment:debit_cards": "no", "website": "https://drive.google.com/file/d/1i3x5BKIQTnUKZNroTWN6Od7G6OPK4d_j/view?usp=drivesdk"}}, {"type": "node", "id": 12541388477, "lat": 13.8352007, "lon": 100.5659993, "tags": {"amenity": "restaurant", "cuisine": "thai", "diet:chicken": "yes", "diet:healthy": "yes", "name": "\u0e15\u0e32\u0e21\u0e2a\u0e31\u0e48\u0e07 \u0e44\u0e01\u0e48\u0e04\u0e25\u0e35\u0e19\u0e04\u0e25\u0e48\u0e2d\u0e07", "phone": "0836590028", "website": "https://r.grab.com/g/6-20250129_174442_189ca0582b3c43f9a4bb011d1243b424_MEXMPS-3-C65XFAMJGLKCC6"}}, {"type": "node", "id": 12558426327, "lat": 13.8214975, "lon": 100.580759, "tags": {"addr:district": "\u0e08\u0e15\u0e38\u0e08\u0e31\u0e01\u0e23", "addr:housenumber": "142", "addr:place": "Mae Sai Thong", "addr:postcode": "10900", "addr:province": "\u0e01\u0e23\u0e38\u0e40\u0e17\u0e1e\u0e21\u0e2b\u0e32\u0e19\u0e04\u0e23", "addr:street": "\u0e0b\u0e2d\u0e22\u0e23\u0e31\u0e0a\u0e14\u0e32\u0e20\u0e34\u0e40\u0e29\u0e01 36 \u0e41\u0e22\u0e01 9", "addr:subdistrict": "\u0e08\u0e31\u0e19\u0e17\u0e23\u0e40\u0e01\u0e29\u0e21", "amenity": "restaurant", "cuisine": "thai;isaan_food", "diet:isaan_food": "yes", "name": "Pai Dong Pai Dag Num Gun", "opening_hours": "24/7", "website": "https://www.facebook.com/profile.php?id=61571653629738"}}, {"type": "node", "id": 12581979067, "lat": 13.8193041, "lon": 100.5921453, "tags": {"amenity": "cafe", "name": "Hachiko Bubble Tea Dog Cafe"}}, {"type": "node", "id": 12622284690, "lat": 13.841005, "lon": 100.5727981, "tags": {"addr:district": "\u0e08\u0e15\u0e38\u0e08\u0e31\u0e01\u0e23", "addr:housenumber": "21/17", "addr:place": "Floor 2", "addr:postcode": "10900", "addr:province": "\u0e01\u0e23\u0e38\u0e07\u0e40\u0e17\u0e1e\u0e21\u0e2b\u0e32\u0e19\u0e04\u0e23", "addr:street": "\u0e07\u0e32\u0e21\u0e27\u0e07\u0e28\u0e4c\u0e27\u0e32\u0e19 56", "addr:subdistrict": "\u0e25\u0e32\u0e14\u0e22\u0e32\u0e27", "amenity": "cafe", "check_date": "2025-08-13", "check_date:currency:XBT": "2025-08-13", "contact:facebook": "https://www.facebook.com/rungarooncoffeebar", "contact:instagram": "https://www.instagram.com/rung.arooncoffee", "cuisine": "coffee_shop", "currency:XBT": "yes", "name": "\u0e23\u0e38\u0e48\u0e07\u0e2d\u0e23\u0e38\u0e13 \u0e04\u0e32\u0e40\u0e1f\u0e48", "name:en": "Rung Aroon Coffee Bar", "name:th": "\u0e23\u0e38\u0e48\u0e07\u0e2d\u0e23\u0e38\u0e13 \u0e04\u0e32\u0e40\u0e1f\u0e48", "opening_hours": "Mo-Su 07:00-17:00", "payment:cash": "yes", "payment:lightning": "yes", "payment:lightning_contactless": "no", "payment:onchain": "no", "phone": "+66 80 441 2131", "survey:date": "2025-08-08"}}, {"type": "node", "id": 12712266601, "lat": 13.8000282, "lon": 100.5510263, "tags": {"amenity": "restaurant", "name": "Chef Perth Station"}}, {"type": "node", "id": 12799680871, "lat": 13.8342864, "lon": 100.5689585, "tags": {"access": "private", "historic": "wayside_shrine"}}, {"type": "node", "id": 12947423909, "lat": 13.8456891, "lon": 100.5689957, "tags": {"amenity": "cafe", "cuisine": "coffee_shop", "indoor_seating": "no", "internet_access": "no", "name": "Punthai Coffee", "outdoor_seating": "no", "takeaway": "only"}}, {"type": "node", "id": 13049940868, "lat": 13.8207633, "lon": 100.5642064, "tags": {"amenity": "restaurant", "brand": "\u0e2a\u0e38\u0e01\u0e35\u0e49\u0e15\u0e35\u0e4b\u0e19\u0e49\u0e2d\u0e22", "brand:wikidata": "Q131298358", "name": "\u0e2a\u0e38\u0e01\u0e35\u0e49\u0e15\u0e35\u0e4b\u0e19\u0e49\u0e2d\u0e22", "name:en": "Suki Teenoi", "opening_hours": "Mo-Su 11:00-05:00", "opening_hours:kitchen": "Mo-Su 11:00-04:30", "parking": "yes", "parking:fee:conditional": "no @ (stay<3 hours and customers)", "payment:cards": "no", "payment:qr_code": "yes"}}, {"type": "node", "id": 13164626001, "lat": 13.840081, "lon": 100.59963, "tags": {"amenity": "cafe", "name": "\u0e04\u0e32\u0e40\u0e1f\u0e48 \u0e2d\u0e40\u0e21\u0e0b\u0e2d\u0e19", "name:en": "Caf\u00e9 Amazon", "name:he": "\u05e7\u05e4\u05d4 \u05d0\u05de\u05d6\u05d5\u05df"}}, {"type": "node", "id": 13164626201, "lat": 13.839304, "lon": 100.58216, "tags": {"amenity": "cafe", "name": "\u0e01\u0e32\u0e41\u0e1f\u0e1e\u0e31\u0e19\u0e18\u0e4c\u0e38\u0e44\u0e17\u0e22", "name:en": "PunThai Coffee", "name:he": "\u05e7\u05e4\u05d4 \u05e4\u05df-\u05ea\u05d0\u05d9"}}, {"type": "node", "id": 13305168813, "lat": 13.8322347, "lon": 100.5594967, "tags": {"addr:housenumber": "1/19", "addr:street": "\u0e0b\u0e2d\u0e22\u0e27\u0e34\u0e20\u0e32\u0e27\u0e14\u0e35\u0e23\u0e31\u0e07\u0e2a\u0e34\u0e15 38", "amenity": "restaurant", "name": "Nature Cafe 1191"}}, {"type": "node", "id": 13305168814, "lat": 13.8321373, "lon": 100.5593381, "tags": {"addr:housenumber": "1/19", "addr:street": "\u0e0b\u0e2d\u0e22\u0e27\u0e34\u0e20\u0e32\u0e27\u0e14\u0e35\u0e23\u0e31\u0e07\u0e2a\u0e34\u0e15 38", "name": "Nature Boutique Hotel Ratchayothin", "tourism": "hotel"}}, {"type": "node", "id": 13305168873, "lat": 13.8322952, "lon": 100.5591415, "tags": {"name": "Grand ICONIC Bangkok", "tourism": "hotel"}}, {"type": "node", "id": 13305168892, "lat": 13.8321242, "lon": 100.5591465, "tags": {"name": "Rent V38 #420 friendly hotel Bangkok", "tourism": "hotel"}}, {"type": "node", "id": 13305168893, "lat": 13.8318378, "lon": 100.5593715, "tags": {"amenity": "cafe", "cuisine": "coffee_shop", "name": "Coffee lab caf\u00e9 by nhoii", "not:brand:wikidata": "Q109568497"}}, {"type": "node", "id": 13318421001, "lat": 13.8320429, "lon": 100.5593554, "tags": {"addr:housenumber": "1/19", "addr:street": "\u0e0b\u0e2d\u0e22\u0e27\u0e34\u0e20\u0e32\u0e27\u0e14\u0e35\u0e23\u0e31\u0e07\u0e2a\u0e34\u0e15 38", "internet_access": "wlan", "name": "Nature Boutique Hotel", "opening_hours": "24/7", "phone": "+66 81 104 8000", "tourism": "hotel", "website": "https://naturehotel.info/"}}, {"type": "way", "id": 23486417, "nodes": [254344345, 390321466, 254344347, 390321467, 972475416, 254344349, 254344351, 5356955309, 5356955310, 390321468, 5356955311, 390321469, 390321470, 1799112216, 1799112197, 1799112218, 1799112215, 390321471, 1799112217, 254344353, 254344355, 1699230668, 1699230701, 9363714046, 254344359, 2141597163, 2141597129, 254344345], "tags": {"addr:postcode": "10900", "addr:street": "\u0e16\u0e19\u0e19\u0e1e\u0e2b\u0e25\u0e42\u0e22\u0e18\u0e34\u0e19", "alt_name:en": "JJ Park", "leisure": "park", "name": "\u0e2a\u0e27\u0e19\u0e08\u0e15\u0e38\u0e08\u0e31\u0e01\u0e23", "name:en": "Chatuchak Park", "name:ja": "\u30c1\u30e3\u30c8\u30a5\u30c1\u30e3\u30c3\u30af\u516c\u5712", "name:th": "\u0e2a\u0e27\u0e19\u0e08\u0e15\u0e38\u0e08\u0e31\u0e01\u0e23", "opening_hours": "Mo-Su 04:30-22:00", "source": "Yahoo Aerial", "website": "http://203.155.220.217/office/ppdd/publicpark/thai/2011/park02.asp", "wikidata": "Q1936390", "wikimedia_commons": "Category:Chatuchak Park", "wikipedia": "th:\u0e2a\u0e27\u0e19\u0e08\u0e15\u0e38\u0e08\u0e31\u0e01\u0e23"}}, {"type": "way", "id": 23487332, "nodes": [254350025, 10983768203, 254350026, 972475410, 972475408, 972475405, 254350028, 11978240080, 254350029, 981019718, 981099107, 981099194, 254350030, 254350031, 254350032, 254350033, 254350035, 254350036, 254351626, 254351625, 254351624, 254351623, 254350041, 981174132, 981174207, 981174204, 254350025], "tags": {"addr:street": "\u0e16\u0e19\u0e19\u0e01\u0e33\u0e41\u0e1e\u0e07\u0e40\u0e1e\u0e0a\u0e23 2", "leisure": "park", "name": "\u0e2a\u0e27\u0e19\u0e2a\u0e21\u0e40\u0e14\u0e47\u0e08\u0e1e\u0e23\u0e30\u0e19\u0e32\u0e07\u0e40\u0e08\u0e49\u0e32\u0e2a\u0e34\u0e23\u0e34\u0e01\u0e34\u0e15\u0e34\u0e4c\u0e2f", "name:en": "Queen Sirikit Park", "name:etymology:wikidata": "Q164518", "name:th": "\u0e2a\u0e27\u0e19\u0e2a\u0e21\u0e40\u0e14\u0e47\u0e08\u0e1e\u0e23\u0e30\u0e19\u0e32\u0e07\u0e40\u0e08\u0e49\u0e32\u0e2a\u0e34\u0e23\u0e34\u0e01\u0e34\u0e15\u0e34\u0e4c\u0e2f", "opening_hours": "05:00-19:00", "short_name": "\u0e2a\u0e27\u0e19\u0e2a\u0e34\u0e23\u0e34\u0e01\u0e34\u0e15\u0e34\u0e4c", "source": "Yahoo Aerial", "website": "http://203.155.220.217/office/ppdd/publicpark/thai/2011/park06.asp", "wikidata": "Q2915575", "wikimedia_commons": "Category:Queen Sirikit Park, Bangkok", "wikipedia": "th:\u0e2a\u0e27\u0e19\u0e2a\u0e21\u0e40\u0e14\u0e47\u0e08\u0e1e\u0e23\u0e30\u0e19\u0e32\u0e07\u0e40\u0e08\u0e49\u0e32\u0e2a\u0e34\u0e23\u0e34\u0e01\u0e34\u0e15\u0e34\u0e4c\u0e2f"}}, {"type": "way", "id": 23487550, "nodes": [254351617, 12987056951, 727473025, 727473019, 12987056953, 254351618, 12987056952, 254351619, 254351620, 254350025, 981174204, 981174207, 981174132, 254350041, 254351623, 254351624, 254351625, 254351626, 254350036, 254351628, 2179133854, 2179133855, 2179133859, 2973886315, 2179133871, 254351629, 254351630, 11611015766, 11672145232, 254351631, 254351632, 724273959, 254351633, 2973886321, 2978782451, 254351617], "tags": {"addr:street": "\u0e16\u0e19\u0e19\u0e01\u0e33\u0e41\u0e1e\u0e07\u0e40\u0e1e\u0e0a\u0e23 3", "alt_name": "\u0e2a\u0e27\u0e19\u0e23\u0e16\u0e44\u0e1f", "alt_name:en": "Rotfai Park", "leisure": "park", "name": "\u0e2a\u0e27\u0e19\u0e27\u0e0a\u0e34\u0e23\u0e40\u0e1a\u0e0d\u0e08\u0e17\u0e31\u0e28", "name:en": "Wachirabenchathat Park", "name:th": "\u0e2a\u0e27\u0e19\u0e27\u0e0a\u0e34\u0e23\u0e40\u0e1a\u0e0d\u0e08\u0e17\u0e31\u0e28", "opening_hours": "04:30-21:00", "website": "http://203.155.220.217/office/ppdd/publicpark/thai/2011/park08.asp", "wikidata": "Q13022361", "wikimedia_commons": "Category:Wachirabenchathat Park", "wikipedia": "th:\u0e2a\u0e27\u0e19\u0e27\u0e0a\u0e34\u0e23\u0e40\u0e1a\u0e0d\u0e08\u0e17\u0e31\u0e28"}}, {"type": "way", "id": 32095973, "nodes": [360316904, 360316907, 360316909, 360316912, 360318079, 360317781, 360317782, 360317783, 360317784, 360317785, 360317786, 360318204, 360316904], "tags": {"leisure": "park", "name": "Water Bank \u0e23\u0e31\u0e0a\u0e27\u0e34\u0e20\u0e32"}}, {"type": "way", "id": 37911198, "nodes": [444983283, 4634847658, 4634847657, 4634847656, 4634847655, 4634847654, 4634847653, 4634847652, 11360462973, 1357763501, 444983299, 1357763622, 11360462972, 4616441921, 11360463089, 4634847651, 4634847650, 4634847649, 11360463086, 4371519090, 11360463084, 4634847648, 4634847647, 1357763648, 11360463083, 4616441920, 12785464776, 12785464777, 11360463041, 4634847646, 4634847645, 4634847644, 444983307, 1357763653, 1357763616, 11360463035, 4634847643, 11360463047, 444983311, 11360463046, 11360463045, 4634847641, 4634847642, 11360463048, 4634847639, 4634847640, 444983314, 4634847638, 11360463058, 4634847637, 4634847636, 4634847635, 4634847634, 11360463056, 11360463053, 4616441922, 11360463069, 5737849064, 5737849061, 4634847667, 5737849065, 444983318, 4634847666, 4634847665, 4634847664, 4634847663, 4634847662, 4634847661, 4634847660, 4634847659, 444983283], "tags": {"alt_name": "\u0e08\u0e15\u0e38\u0e08\u0e31\u0e01\u0e23", "alt_name:en": "JJ Market;Chatuchak Weekend Market", "alt_name:th": "\u0e08\u0e15\u0e38\u0e08\u0e31\u0e01\u0e23", "amenity": "marketplace", "landuse": "retail", "name": "\u0e15\u0e25\u0e32\u0e14\u0e19\u0e31\u0e14\u0e08\u0e15\u0e38\u0e08\u0e31\u0e01\u0e23", "name:en": "Chatuchak Market", "name:es": "Mercado Chatuchak", "name:fr": "Chatuchak Market", "name:ja": "\u30c1\u30e3\u30c8\u30c1\u30e3\u30c3\u30af \u30a6\u30a3\u30fc\u30af\u30a8\u30f3\u30c9\u30de\u30fc\u30b1\u30c3\u30c8", "name:km": "\u1795\u17d2\u179f\u17b6\u179a\u1785\u178f\u17bb\u1785\u1780\u17d2\u179a", "name:ko": "\uc9dc\ub69c\uc9dd \uc2dc\uc7a5", "name:pt": "Chatuchak", "name:th": "\u0e15\u0e25\u0e32\u0e14\u0e19\u0e31\u0e14\u0e08\u0e15\u0e38\u0e08\u0e31\u0e01\u0e23", "name:zh": "\u6070\u5716\u6070\u5047\u65e5\u5e02\u96c6", "opening_hours": "Sa-Su 09:00-18:00; We-Th 07:00-18:00; Fr 18:00-00:00", "tourism": "attraction", "website": "https://www.chatuchakmarket.org", "wikidata": "Q1068311", "wikimedia_commons": "Category:Jatujak Market", "wikipedia": "th:\u0e15\u0e25\u0e32\u0e14\u0e19\u0e31\u0e14\u0e08\u0e15\u0e38\u0e08\u0e31\u0e01\u0e23"}}, {"type": "way", "id": 83519055, "nodes": [972487714, 972487715, 972487716, 972487717, 972487714], "tags": {"building": "yes", "name": "\u0e1e\u0e34\u0e1e\u0e34\u0e18\u0e20\u0e31\u0e13\u0e11\u0e4c\u0e40\u0e14\u0e47\u0e01\u0e01\u0e23\u0e38\u0e07\u0e40\u0e17\u0e1e\u0e21\u0e2b\u0e32\u0e19\u0e04\u0e23", "name:en": "Children's Discovery Museum", "short_name": "\u0e1e\u0e34\u0e1e\u0e34\u0e18\u0e20\u0e31\u0e13\u0e11\u0e4c\u0e40\u0e14\u0e47\u0e01 \u0e01\u0e17\u0e21.", "short_name:en": "Children's Museum", "tourism": "museum", "wikidata": "Q5098070", "wikimedia_commons": "Category:Bangkok Children's Discovery Museum", "wikipedia": "en:Children's Discovery Museum Bangkok 1"}}, {"type": "way", "id": 94728856, "nodes": [1099898443, 1099898481, 1099898473, 1099898475, 1099898443], "tags": {"addr:postcode": "10900", "building": "yes", "museum": "history", "name": "\u0e2b\u0e2d\u0e1b\u0e23\u0e30\u0e27\u0e31\u0e15\u0e34\u0e2f", "name:en": "Hall of History", "tourism": "museum", "website": "http://www.kuhistory.ku.ac.th"}}, {"type": "way", "id": 121239921, "nodes": [1357777493, 1357777515, 1357777504, 1357777524, 1357777530, 1357777493], "tags": {"landuse": "retail", "name": "\u0e08\u0e15\u0e38\u0e08\u0e31\u0e01\u0e23\u0e1e\u0e25\u0e32\u0e0b\u0e48\u0e32", "name:en": "JatuJak Plaza", "name:es": "Plaza Chatuchak", "name:km": "\u1785\u178f\u17bb\u1785\u1780\u17d2\u179a\u1795\u17d2\u179b\u17b6\u17a0\u17d2\u179f\u17b6", "tourism": "attraction"}}, {"type": "way", "id": 146461574, "nodes": [1597519338, 8715337025, 8715337021, 8715337026, 1597519339, 1597519340, 8715337022, 8715337023, 8715337024, 1597519338], "tags": {"building": "yes", "name": "Centara Grand @ Central Plaza", "toilets:wheelchair": "no", "tourism": "hotel", "website": "https://www.centarahotelsresorts.com/centaragrand/cglb", "wheelchair": "yes"}}, {"type": "way", "id": 168687083, "nodes": [1799150282, 1799150302, 6702329470, 1799150292, 6702329469, 1799150277, 6702329468, 1799150301, 1799150299, 1799150279, 1799150294, 1799150286, 1799150284, 1799150271, 1799150281, 1799150287, 1799150297, 1799150272, 1799150291, 1799150296, 1799150266, 5356955299, 1799150289, 1799150276, 1799150274, 1799150282], "tags": {"leisure": "park", "name": "\u0e2a\u0e27\u0e19\u0e2a\u0e21\u0e40\u0e14\u0e47\u0e08\u0e22\u0e48\u0e32 \u0e58\u0e54", "name:en": "Somdet Ya 84 Park", "name:th": "\u0e2a\u0e27\u0e19\u0e2a\u0e21\u0e40\u0e14\u0e47\u0e08\u0e22\u0e48\u0e32 \u0e58\u0e54"}}, {"type": "way", "id": 184554851, "nodes": [1950500008, 1950500037, 1950500014, 1950499878, 1950500008], "tags": {"amenity": "restaurant", "building": "yes", "cuisine": "japanese", "name": "Jirafu Sushi", "name:th": "\u0e08\u0e34\u0e23\u0e32\u0e1f\u0e38"}}, {"type": "way", "id": 184554858, "nodes": [1950499888, 1950499935, 1950499948, 1950499885, 1950499956, 1950499888], "tags": {"amenity": "restaurant", "name": "\u0e01\u0e34\u0e19\u0e14\u0e37\u0e48\u0e21"}}, {"type": "way", "id": 196080599, "nodes": [3888264495, 2099196926, 2064499687, 2099196943, 2064499692, 2064499696, 2064499680, 2099196947, 2064499700, 2099196939, 2064499704, 2064499672, 2064499675, 2109253609, 2109007293, 2064499701, 2064499678, 2064499670, 2099204033, 2099196930, 3888264495], "tags": {"amenity": "marketplace", "name": "\u0e15\u0e25\u0e32\u0e14\u0e2a\u0e14 (O)"}}, {"type": "way", "id": 196824069, "nodes": [2071183954, 13184555850, 13184429897, 13184429898, 8015216274, 13184429899, 13184429900, 13184429901, 1710467179, 1710467351, 13184429902, 2071183955, 13184430010, 1710467193, 2071183953, 8015216265, 1710467405, 13184430011, 8015216263, 10855617063, 13184430014, 13184555849, 2071183954], "tags": {"amenity": "marketplace", "name": "Bonmarche Market"}}, {"type": "way", "id": 199925675, "nodes": [3888264496, 2099196938, 2099196930, 2099204033, 2064499670, 2064499678, 2064499701, 2109007286, 2064499683, 11222421653, 2099196946, 2064499703, 2064499694, 2109007285, 2064499698, 2109007292, 2064499682, 3888264496], "tags": {"amenity": "marketplace", "name": "\u0e28\u0e39\u0e19\u0e22\u0e4c\u0e2d\u0e32\u0e2b\u0e32\u0e23"}}, {"type": "way", "id": 199926216, "nodes": [2099171806, 2099171802, 2099171800, 2099171797, 2099171795, 2099171806], "tags": {"amenity": "marketplace", "name": "\u0e2a\u0e48\u0e27\u0e19\u0e17\u0e35\u0e48\u0e19\u0e31\u0e48\u0e07\u0e23\u0e31\u0e1a\u0e1b\u0e23\u0e30\u0e17\u0e32\u0e19\u0e2d\u0e32\u0e2b\u0e32\u0e23 (O)"}}, {"type": "way", "id": 199926217, "nodes": [2099171808, 2099171804, 2099171794, 2099171793, 2099171808], "tags": {"amenity": "marketplace", "name": "\u0e23\u0e49\u0e32\u0e19\u0e02\u0e49\u0e32\u0e27\u0e15\u0e49\u0e21\u0e40\u0e25\u0e37\u0e2d\u0e14\u0e2b\u0e21\u0e39 (O)"}}, {"type": "way", "id": 199926245, "nodes": [2099175495, 2099175497, 2099175500, 2099175502, 2099175504, 2099175492, 2099175493, 2099175498, 2099175491, 2099175495], "tags": {"amenity": "cafe", "level": "1;2", "name": "\u0e01\u0e32\u0e41\u0e1f\u0e42\u0e2d\u0e25\u0e31\u0e04", "name:en": "Caf\u00e9 au Lac", "shop": "bakery"}}, {"type": "way", "id": 200944880, "nodes": [2109007288, 2099196939, 2099196928, 2109007291, 2064499675, 2109253609, 2109007293, 2109007286, 2109007290, 11222421653, 2109007287, 2109007285, 2109007292, 3888264497, 2099199614, 2099196924, 13184430013, 2064499680, 2099196934, 2109007288], "tags": {"amenity": "marketplace", "building": "yes", "layer": "1", "name": "\u0e28\u0e39\u0e19\u0e22\u0e4c\u0e2d\u0e32\u0e2b\u0e32\u0e23\u0e41\u0e25\u0e30\u0e15\u0e25\u0e32\u0e14\u0e2a\u0e14", "name:en": "Bon March\u00e9"}}, {"type": "way", "id": 200954980, "nodes": [2109097115, 2109097108, 2109097144, 2109097121, 2109097115], "tags": {"amenity": "marketplace", "name": "\u0e23\u0e49\u0e32\u0e19\u0e02\u0e32\u0e22\u0e0a\u0e32\u0e19\u0e21"}}, {"type": "way", "id": 231663783, "nodes": [2400034208, 13171504037, 2400034223, 2400034220, 2400034218, 2400034217, 2400034211, 2400034210, 2400034205, 2400034204, 2400034203, 2400034202, 2400034208], "tags": {"addr:postcode": "10900", "amenity": "place_of_worship", "denomination": "thai_mahanikaya", "name": "\u0e27\u0e31\u0e14\u0e40\u0e2a\u0e21\u0e35\u0e22\u0e19\u0e19\u0e32\u0e23\u0e35", "name:en": "Wat Samian Nari", "name:th": "\u0e27\u0e31\u0e14\u0e40\u0e2a\u0e21\u0e35\u0e22\u0e19\u0e19\u0e32\u0e23\u0e35", "religion": "buddhist", "website": "https://en.m.wikipedia.org/wiki/Wat_Samian_Nari", "wikidata": "Q64734088", "wikimedia_commons": "Category:Wat Samian Nari, Bangkok", "wikipedia": "th:\u0e27\u0e31\u0e14\u0e40\u0e2a\u0e21\u0e35\u0e22\u0e19\u0e19\u0e32\u0e23\u0e35"}}, {"type": "way", "id": 259496890, "nodes": [2649308369, 2649308366, 2649308357, 2649308349, 2649308358, 2649308368, 2649308369], "tags": {"building": "yes", "name": "\u0e28\u0e32\u0e2a\u0e32\u0e2b\u0e01\u0e40\u0e2b\u0e25\u0e35\u0e48\u0e22\u0e21", "name:en": "The Hexagonal Pavilion", "name:th": "\u0e28\u0e32\u0e25\u0e32\u0e2b\u0e01\u0e40\u0e2b\u0e25\u0e35\u0e48\u0e22\u0e21", "start_date": "1999-02-02", "tourism": "museum"}}, {"type": "way", "id": 259496900, "nodes": [2649308312, 5630752515, 5630752516, 5630752517, 2649308311, 2649308306, 2649308301, 5630752518, 5630752519, 2649308300, 2649308303, 2649308305, 5630753921, 5630752520, 2649308312], "tags": {"leisure": "park"}}, {"type": "way", "id": 259496902, "nodes": [2649308326, 2651268808, 2651268809, 2651268806, 2651268804, 2649308310, 2649308308, 2649365822, 2649365820, 2649365823, 2649365818, 2649308304, 2649308302, 2649308385, 2649308398, 2649308401, 2649308402, 2649308400, 2649365846, 2649365844, 2649365828, 2649365827, 2649365832, 2649365831, 2649365836, 2649365837, 2649365845, 5630753959, 2649308397, 2641722778, 2641722777, 5630753957, 5630753958, 2649308395, 5630753969, 5630753970, 2649308326], "tags": {"leisure": "park", "name": "\u0e2a\u0e27\u0e19\u0e23\u0e27\u0e21\u0e1e\u0e23\u0e23\u0e13\u0e44\u0e21\u0e49\u0e40\u0e01\u0e35\u0e22\u0e23\u0e15\u0e34\u0e1b\u0e23\u0e30\u0e27\u0e31\u0e15\u0e34\u0e44\u0e17\u0e22", "name:en": "Thai Commemorative Garden", "name:th": "\u0e2a\u0e27\u0e19\u0e23\u0e27\u0e21\u0e1e\u0e23\u0e23\u0e13\u0e44\u0e21\u0e49\u0e40\u0e01\u0e35\u0e22\u0e23\u0e15\u0e34\u0e1b\u0e23\u0e30\u0e27\u0e31\u0e15\u0e34\u0e44\u0e17\u0e22"}}, {"type": "way", "id": 259496908, "nodes": [2649308349, 2649308357, 2649308366, 2649308369, 2649308368, 2649308358, 2649308352, 2649308338, 2649308355, 5630753968, 2649308394, 2684855462, 2649308387, 2649308378, 2649308372, 2649308370, 2649308330, 2649308335, 2649308347, 2649308349], "tags": {"leisure": "park"}}, {"type": "way", "id": 259496919, "nodes": [2649308399, 2649308383, 2649308380, 2649308396, 2649308399], "tags": {"leisure": "park"}}, {"type": "way", "id": 259496929, "nodes": [2649308320, 5630752509, 2649308348, 5630752511, 5630752510, 5630753931, 2649308328, 2649308322, 2649308334, 5630752508, 5630752507, 5630752506, 2649308320], "tags": {"leisure": "park"}}, {"type": "way", "id": 259496930, "nodes": [2649308485, 2649308513, 2649308514, 2649308510, 2649308506, 2649308500, 2649308495, 2649308488, 2649308485], "tags": {"leisure": "park"}}, {"type": "way", "id": 259496932, "nodes": [2649308393, 2649308391, 2649308386, 2649308379, 2649308373, 2649308375, 2649308384, 2649308390, 2649308393], "tags": {"leisure": "park"}}, {"type": "way", "id": 259504631, "nodes": [2649356633, 3757287369, 2649356632, 3757287366, 2649356628, 2649356638, 2649356640, 5261481805, 2649356635, 2649356637, 2649356630, 2649356633], "tags": {"leisure": "park"}}, {"type": "way", "id": 259684791, "nodes": [2649308453, 2649308452, 2651255085, 2649308458, 2649308460, 2649308453], "tags": {"leisure": "park", "name": "\u0e2a\u0e27\u0e19\u0e1b\u0e32\u0e25\u0e4c\u0e21 \u0e21\u0e01. \u0e2d\u0e32\u0e27\u0e38\u0e42\u0e2a"}}, {"type": "way", "id": 259684795, "nodes": [2651255046, 5632642288, 2651255065, 5632642287, 2651255034, 2651255046], "tags": {"leisure": "park"}}, {"type": "way", "id": 259684796, "nodes": [2649308460, 2651255153, 2651255154, 2651255155, 2649308467, 2651255158, 2651255142, 2649308453, 2649308460], "tags": {"area": "yes", "leisure": "park"}}, {"type": "way", "id": 259853577, "nodes": [2653116615, 2653116602, 2653116561, 2653116571, 2653116577, 2653116580, 2653116615], "tags": {"leisure": "park", "name": "\u0e2d\u0e38\u0e17\u0e22\u0e32\u0e19\u0e1e\u0e23\u0e23\u0e13\u0e44\u0e21\u0e49\u0e43\u0e19\u0e40\u0e1e\u0e25\u0e07\u0e1e\u0e23\u0e30\u0e23\u0e32\u0e0a\u0e19\u0e34\u0e1e\u0e19\u0e18\u0e4c \u0e2a\u0e21\u0e40\u0e14\u0e47\u0e08\u0e1e\u0e23\u0e30\u0e40\u0e17\u0e1e\u0e23\u0e31\u0e15\u0e19\u0e23\u0e32\u0e0a\u0e2a\u0e38\u0e14\u0e32 \u0e2f \u0e2a\u0e22\u0e32\u0e21\u0e1a\u0e23\u0e21\u0e23\u0e32\u0e0a\u0e01\u0e38\u0e21\u0e32\u0e23\u0e35", "name:th": "\u0e2d\u0e38\u0e17\u0e22\u0e32\u0e19\u0e1e\u0e23\u0e23\u0e13\u0e44\u0e21\u0e49\u0e43\u0e19\u0e40\u0e1e\u0e25\u0e07\u0e1e\u0e23\u0e30\u0e23\u0e32\u0e0a\u0e19\u0e34\u0e1e\u0e19\u0e18\u0e4c \u0e2a\u0e21\u0e40\u0e14\u0e47\u0e08\u0e1e\u0e23\u0e30\u0e40\u0e17\u0e1e\u0e23\u0e31\u0e15\u0e19\u0e23\u0e32\u0e0a\u0e2a\u0e38\u0e14\u0e32 \u0e2f \u0e2a\u0e22\u0e32\u0e21\u0e1a\u0e23\u0e21\u0e23\u0e32\u0e0a\u0e01\u0e38\u0e21\u0e32\u0e23\u0e35"}}, {"type": "way", "id": 262315523, "nodes": [2649212342, 2649212345, 2649212326, 2649212328, 2649212342], "tags": {"leisure": "park"}}, {"type": "way", "id": 262320357, "nodes": [2680040797, 2680040795, 2680040779, 2680040778, 2680040776, 2680040775, 2680040771, 2680040760, 2680040757, 2680040755, 2680040756, 2680040758, 2680040761, 2680040764, 2680040765, 2680040770, 2680040769, 2680040772, 2680040781, 2680040780, 2680040794, 2680040791, 2680040752, 2680040751, 2680040797], "tags": {"leisure": "park"}}, {"type": "way", "id": 263155915, "nodes": [2687901132, 2687901133, 2687901134, 2687901136, 2687901135, 2687901129, 2687901130, 2687901131, 2687901132], "tags": {"leisure": "park"}}, {"type": "way", "id": 314407364, "nodes": [3204493249, 3204493250, 3204493246, 3204493247, 3204493249], "tags": {"leisure": "park", "wheelchair": "limited"}}, {"type": "way", "id": 379337391, "nodes": [3826351034, 3826351050, 3826351037, 3826351032, 3826351034], "tags": {"amenity": "marketplace", "building": "yes", "name": "\u0e15\u0e25\u0e32\u0e14\u0e09\u0e31\u0e15\u0e23\u0e2a\u0e32\u0e04\u0e23 \u0e27\u0e31\u0e07\u0e2b\u0e34\u0e19"}}, {"type": "way", "id": 390019530, "nodes": [3931795898, 3931795879, 6590204816, 6590204815, 3931795869, 3931795871, 5631540886, 3931795881, 12231401307, 12231402203, 12231400703, 3931795898], "tags": {"leisure": "park"}}, {"type": "way", "id": 390232213, "nodes": [3933944425, 3933944424, 3933944414, 3933944415, 3933944425], "tags": {"amenity": "marketplace", "landuse": "retail", "name": "Suan Lum Night Bazaar", "wikipedia": "th:\u0e2a\u0e27\u0e19\u0e25\u0e38\u0e21\u0e44\u0e19\u0e17\u0e4c\u0e1a\u0e32\u0e0b\u0e32\u0e23\u0e4c \u0e23\u0e31\u0e0a\u0e14\u0e32\u0e20\u0e34\u0e40\u0e29\u0e01"}}, {"type": "way", "id": 390232214, "nodes": [3933944423, 3933944422, 3933944420, 3933944421, 3933944423], "tags": {"building": "yes", "name": "The Bazaar Hotel", "tourism": "hotel"}},