{"version": 0.6, "generator": "Overpass API 0.7.62.8 e802775f", "osm3s": {"timestamp_osm_base": "2025-11-20T03:20:30Z", "copyright": "The data included in this document is from www.openstreetmap.org. The data is made available under ODbL."}, "elements": [{"type": "node", "id": 1157481788, "lat": 13.7046933, "lon": 100.4212026, "tags": {"amenity": "marketplace"}}, {"type": "node", "id": 1157481792, "lat": 13.7041825, "lon": 100.4216479, "tags": {"amenity": "restaurant"}}, {"type": "node", "id": 1625414970, "lat": 13.707524, "lon": 100.427125, "tags": {"alt_name": "\u0e15\u0e25\u0e32\u0e14\u0e19\u0e49\u0e33\u0e27\u0e31\u0e14\u0e19\u0e34\u0e21\u0e21\u0e32\u0e19\u0e23\u0e14\u0e35", "amenity": "marketplace", "name": "\u0e15\u0e25\u0e32\u0e14\u0e19\u0e49\u0e33\u0e04\u0e25\u0e2d\u0e07\u0e20\u0e32\u0e29\u0e35\u0e40\u0e08\u0e23\u0e34\u0e0d \u0e27\u0e31\u0e14\u0e19\u0e34\u0e21\u0e21\u0e32\u0e19\u0e23\u0e14\u0e35"}}, {"type": "node", "id": 1625458864, "lat": 13.7119956, "lon": 100.4203953, "tags": {"amenity": "cafe", "cuisine": "coffee_shop", "name": "\u0e23\u0e32\u0e1a\u0e34\u0e01\u0e49\u0e32 \u0e04\u0e2d\u0e1f\u0e1f\u0e35\u0e48", "name:en": "Rabika Coffee"}}, {"type": "node", "id": 1627884610, "lat": 13.7110019, "lon": 100.4096502, "tags": {"amenity": "marketplace", "name": "\u0e27\u0e34\u0e19 \u0e27\u0e34\u0e19 \u0e1e\u0e25\u0e32\u0e0b\u0e48\u0e32", "name:en": "Win Win Plaza", "name:th": "\u0e27\u0e34\u0e19 \u0e27\u0e34\u0e19 \u0e1e\u0e25\u0e32\u0e0b\u0e48\u0e32"}}, {"type": "node", "id": 1870963586, "lat": 13.712332, "lon": 100.4302982, "tags": {"amenity": "restaurant", "cuisine": "thai"}}, {"type": "node", "id": 1871039688, "lat": 13.7125024, "lon": 100.4328264, "tags": {"amenity": "restaurant"}}, {"type": "node", "id": 1872420813, "lat": 13.7128053, "lon": 100.436352, "tags": {"amenity": "restaurant", "name": "\u0e23\u0e32\u0e14\u0e2b\u0e19\u0e49\u0e32\u0e22\u0e2d\u0e14\u0e1c\u0e31\u0e01 \u0e19\u0e32\u0e22\u0e40\u0e04\u0e35\u0e49\u0e22\u0e07 \u0e40\u0e2d\u0e47\u0e21\u0e44\u0e1e\u0e23\u0e4c"}}, {"type": "node", "id": 1872426051, "lat": 13.7128313, "lon": 100.4366786, "tags": {"amenity": "restaurant", "name": "\u0e1a\u0e32\u0e07\u0e2b\u0e27\u0e49\u0e32\u0e23\u0e2a\u0e40\u0e14\u0e47\u0e14"}}, {"type": "node", "id": 1872449458, "lat": 13.7129512, "lon": 100.4378131, "tags": {"amenity": "cafe", "cuisine": "coffee_shop", "name": "\u0e21\u0e34\u0e2a\u0e40\u0e15\u0e2d\u0e23\u0e4c\u0e1f\u0e34\u0e27\u0e2a\u0e4c \u0e01\u0e32\u0e41\u0e1f\u0e2a\u0e14"}}, {"type": "node", "id": 1874198065, "lat": 13.713704, "lon": 100.440653, "tags": {"amenity": "restaurant", "name": "BB \u0e2a\u0e27\u0e19\u0e2d\u0e32\u0e2b\u0e32\u0e23"}}, {"type": "node", "id": 1874207764, "lat": 13.7144962, "lon": 100.4431045, "tags": {"amenity": "restaurant", "name": "\u0e41\u0e01\u0e07\u0e43\u0e15\u0e49"}}, {"type": "node", "id": 1874208785, "lat": 13.7145744, "lon": 100.4433244, "tags": {"amenity": "restaurant", "name": "\u0e23\u0e2d\u0e22\u0e22\u0e34\u0e49\u0e21 \u0e2a\u0e40\u0e15\u0e47\u0e01 & \u0e19\u0e21\u0e2a\u0e14"}}, {"type": "node", "id": 1881941109, "lat": 13.7151672, "lon": 100.4450652, "tags": {"amenity": "restaurant", "name": "\u0e20\u0e31\u0e15\u0e15\u0e32\u0e04\u0e32\u0e23\u0e23\u0e34\u0e21\u0e17\u0e32\u0e07"}}, {"type": "node", "id": 1881941110, "lat": 13.715188, "lon": 100.4451269, "tags": {"amenity": "restaurant", "name": "\u0e25\u0e34\u0e49\u0e19 \u0e40\u0e25\u0e48\u0e32 \u0e0b\u0e32 \u0e25\u0e39\u0e01\u0e0a\u0e34\u0e49\u0e19\u0e1b\u0e25\u0e32\u0e40\u0e15\u0e49\u0e19\u0e44\u0e14\u0e49"}}, {"type": "node", "id": 1881948358, "lat": 13.7159593, "lon": 100.4475489, "tags": {"amenity": "restaurant", "name": "\u0e07\u0e38\u0e48\u0e22\u0e40\u0e21\u0e48\u0e07\u0e40\u0e2e\u0e35\u0e22\u0e07"}}, {"type": "node", "id": 1915024097, "lat": 13.7171894, "lon": 100.4497396, "tags": {"amenity": "cafe"}}, {"type": "node", "id": 1915028083, "lat": 13.7173401, "lon": 100.4499146, "tags": {"amenity": "restaurant"}}, {"type": "node", "id": 1915063963, "lat": 13.7166886, "lon": 100.4478842, "tags": {"amenity": "restaurant"}}, {"type": "node", "id": 1915064689, "lat": 13.7168312, "lon": 100.4478827, "tags": {"amenity": "restaurant"}}, {"type": "node", "id": 1915065328, "lat": 13.7170899, "lon": 100.447852, "tags": {"amenity": "restaurant"}}, {"type": "node", "id": 1924612341, "lat": 13.7164043, "lon": 100.4469913, "tags": {"amenity": "cafe"}}, {"type": "node", "id": 1926730393, "lat": 13.7180558, "lon": 100.4479313, "tags": {"amenity": "restaurant"}}, {"type": "node", "id": 1926736406, "lat": 13.7194186, "lon": 100.447832, "tags": {"amenity": "restaurant", "name": "\u0e02\u0e19\u0e21\u0e08\u0e35\u0e19 \u0e1e\u0e28\u0e0a."}}, {"type": "node", "id": 1926792438, "lat": 13.7160155, "lon": 100.4462549, "tags": {"amenity": "restaurant", "name": "\u0e40\u0e1e\u0e0a\u0e23\u0e40\u0e01\u0e29\u0e21\u0e40\u0e19\u0e37\u0e49\u0e2d\u0e15\u0e38\u0e4b\u0e19"}}, {"type": "node", "id": 1926794087, "lat": 13.7159321, "lon": 100.4460108, "tags": {"amenity": "restaurant", "name": "\u0e40\u0e23\u0e37\u0e2d\u0e19\u0e01\u0e4b\u0e27\u0e22\u0e40\u0e15\u0e35\u0e4b\u0e22\u0e27\u0e1e\u0e34\u0e21\u0e41\u0e01\u0e49\u0e27"}}, {"type": "node", "id": 1926817487, "lat": 13.7157367, "lon": 100.4454288, "tags": {"amenity": "restaurant", "name": "\u0e1a\u0e32\u0e07\u0e2b\u0e27\u0e49\u0e32\u0e02\u0e32\u0e2b\u0e21\u0e39"}}, {"type": "node", "id": 1926832017, "lat": 13.7154475, "lon": 100.444549, "tags": {"amenity": "cafe", "cuisine": "coffee_shop", "name": "\u0e04\u0e2d\u0e1f\u0e1f\u0e35\u0e48\u0e40\u0e1a\u0e23\u0e04", "name:en": "Coffee Break"}}, {"type": "node", "id": 1926971465, "lat": 13.715622, "lon": 100.444211, "tags": {"amenity": "restaurant", "name": "\u0e02\u0e49\u0e32\u0e27\u0e21\u0e31\u0e19\u0e44\u0e01\u0e48"}}, {"type": "node", "id": 1930660009, "lat": 13.71576, "lon": 100.4440886, "tags": {"amenity": "restaurant"}}, {"type": "node", "id": 1930709348, "lat": 13.7162811, "lon": 100.4441798, "tags": {"amenity": "restaurant"}}, {"type": "node", "id": 1930716409, "lat": 13.7168049, "lon": 100.4441612, "tags": {"amenity": "cafe", "name": "\u0e01\u0e32\u0e41\u0e1f\u0e2a\u0e14"}}, {"type": "node", "id": 1930719152, "lat": 13.716784, "lon": 100.4440001, "tags": {"amenity": "restaurant"}}, {"type": "node", "id": 1930725051, "lat": 13.7169379, "lon": 100.4441571, "tags": {"amenity": "restaurant"}}, {"type": "node", "id": 1962359576, "lat": 13.7153942, "lon": 100.4439519, "tags": {"amenity": "restaurant"}}, {"type": "node", "id": 2056956329, "lat": 13.714436, "lon": 100.4381487, "tags": {"amenity": "restaurant"}}, {"type": "node", "id": 2056961295, "lat": 13.7151578, "lon": 100.4380361, "tags": {"amenity": "restaurant", "cuisine": "thai", "name": "\u0e23\u0e49\u0e32\u0e19\u0e2d\u0e32\u0e2b\u0e32\u0e23\u0e19\u0e49\u0e2d\u0e07\u0e2b\u0e19\u0e36\u0e48\u0e07"}}, {"type": "node", "id": 2056965302, "lat": 13.7153454, "lon": 100.4380441, "tags": {"amenity": "restaurant"}}, {"type": "node", "id": 2059558545, "lat": 13.7134023, "lon": 100.4369451, "tags": {"amenity": "restaurant", "name": "\u0e1f\u0e39\u0e49\u0e14\u0e1e\u0e32\u0e23\u0e32\u0e44\u0e14\u0e0b\u0e4c"}}, {"type": "node", "id": 2062723001, "lat": 13.7138136, "lon": 100.4365692, "tags": {"amenity": "restaurant"}}, {"type": "node", "id": 2062723002, "lat": 13.7137483, "lon": 100.4367835, "tags": {"amenity": "restaurant"}}, {"type": "node", "id": 2078446773, "lat": 13.7136025, "lon": 100.4334555, "tags": {"amenity": "restaurant"}}, {"type": "node", "id": 2084105564, "lat": 13.7116818, "lon": 100.4166539, "tags": {"amenity": "restaurant"}}, {"type": "node", "id": 2086713481, "lat": 13.7193038, "lon": 100.4278097, "tags": {"amenity": "restaurant", "name": "\u0e42\u0e04\u0e02\u0e38\u0e19\u0e04\u0e38\u0e13\u0e17\u0e2d\u0e07 \u0e42\u0e1e\u0e19\u0e22\u0e32\u0e07\u0e04\u0e33 (\u0e2a\u0e32\u0e02\u0e32\u0e1e\u0e38\u0e17\u0e18\u0e21\u0e13\u0e11\u0e25\u0e2a\u0e32\u0e22 1)"}}, {"type": "node", "id": 2086878751, "lat": 13.7273735, "lon": 100.4273993, "tags": {"addr:housenumber": "28/6", "addr:postcode": "10160", "addr:street": "\u0e1e\u0e38\u0e17\u0e18\u0e21\u0e13\u0e11\u0e25 \u0e2a\u0e32\u0e22 1", "amenity": "restaurant", "name": "\u0e1a\u0e49\u0e32\u0e19\u0e15\u0e30\u0e40\u0e01\u0e35\u0e22\u0e07\u0e14\u0e32\u0e27"}}, {"type": "node", "id": 2118748640, "lat": 13.7018741, "lon": 100.4445944, "tags": {"amenity": "restaurant"}}, {"type": "node", "id": 2118748642, "lat": 13.7019627, "lon": 100.4446749, "tags": {"amenity": "restaurant", "name": "\u0e40\u0e19\u0e37\u0e49\u0e2d\u0e40\u0e1b\u0e37\u0e48\u0e2d\u0e22-\u0e2b\u0e21\u0e39\u0e15\u0e38\u0e4b\u0e19 \u0e19\u0e32\u0e22\u0e42\u0e01\u0e4a\u0e30-\u0e2d\u0e22\u0e38\u0e18\u0e22\u0e32"}}, {"type": "node", "id": 2118751334, "lat": 13.7012513, "lon": 100.4440097, "tags": {"amenity": "restaurant"}}, {"type": "node", "id": 2118763058, "lat": 13.7001881, "lon": 100.4430683, "tags": {"amenity": "restaurant", "name": "\u0e01\u0e34\u0e21\u0e40\u0e2e\u0e07 \u0e02\u0e49\u0e32\u0e27\u0e21\u0e31\u0e19\u0e44\u0e01\u0e48\u0e15\u0e2d\u0e19\u0e2a\u0e39\u0e15\u0e23\u0e42\u0e1a\u0e23\u0e32\u0e13"}}, {"type": "node", "id": 2871651230, "lat": 13.737451, "lon": 100.4411251, "tags": {"amenity": "restaurant", "capacity": "50", "cuisine": "thai", "name": "Wong Duan Chimchum"}}, {"type": "node", "id": 3431325820, "lat": 13.7121508, "lon": 100.4337107, "tags": {"amenity": "cafe", "brand": "Starbucks", "brand:wikidata": "Q37158", "brand:wikipedia": "en:Starbucks", "cuisine": "coffee_shop", "name": "Starbucks", "name:en": "Starbucks Coffee", "name:th": "\u0e2a\u0e15\u0e32\u0e23\u0e4c\u0e1a\u0e31\u0e04\u0e2a\u0e4c", "official_name": "Starbucks Coffee", "shop": "coffee", "smoking": "no", "takeaway": "yes", "website": "https://www.starbucks.com/"}}, {"type": "node", "id": 4353598389, "lat": 13.7494442, "lon": 100.4026563, "tags": {"name": "\u0e1a\u0e49\u0e32\u0e19\u0e04\u0e23\u0e39\u0e44\u0e01\u0e48", "tourism": "attraction"}}, {"type": "node", "id": 4353601889, "lat": 13.749249, "lon": 100.402639, "tags": {"name": "\u0e1a\u0e49\u0e32\u0e19\u0e04\u0e23\u0e39\u0e44\u0e01\u0e48", "tourism": "attraction"}}, {"type": "node", "id": 4424558089, "lat": 13.70537, "lon": 100.4168755, "tags": {"name": "\u0e1a\u0e49\u0e32\u0e19\u0e1e\u0e31\u0e01\u0e1e\u0e19\u0e31\u0e01\u0e07\u0e32\u0e19", "name:th": "\u0e1a\u0e49\u0e32\u0e19\u0e1e\u0e31\u0e01\u0e1e\u0e19\u0e31\u0e01\u0e07\u0e32\u0e19", "tourism": "guest_house"}}, {"type": "node", "id": 4425921493, "lat": 13.732004, "lon": 100.42716, "tags": {"amenity": "restaurant", "name": "\u0e23\u0e49\u0e32\u0e19\u0e23\u0e34\u0e21\u0e04\u0e25\u0e2d\u0e07", "name:th": "\u0e23\u0e49\u0e32\u0e19\u0e23\u0e34\u0e21\u0e04\u0e25\u0e2d\u0e07"}}, {"type": "node", "id": 4681765890, "lat": 13.7093657, "lon": 100.4495803, "tags": {"addr:street": "\u0e16\u0e19\u0e19\u0e01\u0e31\u0e25\u0e1b\u0e1e\u0e24\u0e01\u0e29\u0e4c", "amenity": "restaurant", "name:en": "Take it Easy Restaurant", "opening_hours": "We-Mo 10:00-22:00"}}, {"type": "node", "id": 4805101922, "lat": 13.7435323, "lon": 100.4162383, "tags": {"name": "\u0e2b\u0e49\u0e2d\u0e07\u0e1e\u0e31\u0e01\u0e0a\u0e34\u0e27\u0e46", "name:th": "\u0e2b\u0e49\u0e2d\u0e07\u0e1e\u0e31\u0e01\u0e0a\u0e34\u0e27\u0e46", "tourism": "hostel"}}, {"type": "node", "id": 4984910822, "lat": 13.7402804, "lon": 100.4284151, "tags": {"amenity": "restaurant", "name": "\u0e41\u0e21\u0e48\u0e01\u0e25\u0e2d\u0e07 \u0e2b\u0e31\u0e27\u0e1b\u0e25\u0e32\u0e2b\u0e21\u0e49\u0e2d\u0e44\u0e1f", "name:th": "\u0e41\u0e21\u0e48\u0e01\u0e25\u0e2d\u0e07 \u0e2b\u0e31\u0e27\u0e1b\u0e25\u0e32\u0e2b\u0e21\u0e49\u0e2d\u0e44\u0e1f"}}, {"type": "node", "id": 4989564521, "lat": 13.7380391, "lon": 100.4457618, "tags": {"amenity": "restaurant", "name": "Cat me cafe", "name:th": "Cat me cafe"}}, {"type": "node", "id": 5024135348, "lat": 13.748518, "lon": 100.4113553, "tags": {"name": "Niyom Orchid Farm", "tourism": "yes"}}, {"type": "node", "id": 5301712022, "lat": 13.7118503, "lon": 100.4341751, "tags": {"addr:housenumber": "607", "addr:postcode": "10160", "addr:street": "\u0e16\u0e19\u0e19\u0e40\u0e1e\u0e0a\u0e23\u0e40\u0e01\u0e29\u0e21", "amenity": "cafe", "cuisine": "coffee_shop", "internet_access": "wlan", "name": "\u0e2d\u0e34\u0e19\u0e17\u0e19\u0e34\u0e25 \u0e04\u0e2d\u0e1f\u0e1f\u0e35\u0e48", "name:en": "Inthanin Coffee", "opening_hours": "Mo-Fr 10:30-20:00; Sa-Su 10:00-20:00", "website": "https://www.inthanincoffee.com/"}}, {"type": "node", "id": 5418203597, "lat": 13.7377634, "lon": 100.421311, "tags": {"amenity": "place_of_worship", "name": "\u0e28\u0e32\u0e25\u0e1e\u0e23\u0e30\u0e1e\u0e23\u0e2b\u0e21", "religion": "buddhist"}}, {"type": "node", "id": 5648587222, "lat": 13.7105949, "lon": 100.4132866, "tags": {"addr:housenumber": "919/32", "addr:postcode": "10160", "addr:street": "\u0e40\u0e1e\u0e0a\u0e23\u0e40\u0e01\u0e29\u0e21 43/1", "amenity": "restaurant", "cuisine": "noodles;chinese;thai", "name": "\u0e19\u0e32\u0e22\u0e40\u0e21\u0e49\u0e07\u0e1a\u0e30\u0e2b\u0e21\u0e35\u0e48\u0e1b\u0e39 \u0e40\u0e01\u0e35\u0e4a\u0e22\u0e27\u0e01\u0e38\u0e49\u0e07\u0e22\u0e31\u0e01\u0e29\u0e4c (\u0e40\u0e1e\u0e0a\u0e23\u0e40\u0e01\u0e29\u0e21 43/1)", "name:en": "Meng Noodle", "opening_hours": "Mo-Sa 10:30-20:00", "phone": "028012151", "website": "http://www.facebook.com/MengNoodle"}}, {"type": "node", "id": 5770094653, "lat": 13.72841, "lon": 100.42456, "tags": {"amenity": "restaurant", "name": "\u0e25\u0e49\u0e32\u0e19\u0e04\u0e23\u0e31\u0e27\u0e1a\u0e49\u0e32\u0e19\u0e1b\u0e48\u0e32"}}, {"type": "node", "id": 6399653285, "lat": 13.7030488, "lon": 100.4450521, "tags": {"addr:housenumber": "13/15\u0e2b\u0e21\u0e48\u0e397,", "addr:postcode": "10150", "addr:street": "\u0e01\u0e31\u0e25\u0e1b\u0e1e\u0e24\u0e01\u0e29\u0e4c", "amenity": "restaurant", "cuisine": "peruvian", "internet_access": "wlan", "name": "\u0e19\u0e49\u0e33\u0e1c\u0e36\u0e49\u0e07,\u0e41\u0e1c\u0e19\u0e01\u0e1a\u0e23\u0e23\u0e08\u0e38\u0e19\u0e49\u0e33\u0e1c\u0e36\u0e49\u0e07", "operator": "\u0e1a\u0e23\u0e34\u0e29\u0e31\u0e17 \u0e10\u0e34\u0e15\u0e34\u0e19\u0e31\u0e19\u0e17\u0e4c\u0e2f"}}, {"type": "node", "id": 7041270153, "lat": 13.7229999, "lon": 100.4087926, "tags": {"access": "private", "historic": "wayside_shrine", "religion": "hindu"}}, {"type": "node", "id": 7231919792, "lat": 13.7039951, "lon": 100.4198519, "tags": {"addr:city": "\u0e41\u0e02\u0e27\u0e07\u0e1a\u0e32\u0e07\u0e41\u0e04", "addr:postcode": "10160", "addr:street": "\u0e1a\u0e32\u0e07\u0e41\u0e04 4", "amenity": "marketplace", "name": "\u0e15\u0e25\u0e32\u0e14\u0e2a\u0e2d\u0e07\u0e04\u0e38\u0e13\u0e08\u0e48\u0e32", "opening_hours": "10:00-22:00"}}, {"type": "node", "id": 8039279643, "lat": 13.7260464, "lon": 100.4038966, "tags": {"amenity": "restaurant", "description": "Small farm with upscale food and patisserie style cakes", "name": "PaulSugus' Farm Cafe", "opening_hours": "Mo, We-Su 10:30-20:00", "phone": "095 818 8459", "website": "https://paulsugus-farm-cafe.business.site/"}}, {"type": "node", "id": 8324320403, "lat": 13.7063765, "lon": 100.4157968, "tags": {"addr:city": "\u0e01\u0e23\u0e38\u0e07\u0e40\u0e17\u0e1e\u0e21\u0e2b\u0e32\u0e19\u0e04\u0e23", "addr:housenumber": "37 / 4", "addr:postcode": "10160", "addr:street": "\u0e40\u0e1e\u0e0a\u0e23\u0e40\u0e01\u0e29\u0e21 41", "amenity": "restaurant", "cuisine": "chicken", "image": "https://images.app.goo.gl/edxgyqX6DfuqQAF99", "name": "\u0e44\u0e01\u0e48\u0e22\u0e48\u0e32\u0e07 ChakeWing", "opening_hours": "Mo-Su 09:00-16:00", "phone": "0624265889", "website": "https://web.facebook.com/%E0%B8%A3%E0%B9%89%E0%B8%B2%E0%B8%99%E0%B9%84%E0%B8%81%E0%B9%88%E0%B8%A2%E0%B9%88%E0%B8%B2%E0%B8%87%E0%B8%8A%E0%B8%B1%E0%B8%A2%E0%B8%9B%E0%B8%A3%E0%B8%B0%E0%B8%97%E0%B8%B5%E0%B8%9B-109466800759894/?_rdc=1&_rdr"}}, {"type": "node", "id": 8419731117, "lat": 13.7005831, "lon": 100.4401205, "tags": {"addr:housenumber": "11", "addr:postcode": "10150", "addr:street": "\u0e16\u0e19\u0e19\u0e01\u0e31\u0e25\u0e1b\u0e1e\u0e24\u0e01\u0e29\u0e4c", "name": "\u0e2b\u0e21\u0e39\u0e48\u0e1a\u0e49\u0e32\u0e19 \u0e42\u0e01\u0e25\u0e40\u0e14\u0e49\u0e19\u0e23\u0e35\u0e40\u0e08\u0e49\u0e19\u0e17\u0e4c", "name:en": "Golden Legend Village", "tourism": "apartment"}}, {"type": "node", "id": 9685578011, "lat": 13.7425709, "lon": 100.4425919, "tags": {"amenity": "restaurant"}}, {"type": "node", "id": 9685578016, "lat": 13.7425844, "lon": 100.4425315, "tags": {"amenity": "restaurant"}}, {"type": "node", "id": 9685608419, "lat": 13.7425958, "lon": 100.4424747, "tags": {"amenity": "restaurant"}}, {"type": "node", "id": 9924872837, "lat": 13.7443707, "lon": 100.4394512, "tags": {"amenity": "restaurant", "name": "@\u0e04\u0e38\u0e13\u0e09\u0e38\u0e22"}}, {"type": "node", "id": 9924898348, "lat": 13.7391617, "lon": 100.4404852, "tags": {"amenity": "restaurant", "name": "\u0e44\u0e01\u0e48\u0e2d\u0e1a\u0e42\u0e2d\u0e48\u0e07 \u0e22\u0e48\u0e32\u0e07\u0e40\u0e15\u0e32\u0e16\u0e48\u0e32\u0e19 \u0e2a\u0e49\u0e21\u0e15\u0e33\u0e1a\u0e49\u0e32\u0e19\u0e2a\u0e27\u0e19"}}, {"type": "node", "id": 10003319751, "lat": 13.7445735, "lon": 100.4425437, "tags": {"air_conditioning": "no", "amenity": "restaurant", "bar": "no", "check_date": "2022-09-06", "cuisine": "noodle", "delivery": "no", "internet_access": "no", "microbrewery": "no", "name:th": "\u0e40\u0e08\u0e49\u0e19\u0e34\u0e15 \u0e01\u0e4b\u0e27\u0e22\u0e40\u0e15\u0e35\u0e4b\u0e22\u0e27\u0e2b\u0e21\u0e39", "opening_hours": "08:00-12:00", "payment:cards": "no", "payment:cash": "yes", "payment:credit_cards": "no", "payment:debit_cards": "no", "payment:promptpay": "yes", "smoking": "no", "takeaway": "yes"}}, {"type": "node", "id": 10003417777, "lat": 13.7440219, "lon": 100.4394113, "tags": {"air_conditioning": "no", "amenity": "restaurant", "bar": "no", "brand": "Restoran", "brewery": "no", "check_date": "2022-09-06", "cuisine": "thai", "internet_access": "no", "name": "\u0e04\u0e23\u0e31\u0e27\u0e2b\u0e34\u0e27\u0e41\u0e25\u0e49\u0e27\u0e2a\u0e31\u0e48\u0e07", "payment:cards": "no", "payment:cash": "yes", "payment:credit_cards": "no", "payment:debit_cards": "no", "payment:promptpay": "yes", "takeaway": "yes", "wheelchair": "yes"}}, {"type": "node", "id": 10015154018, "lat": 13.7449529, "lon": 100.4415585, "tags": {"amenity": "restaurant", "check_date": "2022-09-11", "name": "\u0e2a\u0e49\u0e21\u0e15\u0e33\u0e01\u0e23\u0e30\u0e41\u0e15"}}, {"type": "node", "id": 10041453867, "lat": 13.7435478, "lon": 100.4436526, "tags": {"amenity": "restaurant", "name": "\u0e2a\u0e49\u0e21\u0e15\u0e33\u0e22\u0e32\u0e22\u0e44\u0e1e\u0e23"}}, {"type": "node", "id": 10081824890, "lat": 13.7383253, "lon": 100.4459766, "tags": {"addr:housenumber": "39/4", "addr:postcode": "10160", "addr:street": "\u0e0b\u0e2d\u0e22\u0e1a\u0e32\u0e07\u0e41\u0e27\u0e01 32", "amenity": "restaurant", "name": "88 \u0e2d\u0e34\u0e48\u0e21\u0e2d\u0e23\u0e48\u0e2d\u0e22 \u0e2d\u0e49\u0e27\u0e19&\u0e42\u0e2a\u0e48\u0e22"}}, {"type": "node", "id": 10081837173, "lat": 13.7383483, "lon": 100.4459795, "tags": {"addr:housenumber": "39/4", "addr:postcode": "10160", "addr:street": "\u0e0b\u0e2d\u0e22\u0e1a\u0e32\u0e07\u0e41\u0e27\u0e01 32", "amenity": "restaurant", "name": "\u0e18.\u0e01\u0e4b\u0e27\u0e22\u0e08\u0e31\u0e4a\u0e1a\u0e0d\u0e27\u0e19"}}, {"type": "node", "id": 10083310645, "lat": 13.737036, "lon": 100.438716, "tags": {"amenity": "cafe", "cuisine": "coffee_shop", "name": "\u0e2b\u0e21\u0e35\u0e1e\u0e48\u0e19\u0e44\u0e1f \u0e1a\u0e32\u0e07\u0e41\u0e27\u0e01", "takeaway": "yes"}}, {"type": "node", "id": 10097950851, "lat": 13.7425584, "lon": 100.4380039, "tags": {"amenity": "restaurant", "name": "\u0e22\u0e33\u0e41\u0e21\u0e48\u0e2d\u0e19\u0e07\u0e04\u0e4c"}}, {"type": "node", "id": 10105953584, "lat": 13.7450147, "lon": 100.4434433, "tags": {"amenity": "restaurant", "name": "\u0e02\u0e49\u0e32\u0e27\u0e2b\u0e21\u0e39\u0e17\u0e2d\u0e14\u0e2d\u0e23\u0e48\u0e2d\u0e22\u0e21\u0e32\u0e01"}}, {"type": "node", "id": 10292564647, "lat": 13.744014, "lon": 100.4399301, "tags": {"amenity": "restaurant", "name": "\u0e41\u0e01\u0e07\u0e01\u0e30\u0e2b\u0e23\u0e35\u0e48\u0e0a\u0e34\u0e1a\u0e39\u0e22\u0e48\u0e32"}}, {"type": "node", "id": 10292701121, "lat": 13.727535, "lon": 100.428546, "tags": {"amenity": "restaurant"}}, {"type": "node", "id": 10693892786, "lat": 13.7077074, "lon": 100.4492584, "tags": {"amenity": "cafe", "name": "Corgi in the Garden", "website": "https://www.facebook.com/corgiinthegarden/"}}, {"type": "node", "id": 10722098605, "lat": 13.7219082, "lon": 100.4498874, "tags": {"addr:housenumber": "114", "addr:postcode": "10160", "addr:street": "Phet Kasem Soi 42", "name:en": "Sirikarn Apartment", "tourism": "hotel"}}, {"type": "node", "id": 10734166805, "lat": 13.7271462, "lon": 100.446807, "tags": {"name:en": "Lovely Walk with Swamps and Banana Trees", "tourism": "viewpoint"}}, {"type": "node", "id": 10925986605, "lat": 13.7033945, "lon": 100.4472137, "tags": {"amenity": "cafe", "name:en": "Inthanin", "opening_hours": "Mo-Su 06:00-20:00"}}, {"type": "node", "id": 11212240048, "lat": 13.7413806, "lon": 100.4197592, "tags": {"amenity": "restaurant", "name": "\u0e0b\u0e38\u0e49\u0e21\u0e44\u0e1c\u0e48", "name:en": "Zoom Phai"}}, {"type": "node", "id": 12711070515, "lat": 13.7219923, "lon": 100.4458025, "tags": {"addr:district": "\u0e40\u0e02\u0e15\u0e20\u0e32\u0e29\u0e35\u0e40\u0e08\u0e23\u0e34\u0e0d", "addr:housenumber": "188", "addr:postcode": "10160", "addr:province": "\u0e01\u0e23\u0e38\u0e07\u0e40\u0e17\u0e1e\u0e21\u0e2b\u0e32\u0e19\u0e04\u0e23", "addr:street": "\u0e0b\u0e2d\u0e22 6", "addr:subdistrict": "\u0e41\u0e02\u0e27\u0e07\u0e1a\u0e32\u0e07\u0e14\u0e49\u0e27\u0e19", "amenity": "cafe", "check_date": "2025-09-26", "check_date:currency:XBT": "2025-09-26", "contact:line": "https://www.wongnai.com/restaurants/3001444KZ", "cuisine": "chocolate;matcha", "currency:XBT": "yes", "delivery": "yes", "dine_in": "no", "name": "Cocoa House", "name:th": "\u0e42\u0e01\u0e42\u0e01\u0e49\u0e40\u0e2e\u0e49\u0e32\u0e2a\u0e4c", "opening_hours": "Mo-Fr 20:00-00:00; Sa-Su 08:00-00:00", "payment:lightning": "yes", "payment:lightning_contactless": "no", "payment:onchain": "no", "phone": "+66 87 355 5494"}}, {"type": "node", "id": 12865797301, "lat": 13.7123724, "lon": 100.4350126, "tags": {"name:en": "Space & Time Cube+", "opening_hours": "Mo-Su 10:30-21:30", "tourism": "attraction"}}, {"type": "node", "id": 12945395001, "lat": 13.7476508, "lon": 100.44789, "tags": {"amenity": "restaurant", "cuisine": "thai", "name": "\u0e23\u0e49\u0e32\u0e19\u0e04\u0e23\u0e31\u0e27\u0e04\u0e38\u0e13\u0e20\u0e32 - Krua Khun Pa"}}, {"type": "way", "id": 149583882, "nodes": [1625431635, 1625431662, 1625431666, 1625431649, 1625431635], "tags": {"amenity": "marketplace", "building": "yes", "name": "\u0e15\u0e25\u0e32\u0e14\u0e43\u0e2b\u0e21\u0e48\u0e1a\u0e32\u0e07\u0e41\u0e04"}}, {"type": "way", "id": 149584636, "nodes": [1625435961, 1625435964, 1625435946, 13261072143, 1625435950, 1625435948, 13261072144, 1625435961], "tags": {"amenity": "marketplace", "building": "yes", "name": "\u0e15\u0e25\u0e32\u0e14\u0e2a\u0e14\u0e41\u0e2a\u0e07\u0e1f\u0e49\u0e32 (5 \u0e41\u0e1e\u0e30) \u0e1a\u0e32\u0e07\u0e41\u0e04"}}, {"type": "way", "id": 176456933, "nodes": [1869881730, 1869881726, 1869881727, 1869881729, 1869881730], "tags": {"amenity": "cafe", "building": "yes", "name": "Rabika Coffee"}}, {"type": "way", "id": 176615940, "nodes": [1870996119, 1870996118, 1870996121, 1870996120, 1870996119], "tags": {"amenity": "cafe", "building": "yes", "name": "Cozy Cafe"}}, {"type": "way", "id": 239847806, "nodes": [2476319019, 2476319020, 2476319021, 2476319022, 2476319019], "tags": {"addr:province": "\u0e01\u0e23\u0e38\u0e07\u0e40\u0e17\u0e1e\u0e21\u0e2b\u0e32\u0e19\u0e04\u0e23", "amenity": "place_of_worship", "building": "yes", "religion": "buddhist", "source": "Bing, Local knowledge"}}, {"type": "way", "id": 256159188, "nodes": [2618494124, 2618494129, 2618494128, 2618494122, 2618494125, 2618494124], "tags": {"amenity": "place_of_worship", "denomination": "thai_mahanikaya", "name": "\u0e27\u0e31\u0e14\u0e1e\u0e34\u0e01\u0e38\u0e25", "name:en": "Wat Phikun", "name:th": "\u0e27\u0e31\u0e14\u0e1e\u0e34\u0e01\u0e38\u0e25", "religion": "buddhist", "wikidata": "Q100234717", "wikimedia_commons": "Category:Wat Phikun, Bangkok", "wikipedia": "th:\u0e27\u0e31\u0e14\u0e1e\u0e34\u0e01\u0e38\u0e25 (\u0e01\u0e23\u0e38\u0e07\u0e40\u0e17\u0e1e\u0e21\u0e2b\u0e32\u0e19\u0e04\u0e23)"}}, {"type": "way", "id": 336784958, "nodes": [3438726945, 3438726946, 3438726947, 3438726948, 3438726949, 3438726950, 3438726951, 3438726952, 3438726953, 3438726954, 3438726955, 3438641137, 3438726956, 3438726957, 3438726958, 3438726959, 3438726960, 3438726961, 3438726962, 3438726963, 3438726964, 3438726965, 3438726966, 3438726967, 3438726968, 3438726969, 3438726974, 3438726973, 3438726972, 3438726971, 3438726970, 3438726945], "tags": {"leisure": "park", "name": "\u0e2a\u0e27\u0e19\u0e2a\u0e32\u0e18\u0e32\u0e23\u0e13\u0e30\u0e40\u0e1e\u0e0a\u0e23\u0e01\u0e32\u0e0d\u0e08\u0e19\u0e32\u0e23\u0e21\u0e22\u0e4c"}}, {"type": "way", "id": 375809412, "nodes": [3791497583, 3791497574, 3791497575, 3791497577, 3791497579, 3791497580, 3791497585, 3791497586, 3791497583], "tags": {"amenity": "place_of_worship", "denomination": "thai_mahanikaya", "name": "\u0e27\u0e31\u0e14\u0e08\u0e31\u0e19\u0e17\u0e23\u0e4c\u0e1b\u0e23\u0e30\u0e14\u0e34\u0e29\u0e10\u0e32\u0e23\u0e32\u0e21", "name:en": "Wat Chan Pradittharam", "name:th": "\u0e27\u0e31\u0e14\u0e08\u0e31\u0e19\u0e17\u0e23\u0e4c\u0e1b\u0e23\u0e30\u0e14\u0e34\u0e29\u0e10\u0e32\u0e23\u0e32\u0e21", "religion": "buddhist", "wikidata": "Q55637445", "wikimedia_commons": "Category:Wat Chan Pradittharam, Bangkok", "wikipedia": "th:\u0e27\u0e31\u0e14\u0e08\u0e31\u0e19\u0e17\u0e23\u0e4c\u0e1b\u0e23\u0e30\u0e14\u0e34\u0e29\u0e10\u0e32\u0e23\u0e32\u0e21 (\u0e01\u0e23\u0e38\u0e07\u0e40\u0e17\u0e1e\u0e21\u0e2b\u0e32\u0e19\u0e04\u0e23)"}}, {"type": "way", "id": 376378499, "nodes": [3798130422, 3798130419, 3798130418, 3798130420, 3798130421, 3798130422], "tags": {"amenity": "place_of_worship", "denomination": "thai_mahanikaya", "name": "\u0e27\u0e31\u0e14\u0e21\u0e30\u0e1e\u0e23\u0e49\u0e32\u0e27\u0e40\u0e15\u0e35\u0e49\u0e22", "name:en": "Wat Maphrao Tia", "name:th": "\u0e27\u0e31\u0e14\u0e21\u0e30\u0e1e\u0e23\u0e49\u0e32\u0e27\u0e40\u0e15\u0e35\u0e49\u0e22", "religion": "buddhist", "wikidata": "Q100234718", "wikimedia_commons": "Category:Wat Maphrao Tia", "wikipedia": "th:\u0e27\u0e31\u0e14\u0e21\u0e30\u0e1e\u0e23\u0e49\u0e32\u0e27\u0e40\u0e15\u0e35\u0e49\u0e22"}}, {"type": "way", "id": 376675937, "nodes": [3800740780, 3800740776, 3800740775, 3800740777, 3800740780], "tags": {"amenity": "place_of_worship", "denomination": "thai_mahanikaya", "name": "\u0e27\u0e31\u0e14\u0e23\u0e32\u0e07\u0e1a\u0e31\u0e27", "name:en": "Wat Rang Bua", "name:th": "\u0e27\u0e31\u0e14\u0e23\u0e32\u0e07\u0e1a\u0e31\u0e27", "religion": "buddhist", "wikidata": "Q100234757", "wikimedia_commons": "Category:Wat Rang Bua, Bangkok", "wikipedia": "th:\u0e27\u0e31\u0e14\u0e23\u0e32\u0e07\u0e1a\u0e31\u0e27 (\u0e01\u0e23\u0e38\u0e07\u0e40\u0e17\u0e1e\u0e21\u0e2b\u0e32\u0e19\u0e04\u0e23)"}}, {"type": "way", "id": 376675946, "nodes": [3800740773, 3800740771, 3800740772, 9260015973, 3800740774, 3800740773], "tags": {"amenity": "place_of_worship", "denomination": "thai_mahanikaya", "name": "\u0e27\u0e31\u0e14\u0e19\u0e34\u0e21\u0e21\u0e32\u0e19\u0e23\u0e14\u0e35", "name:en": "Wat Nimmanoradi", "name:th": "\u0e27\u0e31\u0e14\u0e19\u0e34\u0e21\u0e21\u0e32\u0e19\u0e23\u0e14\u0e35", "old_name": "\u0e27\u0e31\u0e14\u0e1a\u0e32\u0e07\u0e41\u0e04", "religion": "buddhist", "wikidata": "Q66361277", "wikimedia_commons": "Category:Wat Nimma Noradee", "wikipedia": "th:\u0e27\u0e31\u0e14\u0e19\u0e34\u0e21\u0e21\u0e32\u0e19\u0e23\u0e14\u0e35"}}, {"type": "way", "id": 378152041, "nodes": [3815700595, 3815700593, 3815700592, 3815700594, 3815700595], "tags": {"amenity": "place_of_worship", "name": "\u0e28\u0e32\u0e25\u0e40\u0e08\u0e49\u0e32\u0e41\u0e21\u0e48\u0e17\u0e31\u0e1a\u0e17\u0e34\u0e21\u0e2b\u0e25\u0e31\u0e01\u0e2a\u0e2d\u0e07", "religion": "buddhist"}}, {"type": "way", "id": 545002509, "nodes": [5267849031, 5267849032, 10660523152, 10660523153, 5267849033, 10660523154, 10660523155, 10660523156, 10660523157, 5267849034, 5267849031], "tags": {"amenity": "place_of_worship", "denomination": "thai_mahanikaya", "name": "\u0e27\u0e31\u0e14\u0e15\u0e30\u0e25\u0e48\u0e2d\u0e21", "name:en": "Wat Talom", "name:th": "\u0e27\u0e31\u0e14\u0e15\u0e30\u0e25\u0e48\u0e2d\u0e21", "religion": "buddhist", "wikidata": "Q100234719", "wikimedia_commons": "Category:Wat Talom", "wikipedia": "th:\u0e27\u0e31\u0e14\u0e15\u0e30\u0e25\u0e48\u0e2d\u0e21"}}, {"type": "way", "id": 561983173, "nodes": [5418203592, 5418203593, 5418203594, 5418203595, 5418203596, 5418203592], "tags": {"leisure": "park"}}, {"type": "way", "id": 627758421, "nodes": [5926311173, 5926311174, 5926311175, 5926311176, 5926311173], "tags": {"addr:city": "Krung Thep Maha Nakhon", "addr:housenumber": "41", "addr:postcode": "10160", "addr:street": "Kallaprapruk", "landuse": "residential", "name": "Metro Park Sathorn phase 2/2", "tourism": "apartment"}}, {"type": "way", "id": 627758423, "nodes": [5926311179, 5926311180, 5926311181, 5926311182, 5926311183, 5926311184, 5926312685, 5926312686, 5926312687, 5926312688, 5926311179], "tags": {"addr:city": "Krung Thep Maha Nakhon", "addr:housenumber": "41", "addr:postcode": "10160", "addr:street": "Kallaprapruk", "landuse": "residential", "name": "The Lake Metropark Satorn", "tourism": "apartment"}}, {"type": "way", "id": 895884982, "nodes": [8327608050, 8327608051, 10239941045, 8327608052, 8327608053, 10239941050, 2078445071, 10239941051, 8327608054, 8327608055, 10239941044, 10239941043, 8327608056, 8327608057, 8327608050], "tags": {"addr:city": "\u0e41\u0e02\u0e27\u0e07\u0e1a\u0e32\u0e07\u0e2b\u0e27\u0e49\u0e32", "addr:postcode": "10160", "addr:street": "\u0e40\u0e1e\u0e0a\u0e23\u0e40\u0e01\u0e29\u0e21 56", "building:levels": "31", "internet_access": "wired", "internet_access:fee": "customers", "landuse": "residential", "layer": "1", "name": "The Parkland Phetkasem 56", "name:th": "\u0e40\u0e14\u0e2d\u0e30\u0e1e\u0e32\u0e23\u0e4c\u0e04\u0e41\u0e25\u0e19\u0e14\u0e4c \u0e40\u0e1e\u0e0a\u0e23\u0e40\u0e01\u0e29\u0e21 56", "operator": "\u0e1a\u0e23\u0e34\u0e29\u0e31\u0e17 \u0e19\u0e32\u0e23\u0e32\u0e22\u0e13\u0e4c\u0e1e\u0e23\u0e47\u0e2d\u0e1e\u0e40\u0e1e\u0e2d\u0e15\u0e35\u0e49 \u0e08\u0e33\u0e01\u0e31\u0e14", "phone": "+6621620500", "tourism": "apartment", "website": "https://www.naraiproperty.com/project/plps", "wheelchair": "limited"}}, {"type": "way", "id": 895884983, "nodes": [8327608058, 8327608059, 8327608060, 8327608061, 8327608058], "tags": {"amenity": "cafe", "building": "yes", "cuisine": "coffee_shop;bakery", "name": "\u0e2d\u0e34\u0e19\u0e17\u0e19\u0e34\u0e19 \u0e1a\u0e32\u0e07\u0e08\u0e32\u0e01 \u0e40\u0e1e\u0e0a\u0e23\u0e40\u0e01\u0e29\u0e21 56", "name:en": "Inthanin IC Phetkasem 56 (Container)", "opening_hours": "00:00-24:00", "outdoor_seating": "yes"}}, {"type": "way", "id": 1002984950, "nodes": [9256191069, 9256191070, 9256191071, 9256191072, 9256191073, 9256191074, 9256191075, 9256191076, 9256191077, 9256191069], "tags": {"amenity": "place_of_worship", "denomination": "thai_mahanikaya", "name": "\u0e27\u0e31\u0e14\u0e17\u0e2d\u0e07\u0e1a\u0e32\u0e07\u0e40\u0e0a\u0e37\u0e2d\u0e01\u0e2b\u0e19\u0e31\u0e07", "name:en": "Wat Thong Bang Chueak Nang", "name:th": "\u0e27\u0e31\u0e14\u0e17\u0e2d\u0e07\u0e1a\u0e32\u0e07\u0e40\u0e0a\u0e37\u0e2d\u0e01\u0e2b\u0e19\u0e31\u0e07", "religion": "buddhist", "wikidata": "Q100234716", "wikimedia_commons": "Category:Wat Thong Bang Chueak Nang", "wikipedia": "th:\u0e27\u0e31\u0e14\u0e17\u0e2d\u0e07\u0e1a\u0e32\u0e07\u0e40\u0e0a\u0e37\u0e2d\u0e01\u0e2b\u0e19\u0e31\u0e07"}}, {"type": "way", "id": 1002984952, "nodes": [9256191086, 9256191087, 9256191088, 9256191095, 9256191089, 9256191090, 9256191091, 9256191092, 9256191093, 9256191094, 9256191086], "tags": {"amenity": "place_of_worship", "denomination": "thai_mahanikaya", "name": "\u0e27\u0e31\u0e14\u0e2a\u0e30\u0e1e\u0e32\u0e19", "name:en": "Wat Saphan", "name:th": "\u0e27\u0e31\u0e14\u0e2a\u0e30\u0e1e\u0e32\u0e19", "religion": "buddhist", "wikidata": "Q100234714", "wikimedia_commons": "Category:Wat Saphan, Taling Chan District, Bangkok", "wikipedia": "th:\u0e27\u0e31\u0e14\u0e2a\u0e30\u0e1e\u0e32\u0e19 (\u0e40\u0e02\u0e15\u0e15\u0e25\u0e34\u0e48\u0e07\u0e0a\u0e31\u0e19)"}}, {"type": "way", "id": 1003480953, "nodes": [9260015960, 11199499069, 9260015961, 9260015962, 9260015963, 12461212214, 9260015964, 9260015965, 9260015960], "tags": {"amenity": "place_of_worship", "denomination": "thai_mahanikaya", "name": "\u0e27\u0e31\u0e14\u0e0a\u0e31\u0e22\u0e09\u0e34\u0e21\u0e1e\u0e25\u0e35", "name:en": "Wat Chai Chimphli", "name:th": "\u0e27\u0e31\u0e14\u0e0a\u0e31\u0e22\u0e09\u0e34\u0e21\u0e1e\u0e25\u0e35", "religion": "buddhist", "wikidata": "Q100234720", "wikimedia_commons": "Category:Wat Chai Chimphli", "wikipedia": "th:\u0e27\u0e31\u0e14\u0e0a\u0e31\u0e22\u0e09\u0e34\u0e21\u0e1e\u0e25\u0e35"}}, {"type": "way", "id": 1057081953, "nodes": [9713163348, 9713163349, 9713163350, 9713163351, 9713163352, 9713163353, 9713163354, 9713163355, 9713163356, 9713163357, 9713163358, 9713163359, 9713163360, 9713163361, 9713163362, 9713163363, 9713163364, 9713163386, 9713163387, 9713163365, 9713163348], "tags": {"amenity": "place_of_worship", "denomination": "thai_mahanikaya", "name": "\u0e27\u0e31\u0e14\u0e01\u0e23\u0e30\u0e42\u0e08\u0e21\u0e17\u0e2d\u0e07", "name:en": "Wat Krachom Thong", "name:th": "\u0e27\u0e31\u0e14\u0e01\u0e23\u0e30\u0e42\u0e08\u0e21\u0e17\u0e2d\u0e07", "religion": "buddhist", "wikidata": "Q100234715", "wikimedia_commons": "Category:Wat Krachom Thong, Bangkok", "wikipedia": "th:\u0e27\u0e31\u0e14\u0e01\u0e23\u0e30\u0e42\u0e08\u0e21\u0e17\u0e2d\u0e07 (\u0e01\u0e23\u0e38\u0e07\u0e40\u0e17\u0e1e\u0e21\u0e2b\u0e32\u0e19\u0e04\u0e23)"}}, {"type": "way", "id": 1062854024, "nodes": [9763799224, 9763799225, 9763799226, 9763368507, 9763368506, 9763799227, 9763799228, 9763799229, 9763799224], "tags": {"amenity": "place_of_worship", "denomination": "thai_mahanikaya", "name": "\u0e27\u0e31\u0e14\u0e01\u0e33\u0e41\u0e1e\u0e07", "name:en": "Wat Kamphaeng", "name:th": "\u0e27\u0e31\u0e14\u0e01\u0e33\u0e41\u0e1e\u0e07", "religion": "buddhist", "wikidata": "Q99542959", "wikimedia_commons": "Category:Wat Kamphaeng, Phasi Charoen district, Bangkok", "wikipedia": "th:\u0e27\u0e31\u0e14\u0e01\u0e33\u0e41\u0e1e\u0e07 (\u0e40\u0e02\u0e15\u0e20\u0e32\u0e29\u0e35\u0e40\u0e08\u0e23\u0e34\u0e0d)"}}, {"type": "way", "id": 1064577120, "nodes": [9777053745, 9777053746, 9777053747, 9777053748, 9777053745], "tags": {"leisure": "park"}}, {"type": "way", "id": 1085144436, "nodes": [9943118131, 9943118132, 9943118133, 9943118134, 9943118135, 9943118131], "tags": {"building": "yes", "layer": "-1", "name": "The Parkland \u0e40\u0e14\u0e2d\u0e30 \u0e1e\u0e32\u0e23\u0e4c\u0e04\u0e41\u0e25\u0e19\u0e14\u0e4c \u0e40\u0e1e\u0e0a\u0e23\u0e40\u0e01\u0e29\u0e21 \u0e1a\u0e32\u0e07\u0e41\u0e04", "name:en": "The Parkland", "tourism": "apartment"}}, {"type": "way", "id": 1091525876, "nodes": [9996689499, 9996689500, 9996689501, 9996689502, 9996689499], "tags": {"addr:district": "\u0e15\u0e25\u0e34\u0e48\u0e07\u0e0a\u0e31\u0e19", "addr:postcode": "10170", "addr:province": "\u0e01\u0e23\u0e38\u0e07\u0e40\u0e17\u0e1e\u0e21\u0e2b\u0e32\u0e19\u0e04\u0e23", "addr:subdistrict": "\u0e1a\u0e32\u0e07\u0e40\u0e0a\u0e37\u0e2d\u0e01\u0e2b\u0e19\u0e31\u0e07", "amenity": "restaurant", "building": "yes", "name": "tasty restaurant & cafe"}}, {"type": "way", "id": 1091525877, "nodes": [9996689503, 9996689504, 9996689505, 9996689506, 9996689503], "tags": {"addr:district": "\u0e15\u0e25\u0e34\u0e48\u0e07\u0e0a\u0e31\u0e19", "addr:postcode": "10170", "addr:province": "\u0e01\u0e23\u0e38\u0e07\u0e40\u0e17\u0e1e\u0e21\u0e2b\u0e32\u0e19\u0e04\u0e23", "addr:subdistrict": "\u0e1a\u0e32\u0e07\u0e40\u0e0a\u0e37\u0e2d\u0e01\u0e2b\u0e19\u0e31\u0e07", "amenity": "restaurant", "building": "yes"}}, {"type": "way", "id": 1091525878, "nodes": [9996689507, 9996689508, 9996689509, 9996689510, 9996689507], "tags": {"addr:district": "\u0e15\u0e25\u0e34\u0e48\u0e07\u0e0a\u0e31\u0e19", "addr:postcode": "10170", "addr:province": "\u0e01\u0e23\u0e38\u0e07\u0e40\u0e17\u0e1e\u0e21\u0e2b\u0e32\u0e19\u0e04\u0e23", "addr:subdistrict": "\u0e1a\u0e32\u0e07\u0e40\u0e0a\u0e37\u0e2d\u0e01\u0e2b\u0e19\u0e31\u0e07", "amenity": "restaurant", "building": "yes"}}, {"type": "way", "id": 1092821402, "nodes": [10008357560, 10008357561, 10008357562, 10008357563, 10008357564, 10008357565, 10008357566, 10008357567, 10008357568, 10008357560], "tags": {"leisure": "park"}}, {"type": "way", "id": 1102838426, "nodes": [10091850139, 10091850140, 10091850141, 10091850142, 10091850139], "tags": {"leisure": "park"}}, {"type": "way", "id": 1103095642, "nodes": [10094601285, 10094601286, 10094601287, 10094601288, 10094601289, 10094601290, 10094601291, 10094601292, 10094601293, 10094601294, 10094601295, 10094601296, 10094601297, 10094601285], "tags": {"leisure": "park"}}, {"type": "way", "id": 1103806637, "nodes": [10100829340, 10100829341, 10100829342, 10100829343, 10100829344, 10100829345, 10100829346, 10100829338, 10100829339, 10100829347, 10100829348, 10100829349, 10100829350, 10100829351, 10100829352, 10100829353, 10100829340], "tags": {"leisure": "park"}}, {"type": "way", "id": 1125556352, "nodes": [6053955160, 8295452466, 10292691921, 5434050010, 6053955160], "tags": {"amenity": "restaurant", "cuisine": "coffee_shop", "layer": "1", "name": "oakland"}}, {"type": "way", "id": 1132736197, "nodes": [10562028641, 10562028642, 10562028643, 10562028644, 10562028645, 10562028646, 10562028647, 10562028648, 10562028649, 10562028650, 10562028651, 10562028641], "tags": {"leisure": "park"}}, {"type": "way", "id": 1137756972, "nodes": [10605452353, 10605452354, 10605452355, 10605452356, 10605452353], "tags": {"amenity": "marketplace"}}, {"type": "way", "id": 1144696047, "nodes": [10654547244, 10654547245, 10654547246, 10654547247, 10654547248, 10654547249, 10654547244], "tags": {"amenity": "marketplace", "building": "yes"}}, {"type": "way", "id": 1303439423, "nodes": [12071298485, 12071298486, 12071298487, 12071298488, 12071298489, 12071298490, 12071298485], "tags": {"building": "yes", "tourism": "apartment"}}, {"type": "way", "id": 1303439424, "nodes": [12071298492, 12071298493, 12071298494, 12071298495, 12071298496, 12071298492], "tags": {"building": "yes", "tourism": "apartment"}}, {"type": "way", "id": 1347119077, "nodes": [12461212212, 12461212213, 12461212214, 9260015963, 12461212215, 12461212216, 12461212212], "tags": {"alt_name": "\u0e15\u0e25\u0e32\u0e14\u0e19\u0e31\u0e14\u0e27\u0e31\u0e14\u0e0a\u0e31\u0e22\u0e09\u0e34\u0e21\u0e1e\u0e25\u0e35", "amenity": "marketplace", "name": "\u0e15\u0e25\u0e32\u0e14\u0e44\u0e0a\u0e22\u0e09\u0e34\u0e21\u0e1e\u0e25\u0e35", "name:en": "Chai Chimphli Market", "name:th": "\u0e15\u0e25\u0e32\u0e14\u0e44\u0e0a\u0e22\u0e09\u0e34\u0e21\u0e1e\u0e25\u0e35"}}, {"type": "node", "id": 3815700592, "lat": 13.6992172, "lon": 100.4060899}, {"type": "node", "id": 3815700593, "lat": 13.6993492, "lon": 100.4064514}, {"type": "node", "id": 3815700594, "lat": 13.7000383, "lon": 100.4057722}, {"type": "node", "id": 3815700595, "lat": 13.7001703, "lon": 100.4061338}, {"type": "node", "id": 3438641137, "lat": 13.7126273, "lon": 100.4066071}, {"type": "node", "id": 3438726945, "lat": 13.7114691, "lon": 100.405031}, {"type": "node", "id": 3438726946, "lat": 13.7114798, "lon": 100.4056738}, {"type": "node", "id": 3438726947, "lat": 13.7114948, "lon": 100.4059455}, {"type": "node", "id": 3438726948, "lat": 13.7115292, "lon": 100.4061443}, {"type": "node", "id": 3438726949, "lat": 13.7115785, "lon": 100.406299}, {"type": "node", "id": 3438726950, "lat": 13.7116579, "lon": 100.4064514}, {"type": "node", "id": 3438726951, "lat": 13.711791, "lon": 100.4065663}, {"type": "node", "id": 3438726952, "lat": 13.7119455, "lon": 100.4066546}, {"type": "node", "id": 3438726953, "lat": 13.7121086, "lon": 100.406701}, {"type": "node", "id": 3438726954, "lat": 13.7122503, "lon": 100.4067099}, {"type": "node", "id": 3438726955, "lat": 13.7124155, "lon": 100.4066767}, {"type": "node", "id": 3438726956, "lat": 13.7125832, "lon": 100.4064651}, {"type": "node", "id": 3438726957, "lat": 13.7125099, "lon": 100.4062305}, {"type": "node", "id": 3438726958, "lat": 13.7126838, "lon": 100.4061952}, {"type": "node", "id": 3438726959, "lat": 13.7129134, "lon": 100.4061399}, {"type": "node", "id": 3438726960, "lat": 13.7131514, "lon": 100.4060786}, {"type": "node", "id": 3438726961, "lat": 13.7134006, "lon": 100.4060149}, {"type": "node", "id": 3438726970, "lat": 13.7117656, "lon": 100.4050816}, {"type": "node", "id": 3438726971, "lat": 13.7120856, "lon": 100.405158}, {"type": "node", "id": 3438726972, "lat": 13.7124579, "lon": 100.4052854}, {"type": "node", "id": 3438726973, "lat": 13.713086, "lon": 100.4055127}, {"type": "node", "id": 3438726974, "lat": 13.7134094, "lon": 100.4056292}, {"type": "node", "id": 9943118131, "lat": 13.710441, "lon": 100.4090087}, {"type": "node", "id": 9943118132, "lat": 13.7105491, "lon": 100.409516}, {"type": "node", "id": 9943118133, "lat": 13.7096731, "lon": 100.4096994}, {"type": "node", "id": 9943118134, "lat": 13.7094822, "lon": 100.4091596}, {"type": "node", "id": 9943118135, "lat": 13.7095982, "lon": 100.409147}, {"type": "node", "id": 1625431635, "lat": 13.7114772, "lon": 100.4228347}, {"type": "node", "id": 1625431649, "lat": 13.711135, "lon": 100.4228549}, {"type": "node", "id": 1625431662, "lat": 13.7115031, "lon": 100.4232626}, {"type": "node", "id": 1625431666, "lat": 13.7111637, "lon": 100.4232734}, {"type": "node", "id": 1625435946, "lat": 13.7111218, "lon": 100.4249117}, {"type": "node", "id": 1625435948, "lat": 13.7107039, "lon": 100.4243666}, {"type": "node", "id": 1625435950, "lat": 13.7107686, "lon": 100.4249507}, {"type": "node", "id": 1625435961, "lat": 13.7111122, "lon": 100.424323}, {"type": "node", "id": 1625435964, "lat": 13.7111742, "lon": 100.4248806}, {"type": "node", "id": 3800740771, "lat": 13.7074609, "lon": 100.4262766}, {"type": "node", "id": 3800740773, "lat": 13.7088183, "lon": 100.4261445}, {"type": "node", "id": 3800740774, "lat": 13.7092217, "lon": 100.4273308}, {"type": "node", "id": 13261072143, "lat": 13.7108073, "lon": 100.4249464}, {"type": "node", "id": 13261072144, "lat": 13.7107536, "lon": 100.4243613}, {"type": "node", "id": 3438726962, "lat": 13.7136144, "lon": 100.4059639}, {"type": "node", "id": 3438726963, "lat": 13.7138849, "lon": 100.4059112}, {"type": "node", "id": 3438726964, "lat": 13.7141058, "lon": 100.4058766}, {"type": "node", "id": 3438726965, "lat": 13.7143232, "lon": 100.4058493}, {"type": "node", "id": 3438726966, "lat": 13.7146007, "lon": 100.4058366}, {"type": "node", "id": 3438726967, "lat": 13.7143232, "lon": 100.4058093}, {"type": "node", "id": 3438726968, "lat": 13.713998, "lon": 100.4057675}, {"type": "node", "id": 3438726969, "lat": 13.7136745, "lon": 100.405702}, {"type": "node", "id": 1869881726, "lat": 13.7122469, "lon": 100.4296321}, {"type": "node", "id": 1869881727, "lat": 13.7122061, "lon": 100.4296296}, {"type": "node", "id": 1869881729, "lat": 13.7122114, "lon": 100.429537}, {"type": "node", "id": 1869881730, "lat": 13.7122522, "lon": 100.4295395}, {"type": "node", "id": 1870996118, "lat": 13.7124383, "lon": 100.4310517}, {"type": "node", "id": 1870996119, "lat": 13.7124483, "lon": 100.4309674}, {"type": "node", "id": 1870996120, "lat": 13.712389, "lon": 100.4309599}, {"type": "node", "id": 1870996121, "lat": 13.7123789, "lon": 100.4310443}, {"type": "node", "id": 3800740772, "lat": 13.7079177, "lon": 100.4275047}, {"type": "node", "id": 8327608054, "lat": 13.71293, "lon": 100.4334267}, {"type": "node", "id": 8327608055, "lat": 13.7129103, "lon": 100.4333162}, {"type": "node", "id": 8327608058, "lat": 13.712902, "lon": 100.4325503}, {"type": "node", "id": 8327608059, "lat": 13.7129, "lon": 100.4325844}, {"type": "node", "id": 8327608060, "lat": 13.7129667, "lon": 100.4325772}, {"type": "node", "id": 8327608061, "lat": 13.7129632, "lon": 100.4325412}, {"type": "node", "id": 9260015973, "lat": 13.7090168, "lon": 100.4273778}, {"type": "node", "id": 10239941044, "lat": 13.713224, "lon": 100.4332634}, {"type": "node", "id": 12071298493, "lat": 13.7130185, "lon": 100.4319349}, {"type": "node", "id": 12071298494, "lat": 13.7129754, "lon": 100.4320797}, {"type": "node", "id": 3800740775, "lat": 13.7095028, "lon": 100.438935}, {"type": "node", "id": 3800740776, "lat": 13.7098291, "lon": 100.4377852}, {"type": "node", "id": 3800740777, "lat": 13.7102715, "lon": 100.4391966}, {"type": "node", "id": 3800740780, "lat": 13.7106856, "lon": 100.4381792}, {"type": "node", "id": 5926311173, "lat": 13.7118636, "lon": 100.4493973}, {"type": "node", "id": 5926311174, "lat": 13.7103896, "lon": 100.4484682}, {"type": "node", "id": 5926311175, "lat": 13.7094814, "lon": 100.4499948}, {"type": "node", "id": 5926311176, "lat": 13.7109555, "lon": 100.4509239}, {"type": "node", "id": 5926311179, "lat": 13.7133314, "lon": 100.4505146}, {"type": "node", "id": 5926311180, "lat": 13.7122369, "lon": 100.4504261}, {"type": "node", "id": 5926311181, "lat": 13.7122838, "lon": 100.4494847}, {"type": "node", "id": 5926311182, "lat": 13.7119503, "lon": 100.4494739}, {"type": "node", "id": 5926311183, "lat": 13.7104233, "lon": 100.4523278}, {"type": "node", "id": 5926311184, "lat": 13.7133783, "lon": 100.4523546}, {"type": "node", "id": 5926312685, "lat": 13.7133887, "lon": 100.4520489}, {"type": "node", "id": 5926312686, "lat": 13.712732, "lon": 100.452022}, {"type": "node", "id": 5926312687, "lat": 13.712732, "lon": 100.4509813}, {"type": "node", "id": 5926312688, "lat": 13.7133366, "lon": 100.4509599}, {"type": "node", "id": 2078445071, "lat": 13.7136527, "lon": 100.4334027}, {"type": "node", "id": 8327608050, "lat": 13.7157361, "lon": 100.4327108}, {"type": "node", "id": 8327608051, "lat": 13.7157252, "lon": 100.4334559}, {"type": "node", "id": 8327608052, "lat": 13.7146148, "lon": 100.4336053}, {"type": "node", "id": 8327608053, "lat": 13.7140935, "lon": 100.4335439}, {"type": "node", "id": 8327608056, "lat": 13.7138875, "lon": 100.4331538}, {"type": "node", "id": 8327608057, "lat": 13.7139413, "lon": 100.4323852}, {"type": "node", "id": 10239941043, "lat": 13.7135341, "lon": 100.4333469}, {"type": "node", "id": 10239941045, "lat": 13.7146401, "lon": 100.4332575}, {"type": "node", "id": 10239941050, "lat": 13.7136545, "lon": 100.4334707}, {"type": "node", "id": 10239941051, "lat": 13.7136425, "lon": 100.4334708}, {"type": "node", "id": 12071298485, "lat": 13.7136867, "lon": 100.4315785}, {"type": "node", "id": 12071298486, "lat": 13.714333, "lon": 100.4316884}, {"type": "node", "id": 12071298487, "lat": 13.7148828, "lon": 100.432367}, {"type": "node", "id": 12071298488, "lat": 13.7147525, "lon": 100.4324395}, {"type": "node", "id": 12071298489, "lat": 13.7143043, "lon": 100.4318896}, {"type": "node", "id": 12071298490, "lat": 13.7136659, "lon": 100.4317662}, {"type": "node", "id": 12071298492, "lat": 13.7136309, "lon": 100.4320143}, {"type": "node", "id": 12071298495, "lat": 13.7137149, "lon": 100.4321988}, {"type": "node", "id": 12071298496, "lat": 13.713733, "lon": 100.432026}, {"type": "node", "id": 10562028641, "lat": 13.7259851, "lon": 100.4387218}, {"type": "node", "id": 10562028642, "lat": 13.7259723, "lon": 100.4387512}, {"type": "node", "id": 10562028643, "lat": 13.7259758, "lon": 100.4387812}, {"type": "node", "id": 10562028644, "lat": 13.7259975, "lon": 100.4388092}, {"type": "node", "id": 10562028645, "lat": 13.7260444, "lon": 100.4388183}, {"type": "node", "id": 10562028646, "lat": 13.7263677, "lon": 100.4387782}, {"type": "node", "id": 10562028647, "lat": 13.7263401, "lon": 100.4382212}, {"type": "node", "id": 10562028648, "lat": 13.7263263, "lon": 100.4381734}, {"type": "node", "id": 10562028649, "lat": 13.7262902, "lon": 100.4381531}, {"type": "node", "id": 10562028650, "lat": 13.7262497, "lon": 100.4381607}, {"type": "node", "id": 10562028651, "lat": 13.726232, "lon": 100.4381892}, {"type": "node", "id": 3791497574, "lat": 13.7182345, "lon": 100.4412374}, {"type": "node", "id": 3791497575, "lat": 13.7183486, "lon": 100.4415497}, {"type": "node", "id": 3791497577, "lat": 13.718862, "lon": 100.4420488}, {"type": "node", "id": 3791497579, "lat": 13.719238, "lon": 100.4419954}, {"type": "node", "id": 3791497580, "lat": 13.7194817, "lon": 100.4419367}, {"type": "node", "id": 3791497583, "lat": 13.7198214, "lon": 100.4405515}, {"type": "node", "id": 3791497585, "lat": 13.7200418, "lon": 100.4414776}, {"type": "node", "id": 3791497586, "lat": 13.7202389, "lon": 100.4412695}, {"type": "node", "id": 10100829338, "lat": 13.7357887, "lon": 100.4196376}, {"type": "node", "id": 10100829339, "lat": 13.7355962, "lon": 100.4195699}, {"type": "node", "id": 10100829340, "lat": 13.7371109, "lon": 100.419192}, {"type": "node", "id": 10100829341, "lat": 13.7369904, "lon": 100.4193668}, {"type": "node", "id": 10100829342, "lat": 13.736403, "lon": 100.4189856}, {"type": "node", "id": 10100829343, "lat": 13.7362736, "lon": 100.4189521}, {"type": "node", "id": 10100829344, "lat": 13.7361374, "lon": 100.418948}, {"type": "node", "id": 10100829345, "lat": 13.736011, "lon": 100.4189552}, {"type": "node", "id": 10100829346, "lat": 13.7359113, "lon": 100.4190995}, {"type": "node", "id": 10100829347, "lat": 13.7358017, "lon": 100.4186563}, {"type": "node", "id": 10100829348, "lat": 13.7357612, "lon": 100.4185527}, {"type": "node", "id": 10100829349, "lat": 13.735782, "lon": 100.4184978}, {"type": "node", "id": 10100829350, "lat": 13.7360466, "lon": 100.4185943}, {"type": "node", "id": 10100829351, "lat": 13.7363151, "lon": 100.4186828}, {"type": "node", "id": 10100829352, "lat": 13.7366389, "lon": 100.4188901}, {"type": "node", "id": 10100829353, "lat": 13.7368364, "lon": 100.4190161}, {"type": "node", "id": 5418203592, "lat": 13.7381281, "lon": 100.4213861}, {"type": "node", "id": 5418203593, "lat": 13.7379692, "lon": 100.4216865}, {"type": "node", "id": 5418203594, "lat": 13.7379223, "lon": 100.4218447}, {"type": "node", "id": 5418203595, "lat": 13.737581, "lon": 100.4217401}, {"type": "node", "id": 5418203596, "lat": 13.7377634, "lon": 100.4211688}, {"type": "node", "id": 3798130418, "lat": 13.7442664, "lon": 100.4200703}, {"type": "node", "id": 3798130419, "lat": 13.7444943, "lon": 100.4189534}, {"type": "node", "id": 3798130420, "lat": 13.7449657, "lon": 100.4202488}, {"type": "node", "id": 3798130421, "lat": 13.7454001, "lon": 100.4197876}, {"type": "node", "id": 3798130422, "lat": 13.7457468, "lon": 100.419206}, {"type": "node", "id": 5434050010, "lat": 13.7271876, "lon": 100.4280995}, {"type": "node", "id": 6053955160, "lat": 13.7278414, "lon": 100.4280777}, {"type": "node", "id": 8295452466, "lat": 13.7279666, "lon": 100.428966}, {"type": "node", "id": 10292691921, "lat": 13.7273451, "lon": 100.4290751}, {"type": "node", "id": 10091850141, "lat": 13.7322443, "lon": 100.4400079}, {"type": "node", "id": 10091850142, "lat": 13.7322434, "lon": 100.4397079}, {"type": "node", "id": 9260015960, "lat": 13.7335913, "lon": 100.432823}, {"type": "node", "id": 9260015961, "lat": 13.7344286, "lon": 100.4328345}, {"type": "node", "id": 9260015962, "lat": 13.7344242, "lon": 100.4327203}, {"type": "node", "id": 9260015963, "lat": 13.7353893, "lon": 100.4326948}, {"type": "node", "id": 9260015964, "lat": 13.7354078, "lon": 100.431656}, {"type": "node", "id": 9260015965, "lat": 13.7334487, "lon": 100.4316391}, {"type": "node", "id": 11199499069, "lat": 13.7336297, "lon": 100.4328235}, {"type": "node", "id": 12461212212, "lat": 13.7361327, "lon": 100.4320091}, {"type": "node", "id": 12461212213, "lat": 13.7354138, "lon": 100.4319948}, {"type": "node", "id": 12461212214, "lat": 13.7354018, "lon": 100.4319943}, {"type": "node", "id": 12461212215, "lat": 13.73546, "lon": 100.4327048}, {"type": "node", "id": 12461212216, "lat": 13.7361536, "lon": 100.4327249}, {"type": "node", "id": 10091850139, "lat": 13.7331811, "lon": 100.4398258}, {"type": "node", "id": 10091850140, "lat": 13.7331725, "lon": 100.440037}, {"type": "node", "id": 10654547244, "lat": 13.7371358, "lon": 100.437875}, {"type": "node", "id": 10654547245, "lat": 13.7370595, "lon": 100.4378744}, {"type": "node", "id": 10654547246, "lat": 13.7370581, "lon": 100.4381043}, {"type": "node", "id": 10654547247, "lat": 13.7372046, "lon": 100.4381053}, {"type": "node", "id": 10654547248, "lat": 13.7372056, "lon": 100.437953}, {"type": "node", "id": 10654547249, "lat": 13.7371353, "lon": 100.4379526}, {"type": "node", "id": 10094601285, "lat": 13.7328275, "lon": 100.4444057}, {"type": "node", "id": 10094601286, "lat": 13.7328344, "lon": 100.4443207}, {"type": "node", "id": 10094601287, "lat": 13.7327747, "lon": 100.4442876}, {"type": "node", "id": 10094601288, "lat": 13.7326555, "lon": 100.4443053}, {"type": "node", "id": 10094601289, "lat": 13.732566, "lon": 100.4442782}, {"type": "node", "id": 10094601290, "lat": 13.7324972, "lon": 100.4442074}, {"type": "node", "id": 10094601291, "lat": 13.7324467, "lon": 100.4441294}, {"type": "node", "id": 10094601292, "lat": 13.7324926, "lon": 100.4440645}, {"type": "node", "id": 10094601293, "lat": 13.7324032, "lon": 100.4440456}, {"type": "node", "id": 10094601294, "lat": 13.7323894, "lon": 100.4441176}, {"type": "node", "id": 10094601295, "lat": 13.7324066, "lon": 100.4442156}, {"type": "node", "id": 10094601296, "lat": 13.732472, "lon": 100.4443136}, {"type": "node", "id": 10094601297, "lat": 13.7325706, "lon": 100.4443821}, {"type": "node", "id": 9763368506, "lat": 13.7395218, "lon": 100.4460086}, {"type": "node", "id": 9763368507, "lat": 13.7395452, "lon": 100.445461}, {"type": "node", "id": 9763799226, "lat": 13.7395494, "lon": 100.4453632}, {"type": "node", "id": 9763799227, "lat": 13.7395218, "lon": 100.4461055}, {"type": "node", "id": 10605452353, "lat": 13.7391178, "lon": 100.4461034}, {"type": "node", "id": 10605452354, "lat": 13.7390795, "lon": 100.4463963}, {"type": "node", "id": 10605452355, "lat": 13.7389018, "lon": 100.4463717}, {"type": "node", "id": 10605452356, "lat": 13.7389401, "lon": 100.4460788}, {"type": "node", "id": 2618494124, "lat": 13.7403609, "lon": 100.4331002}, {"type": "node", "id": 2618494125, "lat": 13.7403735, "lon": 100.4332579}, {"type": "node", "id": 2618494129, "lat": 13.7412619, "lon": 100.4332413}, {"type": "node", "id": 5267849031, "lat": 13.7422054, "lon": 100.4277102}, {"type": "node", "id": 5267849032, "lat": 13.7422235, "lon": 100.4282779}, {"type": "node", "id": 5267849033, "lat": 13.7413861, "lon": 100.4283432}, {"type": "node", "id": 5267849034, "lat": 13.7414515, "lon": 100.4277116}, {"type": "node", "id": 10660523152, "lat": 13.7419116, "lon": 100.4282933}, {"type": "node", "id": 10660523153, "lat": 13.7419034, "lon": 100.4283446}, {"type": "node", "id": 10660523154, "lat": 13.7413851, "lon": 100.4280519}, {"type": "node", "id": 10660523155, "lat": 13.7413849, "lon": 100.427943}, {"type": "node", "id": 10660523156, "lat": 13.7414189, "lon": 100.427938}, {"type": "node", "id": 10660523157, "lat": 13.7414562, "lon": 100.4277823}, {"type": "node", "id": 2618494122, "lat": 13.7402783, "lon": 100.4341776}, {"type": "node", "id": 2618494128, "lat": 13.7411583, "lon": 100.4342147}, {"type": "node", "id": 9777053745, "lat": 13.7440056, "lon": 100.4374851}, {"type": "node", "id": 9777053746, "lat": 13.7439802, "lon": 100.4376316}, {"type": "node", "id": 9777053747, "lat": 13.7436764, "lon": 100.4375757}, {"type": "node", "id": 9777053748, "lat": 13.7437018, "lon": 100.4374292}, {"type": "node", "id": 2476319019, "lat": 13.748603, "lon": 100.4384675}, {"type": "node", "id": 2476319020, "lat": 13.7485952, "lon": 100.4387275}, {"type": "node", "id": 2476319021, "lat": 13.7484262, "lon": 100.4387222}, {"type": "node", "id": 2476319022, "lat": 13.7484339, "lon": 100.4384621}, {"type": "node", "id": 9256191086, "lat": 13.7486996, "lon": 100.4389431}, {"type": "node", "id": 9256191087, "lat": 13.7483063, "lon": 100.4389502}, {"type": "node", "id": 9256191088, "lat": 13.7482873, "lon": 100.4391879}, {"type": "node", "id": 9256191089, "lat": 13.7469604, "lon": 100.439182}, {"type": "node", "id": 9256191090, "lat": 13.7470472, "lon": 100.4389168}, {"type": "node", "id": 9256191091, "lat": 13.747401, "lon": 100.4380988}, {"type": "node", "id": 9256191092, "lat": 13.7475796, "lon": 100.4377733}, {"type": "node", "id": 9256191093, "lat": 13.7483169, "lon": 100.4380647}, {"type": "node", "id": 9256191094, "lat": 13.7488273, "lon": 100.438072}, {"type": "node", "id": 9256191095, "lat": 13.7476769, "lon": 100.4392183}, {"type": "node", "id": 9763799224, "lat": 13.7406192, "lon": 100.4461697}, {"type": "node", "id": 9763799225, "lat": 13.7405869, "lon": 100.4453457}, {"type": "node", "id": 9763799228, "lat": 13.7398983, "lon": 100.4461631}, {"type": "node", "id": 9763799229, "lat": 13.7401544, "lon": 100.4461919}, {"type": "node", "id": 9996689499, "lat": 13.7427457, "lon": 100.4419723}, {"type": "node", "id": 9996689500, "lat": 13.7427307, "lon": 100.4420247}, {"type": "node", "id": 9996689501, "lat": 13.7426368, "lon": 100.4419961}, {"type": "node", "id": 9996689502, "lat": 13.7426518, "lon": 100.4419437}, {"type": "node", "id": 9996689503, "lat": 13.7427311, "lon": 100.4420268}, {"type": "node", "id": 9996689504, "lat": 13.742716, "lon": 100.4420792}, {"type": "node", "id": 9996689505, "lat": 13.7426222, "lon": 100.4420507}, {"type": "node", "id": 9996689506, "lat": 13.7426372, "lon": 100.4419982}, {"type": "node", "id": 9996689507, "lat": 13.7427154, "lon": 100.4420813}, {"type": "node", "id": 9996689508, "lat": 13.7427003, "lon": 100.4421337}, {"type": "node", "id": 9996689509, "lat": 13.7426065, "lon": 100.4421052}, {"type": "node", "id": 9996689510, "lat": 13.7426215, "lon": 100.4420528}, {"type": "node", "id": 10008357560, "lat": 13.7419473, "lon": 100.4405399}, {"type": "node", "id": 10008357561, "lat": 13.7418285, "lon": 100.4405044}, {"type": "node", "id": 10008357562, "lat": 13.7417919, "lon": 100.4406309}, {"type": "node", "id": 10008357563, "lat": 13.7417974, "lon": 100.4409628}, {"type": "node", "id": 10008357564, "lat": 13.7418175, "lon": 100.4409898}, {"type": "node", "id": 10008357565, "lat": 13.7419335, "lon": 100.4410218}, {"type": "node", "id": 10008357566, "lat": 13.7419742, "lon": 100.4408932}, {"type": "node", "id": 10008357567, "lat": 13.7418748, "lon": 100.4408669}, {"type": "node", "id": 10008357568, "lat": 13.7418748, "lon": 100.4407887}, {"type": "node", "id": 9256191069, "lat": 13.7403777, "lon": 100.4478656}, {"type": "node", "id": 9256191070, "lat": 13.7409032, "lon": 100.4479386}, {"type": "node", "id": 9256191071, "lat": 13.7414523, "lon": 100.4480721}, {"type": "node", "id": 9256191072, "lat": 13.7414804, "lon": 100.4481077}, {"type": "node", "id": 9256191073, "lat": 13.741355, "lon": 100.4492805}, {"type": "node", "id": 9256191074, "lat": 13.7409465, "lon": 100.4491826}, {"type": "node", "id": 9256191075, "lat": 13.740927, "lon": 100.4490357}, {"type": "node", "id": 9256191076, "lat": 13.7407433, "lon": 100.4486641}, {"type": "node", "id": 9256191077, "lat": 13.7404666, "lon": 100.4482724}, {"type": "node", "id": 9713163348, "lat": 13.7468098, "lon": 100.4431344}, {"type": "node", "id": 9713163349, "lat": 13.7467992, "lon": 100.442917}, {"type": "node", "id": 9713163350, "lat": 13.7467928, "lon": 100.4427543}, {"type": "node", "id": 9713163351, "lat": 13.7468225, "lon": 100.4426003}, {"type": "node", "id": 9713163352, "lat": 13.7468904, "lon": 100.4422988}, {"type": "node", "id": 9713163353, "lat": 13.7469307, "lon": 100.4421338}, {"type": "node", "id": 9713163354, "lat": 13.7469541, "lon": 100.4420017}, {"type": "node", "id": 9713163355, "lat": 13.7472764, "lon": 100.4420048}, {"type": "node", "id": 9713163356, "lat": 13.7475088, "lon": 100.4419829}, {"type": "node", "id": 9713163357, "lat": 13.7478661, "lon": 100.4419432}, {"type": "node", "id": 9713163358, "lat": 13.7480016, "lon": 100.4419337}, {"type": "node", "id": 9713163359, "lat": 13.7480095, "lon": 100.4426297}, {"type": "node", "id": 9713163360, "lat": 13.7475619, "lon": 100.4426283}, {"type": "node", "id": 9713163361, "lat": 13.7473056, "lon": 100.4426488}, {"type": "node", "id": 9713163362, "lat": 13.747295, "lon": 100.4427363}, {"type": "node", "id": 9713163363, "lat": 13.7471117, "lon": 100.4427732}, {"type": "node", "id": 9713163364, "lat": 13.7470917, "lon": 100.442791}, {"type": "node", "id": 9713163365, "lat": 13.74685, "lon": 100.4431246}, {"type": "node", "id": 9713163386, "lat": 13.7469154, "lon": 100.442758}, {"type": "node", "id": 9713163387, "lat": 13.7468766, "lon": 100.4427607}]}